time,.header.seq,.header.stamp.secs,.header.stamp.nsecs,.header.frame_id,.child_frame_id,.pose.pose.position.x,.pose.pose.position.y,.pose.pose.position.z,.pose.pose.orientation.x,.pose.pose.orientation.y,.pose.pose.orientation.z,.pose.pose.orientation.w,.pose.covariance,.twist.twist.linear.x,.twist.twist.linear.y,.twist.twist.linear.z,.twist.twist.angular.x,.twist.twist.angular.y,.twist.twist.angular.z,.twist.covariance
2025/09/16/13:26:44.123389,84129,1758047204,123255491,odom,base_link,-2.769609072080831,-0.11129554031230976,0.08637283277397818,0.013435144324759443,0.027563783729104428,0.8333293395664062,0.5519256712106491,"(0.0017804037065604116, -3.920019497438958e-08, -1.03879163362359e-06, -6.788622614801565e-12, 3.2671525912867273e-11, -6.344645427315724e-10, -3.920019497439162e-08, 0.001780450439540311, -7.074113969925355e-07, -2.244181639660065e-12, 2.435050732793845e-11, -4.918510949998829e-10, -1.0387916336235896e-06, -7.074113969925351e-07, 0.001059616272004379, 3.475189772909993e-11, -3.102186571255288e-11, 5.069695308145886e-11, -6.788622614801578e-12, -2.244181639660066e-12, 3.4751897729099926e-11, 0.0005232941447761423, -2.3342795269181836e-08, 5.151397131974358e-07, 3.2671525912867364e-11, 2.435050732793843e-11, -3.102186571255344e-11, -2.334279526918184e-08, 0.0005234679218575734, -3.2379987578911284e-06, -6.344645427315749e-10, -4.918510949998835e-10, 5.06969530814586e-11, 5.151397131974358e-07, -3.2379987578911284e-06, 0.0017943250096778079)",0.24358726317094057,0.09121248352730053,0.00020089445630818087,0.00914369138699692,-0.007752738403075423,-0.5838450824671498,"(0.18413045062547104, -5.078253136774653e-07, -2.0759754459369815e-05, 6.2992667266242304e-09, -8.459203707744332e-09, -6.589400082544119e-07, -5.078253136764777e-07, 0.18395625921316586, -0.0019842549349106055, 1.1270375805392031e-08, 1.9843495005893192e-08, 2.606820498471398e-06, -2.0759754459369716e-05, -0.0019842549349106055, 0.07956985665355008, 1.0965494479570255e-07, -8.091210170898395e-08, 1.2141258607971886e-08, 6.299266726624237e-09, 1.127037580539201e-08, 1.0965494479570252e-07, 0.017562252931249644, 5.083066399492695e-06, 2.1487160815740803e-05, -8.459203707744426e-09, 1.984349500589337e-08, -8.091210170898593e-08, 5.083066399492693e-06, 0.017607832717062635, 0.0018058198059416068, -6.589400082544107e-07, 2.6068204984714067e-06, 1.2141258607970561e-08, 2.1487160815740806e-05, 0.0018058198059416068, 0.2348682313343994)"
2025/09/16/13:26:44.143305,84130,1758047204,143222332,odom,base_link,-2.773186613513207,-0.10752427134903002,0.08644902718187066,0.013390243084052102,0.02767617618086154,0.83009455277278,0.5567744283990727,"(0.003974553747924457, -1.5995199360580863e-07, -4.904740689249683e-06, 4.8843709680617926e-08, 1.1334723005223432e-08, -7.062993847664195e-06, -1.5995199360581996e-07, 0.003974772440463923, -3.339233016280825e-06, 2.6273884537138086e-08, 6.259929604140994e-08, -6.70037563817064e-06, -4.904740689249681e-06, -3.3392330162808245e-06, 0.0023441900876571913, 9.940728903824793e-07, -2.567919026359309e-06, 3.701477494334392e-08, 4.8843709680617906e-08, 2.627388453713807e-08, 9.94072890382479e-07, 0.001141386641784489, -1.1885691517315034e-07, 2.8777851629706108e-06, 1.1334723005223435e-08, 6.259929604140994e-08, -2.5679190263593086e-06, -1.188569151731491e-07, 0.0011421997069316504, -1.5303999383166804e-05, -7.062993847664194e-06, -6.70037563817064e-06, 3.701477494334392e-08, 2.8777851629706108e-06, -1.5303999383166804e-05, 0.004040074307631893)",0.24401308721295858,0.09158498169046486,0.00024109656959856859,0.00914369138699692,-0.007752738403075423,-0.5838450824671498,"(0.19044621893835031, -5.069298529045554e-07, -2.073060989026764e-05, 6.319803769856162e-09, -8.4883159048349e-09, -6.61202003261059e-07, -5.06929852903547e-07, 0.190270831352034, -0.0020037508933732724, 1.1308097585834397e-08, 1.9903352489594873e-08, 2.6152942286519172e-06, -2.073060989026754e-05, -0.0020037508933732724, 0.08161016145046086, 1.1037058964546384e-07, -8.125365596210292e-08, 1.227168973613456e-08, 6.319803769856169e-09, 1.1308097585834376e-08, 1.1037058964546381e-07, 0.01776192133868983, 5.083066399492695e-06, 2.1487160815740803e-05, -8.488315904834994e-09, 1.9903352489595052e-08, -8.125365596210491e-08, 5.083066399492693e-06, 0.01780750112450282, 0.0018058198059416068, -6.612020032610579e-07, 2.6152942286519257e-06, 1.2271689736133229e-08, 2.1487160815740806e-05, 0.0018058198059416068, 0.24485165170640869)"
2025/09/16/13:26:44.163361,84131,1758047204,159329414,odom,base_link,-2.7764031891303356,-0.10469516251953724,0.06072703754941326,0.006819907817575264,0.022328972126311852,0.8283530293420992,0.5597197197177437,"(9.999985183723245e-10, -8.752058640341956e-21, -3.067706923342867e-19, -1.3801196459842695e-23, 2.85353075079567e-23, -2.257929115912068e-22, -8.75205864034201e-21, 9.999985183799292e-10, -3.5929078589474205e-19, -6.665999874551727e-24, 1.892627644116312e-23, -1.7462225206788133e-22, -3.067706923342867e-19, -3.5929078589474224e-19, 9.999975226749788e-10, 7.265982587735965e-23, -6.729103510667327e-23, 2.392492325048084e-23, -1.3801196459842725e-23, -6.665999874551746e-24, 7.265982587735953e-23, 9.999950216597218e-10, -1.0455284508446733e-19, 9.789411749811128e-19, 2.8535307507956806e-23, 1.892627644116317e-23, -6.729103510667416e-23, -1.0455284508446736e-19, 9.999950219534563e-10, -2.4930187414350254e-18, -2.257929115912076e-22, -1.7462225206788192e-22, 2.392492325048066e-23, 9.789411749811132e-19, -2.4930187414350246e-18, 9.9999852298055e-10)",0.24516710202319836,0.08929487444647752,-0.032374270902534356,-0.00015999788401437637,-0.004964686335475009,-0.5822107511734786,"(0.17874381046181367, 3.6819182579378327e-06, 2.289756646439874e-05, 5.391235644529702e-09, -7.73328681935704e-09, -7.577666775700209e-07, 3.681918257940073e-06, 0.17857448496090506, -0.0019774328450347482, 1.0416812590142816e-08, 1.8388887198123207e-08, 2.7189775249866823e-06, 2.289756646439883e-05, -0.0019774328450347487, 0.07783664249626028, 1.1513597730013633e-07, -7.908960142240358e-08, 1.43726571467215e-08, 5.3912356445297065e-09, 1.04168125901428e-08, 1.1513597730013612e-07, 0.01739009546523213, 4.040743144042273e-06, -3.800251407494269e-05, -7.733286819357084e-09, 1.8388887198123277e-08, -7.908960142240526e-08, 4.040743144042273e-06, 0.017436831107456918, 0.001810368805798276, -7.57766677570022e-07, 2.718977524986692e-06, 1.4372657146720053e-08, -3.800251407494271e-05, 0.0018103688057982757, 0.2263565114061964)"
2025/09/16/13:26:44.175848,84132,1758047204,173216820,odom,base_link,-2.778842579206994,-0.10201074859644291,0.060285673329892986,0.0067576589365982405,0.022336761096872854,0.8260832695471004,0.5630646809415152,"(0.00142327171399552, -1.6867602546935005e-08, -3.523043689141217e-07, -7.736307425660928e-12, 1.6158575415403328e-11, -4.3444900018067256e-10, -1.6867602546931938e-08, 0.0014232861630466495, -4.242851932238204e-07, -3.794139607973634e-12, 1.1216210253876833e-11, -3.335168119870628e-10, -3.5230436891412194e-07, -4.242851932238203e-07, 0.0008483458458452269, 2.398205554737157e-11, -1.9742720811520223e-11, 2.7527141304678713e-11, -7.736307425660952e-12, -3.794139607973646e-12, 2.398205554737152e-11, 0.0004199850154509158, -1.8740261972946223e-08, 5.901130113692634e-07, 1.615857541540338e-11, 1.121621025387685e-11, -1.974272081152054e-11, -1.8740261972946223e-08, 0.0004200351712026924, -1.4488836382731772e-06, -4.344490001806744e-10, -3.3351681198706377e-10, 2.7527141304678516e-11, 5.901130113692634e-07, -1.4488836382731774e-06, 0.0014323557822660668)",0.2454652141644947,0.08954735031547474,-0.032520546321364134,-0.00015999788401437637,-0.004964686335475009,-0.5822107511734786,"(0.18310499133291672, 3.7031444968357905e-06, 2.3241263508524113e-05, 5.403211196764168e-09, -7.75161733918391e-09, -7.595821281412045e-07, 3.7031444968380406e-06, 0.18293485879277735, -0.0019909495657594854, 1.0441019125282556e-08, 1.84267375209633e-08, 2.7251784087534724e-06, 2.3241263508524208e-05, -0.001990949565759486, 0.07923375289261331, 1.1565864462065477e-07, -7.932004064239898e-08, 1.4477033966223217e-08, 5.403211196764172e-09, 1.0441019125282539e-08, 1.1565864462065456e-07, 0.017528969519187206, 4.040743144042273e-06, -3.800251407494269e-05, -7.751617339183957e-09, 1.8426737520963368e-08, -7.932004064240068e-08, 4.040743144042273e-06, 0.017575705161411995, 0.001810368805798276, -7.595821281412057e-07, 2.725178408753482e-06, 1.4477033966221766e-08, -3.800251407494271e-05, 0.0018103688057982757, 0.2333002141039503)"
2025/09/16/13:26:44.193332,84133,1758047204,193214417,odom,base_link,-2.7823322916253366,-0.09811272043216623,0.05964509009689711,0.006667909794146068,0.022347728039595297,0.8227911441742226,0.5678651698237172,"(0.0035962235161046, -8.15637038124048e-08, -2.12933095124246e-06, -2.3703149048475132e-07, 1.1079228956442393e-07, -5.832483631301584e-06, -8.15637038123823e-08, 0.0035963064480087487, -2.5615217904087934e-06, -8.104347139057636e-08, -2.418834268460716e-07, -5.217795031198034e-06, -2.12933095124246e-06, -2.561521790408793e-06, 0.002123937695317138, 7.981465842831505e-07, -2.0754500282972347e-06, 2.0784367340547933e-08, -2.3703149048475132e-07, -8.104347139057638e-08, 7.981465842831507e-07, 0.0010366860724853547, -1.1688684979159308e-07, 3.816823374739163e-06, 1.1079228956442394e-07, -2.418834268460717e-07, -2.0754500282972347e-06, -1.1688684979159377e-07, 0.0010369800057658696, -8.781434526857742e-06, -5.832483631301583e-06, -5.217795031198032e-06, 2.0784367340547936e-08, 3.816823374739163e-06, -8.781434526857744e-06, 0.0036509354521289455)",0.24589448991582302,0.08991091071219241,-0.03273118011187654,-0.00015999788401437637,-0.004964686335475009,-0.5822107511734786,"(0.18942303422828946, 3.7337828867317866e-06, 2.3736686275457924e-05, 5.420455761714348e-09, -7.778012935273024e-09, -7.62196342055993e-07, 3.733782886734051e-06, 0.18925173607760407, -0.0020104920791806633, 1.0475876070437424e-08, 1.848124125806218e-08, 2.7341075621462634e-06, 2.373668627545802e-05, -0.0020104920791806638, 0.0812719682346502, 1.164112755122872e-07, -7.965186868827755e-08, 1.4627334579334843e-08, 5.420455761714351e-09, 1.0475876070437408e-08, 1.1641127551228697e-07, 0.01772894548659443, 4.040743144042273e-06, -3.800251407494269e-05, -7.778012935273072e-09, 1.848124125806225e-08, -7.965186868827927e-08, 4.040743144042273e-06, 0.01777568112881922, 0.001810368805798276, -7.621963420559941e-07, 2.734107562146273e-06, 1.4627334579333385e-08, -3.800251407494271e-05, 0.0018103688057982757, 0.24329901247431163)"
2025/09/16/13:26:44.213416,84134,1758047204,205972910,odom,base_link,-2.7825684551308214,-0.10109244922397295,0.06949231427980893,0.005051600969588982,0.020967210977678445,0.8224455428553746,0.5684348568031256,"(9.999989953377282e-10, -7.527627281894085e-21, -2.490664860813477e-19, -1.463904303931205e-23, 2.55532183191964e-23, -2.26277813990926e-22, -7.527627281895302e-21, 9.999989953435416e-10, -3.488035371664079e-19, -6.805826769213937e-24, 1.728405021297932e-23, -1.7223634981139049e-22, -2.4906648608134755e-19, -3.4880353716640776e-19, 9.999983176901937e-10, 7.285216844211651e-23, -5.826139402388306e-23, 2.2262188340499327e-23, -1.4639043039312047e-23, -6.805826769213901e-24, 7.285216844211639e-23, 9.999966117798233e-10, -1.0363067806007363e-19, 1.0805608424340759e-18, 2.5553218319196462e-23, 1.7284050212979218e-23, -5.826139402388382e-23, -1.0363067806007361e-19, 9.999966120027427e-10, -2.2179977417832876e-18, -2.2627781399092614e-22, -1.7223634981138966e-22, 2.2262188340499065e-23, 1.0805608424340757e-18, -2.217997741783289e-18, 9.99998999891378e-10)",0.23596193200257126,0.09144872726094228,-0.019898378646202194,-0.0024607908969683707,-0.0043108522174898,-0.5708611027850793,"(0.17876158760092012, 7.3014347782249896e-06, 7.786141684568145e-05, 6.6445237314297e-09, -8.166481847902861e-09, -7.92238280337023e-07, 7.301434778229291e-06, 0.1786062109400334, -0.001929333797204969, 1.0392526442896416e-08, 1.8248887410901622e-08, 2.711526003643431e-06, 7.786141684568149e-05, -0.0019293337972049692, 0.0778367134341391, 1.196733153299249e-07, -7.638536498337824e-08, 1.3227028135858146e-08, 6.644523731429669e-09, 1.0392526442896364e-08, 1.1967331532992475e-07, 0.017390437272951677, 2.8854818577178273e-06, -0.00011297302866408404, -8.166481847902855e-09, 1.8248887410901477e-08, -7.638536498337959e-08, 2.8854818577178264e-06, 0.017436691503547288, 0.0017597326355922463, -7.922382803370143e-07, 2.7115260036434297e-06, 1.3227028135856824e-08, -0.00011297302866408404, 0.0017597326355922463, 0.22646530487788766)"
2025/09/16/13:26:44.223284,84135,1758047204,219311476,odom,base_link,-2.7843146327957373,-0.1000740889748997,0.07199015129031515,0.004572043713478067,0.02047482127728944,0.8207711400281748,0.5708718015516226,"(9.999992677840494e-10, -7.182318340985216e-21, -2.3337888955362753e-19, -1.4020534042862277e-23, 2.3488371694363022e-23, -2.151945362574049e-22, -7.1823183409855e-21, 9.999992677894203e-10, -3.429231420146316e-19, -6.426289264256956e-24, 1.5885570217676385e-23, -1.6227320253814964e-22, -2.3337888955362734e-19, -3.4292314201463156e-19, 9.99998771862599e-10, 7.001380647103712e-23, -5.338779893174678e-23, 2.0724006527513298e-23, -1.402053404286227e-23, -6.4262892642569195e-24, 7.001380647103699e-23, 9.999975202217785e-10, -1.01641717795588e-19, 1.092043911090965e-18, 2.3488371694363063e-23, 1.5885570217676276e-23, -5.338779893174746e-23, -1.0164171779558801e-19, 9.999975204273132e-10, -2.1351070348325022e-18, -2.15194536257405e-22, -1.6227320253814887e-22, 2.0724006527513046e-23, 1.0920439110909648e-18, -2.1351070348325022e-18, 9.999992722620707e-10)",0.23334343346386838,0.09200283284534283,-0.016450874120335156,-0.0031828296615970075,-0.004216612190833663,-0.56730143137904,"(0.1787567056430973, 8.227525147891652e-06, 9.405784745572042e-05, 6.558259629251516e-09, -7.936084229799355e-09, -7.526891089595327e-07, 8.227525147895765e-06, 0.17860560570601697, -0.0019124073394501098, 9.802615248077299e-09, 1.7690725787780618e-08, 2.5759216440178245e-06, 9.405784745572044e-05, -0.0019124073394501098, 0.0778353768527416, 1.1723202635983457e-07, -7.471086685447968e-08, 1.2261310453671198e-08, 6.558259629251485e-09, 9.80261524807725e-09, 1.1723202635983441e-07, 0.017390417122015483, 2.552920517491707e-06, -0.00013497812607920183, -7.936084229799351e-09, 1.7690725787780472e-08, -7.471086685448102e-08, 2.5529205174917064e-06, 0.017436433866519514, 0.0017423704568545273, -7.526891089595244e-07, 2.575921644017823e-06, 1.2261310453669931e-08, -0.00013497812607920183, 0.0017423704568545273, 0.22647174304743758)"
2025/09/16/13:26:44.233300,84136,1758047204,226013422,odom,base_link,-2.7851831916795136,-0.099565758209989,0.07324134967659977,0.004319782829622566,0.020241681033948564,0.819927054421618,0.5720937329255706,"(9.999985255740995e-10, -6.930931204069132e-21, -2.205385520078859e-19, -1.4230732066933123e-23, 2.2113139027568304e-23, -2.121513356507074e-22, -6.930931204072031e-21, 9.999985255792154e-10, -3.4443630339069347e-19, -6.360547642452212e-24, 1.4251312782458342e-23, -1.5825185433495028e-22, -2.2053855200788563e-19, -3.4443630339069337e-19, 9.999975346690282e-10, 7.320025805047535e-23, -6.224472719613809e-23, 1.9650414190988206e-23, -1.4230732066933123e-23, -6.360547642452175e-24, 7.320025805047524e-23, 9.999950456748733e-10, -1.013619205796357e-19, 1.1309091675242596e-18, 2.2113139027568357e-23, 1.4251312782458248e-23, -6.22447271961388e-23, -1.0136192057963569e-19, 9.999950458638491e-10, -2.0851716657248584e-18, -2.1215133565070767e-22, -1.5825185433494948e-22, 1.9650414190987954e-23, 1.1309091675242594e-18, -2.085171665724859e-18, 9.999985301960088e-10)",0.23202347929650122,0.09226762270095744,-0.014734612581148466,-0.0035380292579410186,-0.004148363436461851,-0.5655434743327452,"(0.1787346284812675, 8.668517775101308e-06, 0.00010225629107084286, 6.514206918759211e-09, -7.820590053889097e-09, -7.334467106458625e-07, 8.66851777510492e-06, 0.17858573609773049, -0.0019032779453611614, 9.517393184662897e-09, 1.7408601888392536e-08, 2.5099475151086108e-06, 0.00010225629107084289, -0.0019032779453611616, 0.07783237535877102, 1.1602025064370501e-07, -7.38802831977328e-08, 1.1803668876172624e-08, 6.51420691875918e-09, 9.517393184662849e-09, 1.1602025064370486e-07, 0.017390152370998647, 2.386914688525018e-06, -0.00014613281958186864, -7.820590053889094e-09, 1.7408601888392394e-08, -7.388028319773414e-08, 2.3869146885250176e-06, 0.017436031276814517, 0.0017330682285196918, -7.334467106458544e-07, 2.5099475151086095e-06, 1.1803668876171385e-08, -0.00014613281958186864, 0.0017330682285196918, 0.22642556466431574)"
2025/09/16/13:26:44.243486,84137,1758047204,243210316,odom,base_link,-2.7880607969828546,-0.09637403926912597,0.07298408167351686,0.004233128314558481,0.020217997670856074,0.8171358491805444,0.5760749232338136,"(0.0017726772069068099, -2.0300151884515593e-08, -3.8184235715728905e-07, -1.246208162762139e-11, 1.912453569784228e-11, -6.252044862902387e-10, -2.0300151884515427e-08, 0.0017726921504279145, -6.193439420521128e-07, -5.6230285175328145e-12, 1.2734167383957765e-11, -4.627598092815396e-10, -3.8184235715728884e-07, -6.193439420521126e-07, 0.0010549928580055098, 3.666017041869156e-11, -2.6979909408452144e-11, 3.4515458036449296e-11, -1.2462081627621381e-11, -5.6230285175327806e-12, 3.6660170418691504e-11, 0.0005210665852555265, -2.730422540452211e-08, 1.032804964918896e-06, 1.912453569784232e-11, 1.2734167383957676e-11, -2.6979909408452532e-11, -2.7304225404522114e-08, 0.0005211150854682976, -1.8448013966652278e-06, -6.25204486290239e-10, -4.627598092815373e-10, 3.451545803644886e-11, 1.0328049649188964e-06, -1.844801396665228e-06, 0.0017866184476785661)",0.2323480570017686,0.09258570981230498,-0.014795098027292893,-0.0035380292579410186,-0.004148363436461851,-0.5655434743327452,"(0.18413824361991463, 8.725096303542701e-06, 0.00010341319560998252, 6.532316811081723e-09, -7.843331915976669e-09, -7.356066150684179e-07, 8.725096303546323e-06, 0.183988481819689, -0.001919227511314266, 9.544696364250901e-09, 1.7452342600747635e-08, 2.516995689696835e-06, 0.00010341319560998254, -0.0019192275113142662, 0.07956457185762232, 1.1666108044286391e-07, -7.413312064871015e-08, 1.1912952828894498e-08, 6.532316811081692e-09, 9.544696364250855e-09, 1.1666108044286375e-07, 0.017562121307918812, 2.386914688525018e-06, -0.00014613281958186864, -7.843331915976667e-09, 1.745234260074749e-08, -7.41331206487115e-08, 2.3869146885250176e-06, 0.01760800021373468, 0.0017330682285196918, -7.356066150684098e-07, 2.516995689696834e-06, 1.1912952828893255e-08, -0.00014613281958186864, 0.0017330682285196918, 0.23502401151032404)"
2025/09/16/13:26:44.253331,84138,1758047204,253214598,odom,base_link,-2.7897199184019024,-0.09449954768980269,0.07283309413783995,0.00418267033794356,0.020203780975734737,0.8155031741102224,0.5783847210285564,"(0.002853359853463034, -4.525123398800901e-08, -9.60719033547572e-07, -6.170920858626808e-08, 3.178022635051621e-08, -3.4238941644559485e-06, -4.525123398801525e-08, 0.0028533962165849464, -1.5607626445336443e-06, -1.4702896631110065e-08, -6.974914944496661e-08, -3.029584209957187e-06, -9.607190335475717e-07, -1.5607626445336432e-06, 0.0016903598288212608, 4.954759655238741e-07, -1.2150771877607459e-06, 8.586003795210963e-09, -6.170920858626808e-08, -1.4702896631110065e-08, 4.954759655238741e-07, 0.0008289813040379101, -7.037218406264504e-08, 2.7240734207723535e-06, 3.1780226350516206e-08, -6.974914944496663e-08, -1.215077187760746e-06, -7.03721840626456e-08, 0.0008290983609543058, -4.67401777620712e-06, -3.4238941644559493e-06, -3.0295842099571883e-06, 8.586003795210965e-09, 2.724073420772353e-06, -4.67401777620712e-06, 0.0028884299952148806)",0.2325368798759347,0.09277075678757503,-0.014830285397222689,-0.0035380292579410186,-0.004148363436461851,-0.5655434743327452,"(0.18729705930458765, 8.758082496852765e-06, 0.00010408779440924433, 6.542852229453597e-09, -7.8565619798214e-09, -7.368631380962548e-07, 8.758082496856392e-06, 0.18714679050985936, -0.001928536146642556, 9.560579971658356e-09, 1.7477788732416345e-08, 2.5210959607930164e-06, 0.00010408779440924434, -0.0019285361466425562, 0.08058287165528216, 1.1703388277205892e-07, -7.428020867544643e-08, 1.1976528699073795e-08, 6.542852229453566e-09, 9.56057997165831e-09, 1.1703388277205876e-07, 0.01766216412789562, 2.386914688525018e-06, -0.00014613281958186864, -7.856561979821399e-09, 1.74777887324162e-08, -7.428020867544779e-08, 2.3869146885250176e-06, 0.017708043033711488, 0.0017330682285196918, -7.368631380962468e-07, 2.521095960793015e-06, 1.1976528699072551e-08, -0.00014613281958186864, 0.0017330682285196918, 0.24002615250916437)"
2025/09/16/13:26:44.263492,84139,1758047204,263259411,odom,base_link,-2.7913774628991903,-0.09260692327893705,0.07268065638936189,0.004131972499177883,0.020189345204913847,0.8138573178619889,0.5806992193088882,"(0.003976055514832859, -6.958141553839337e-08, -1.8213576244548472e-06, -1.6456102415434237e-07, 8.724083860655643e-08, -9.084828597981691e-06, -6.958141553840232e-08, 0.003976120164440853, -2.9554254047502886e-06, -4.0131084963509954e-08, -1.7796984465927577e-07, -7.98608428105622e-06, -1.8213576244548474e-06, -2.955425404750288e-06, 0.0023446716304157053, 1.2982579721576512e-06, -3.161920653106267e-06, 3.0670594331318506e-08, -1.6456102415434237e-07, -4.013108496350995e-08, 1.2982579721576505e-06, 0.0011417151652844935, -1.3519560170394298e-07, 5.270652268982788e-06, 8.724083860655643e-08, -1.7796984465927585e-07, -3.1619206531062675e-06, -1.3519560170394197e-07, 0.0011419311893789976, -8.84910403784762e-06, -9.084828597981698e-06, -7.986084281056224e-06, 3.06705943313185e-08, 5.270652268982789e-06, -8.849104037847621e-06, 0.00404251995239697)",0.23272646774351388,0.092956553458653,-0.014865615324596019,-0.0035380292579410186,-0.004148363436461851,-0.5655434743327452,"(0.19048000220313893, 8.791255369630201e-06, 0.00010476628838398846, 6.553430330819758e-09, -7.869845643696007e-09, -7.381247517776684e-07, 8.791255369633835e-06, 0.19032922346301273, -0.0019379046856339804, 9.576527929611776e-09, 1.7503337956060546e-08, 2.5252128436497934e-06, 0.00010476628838398846, -0.0019379046856339804, 0.08161318625446068, 1.174081954655437e-07, -7.442789261182606e-08, 1.2040362139328412e-08, 6.5534303308197254e-09, 9.57652792961173e-09, 1.1740819546554354e-07, 0.017762612259456897, 2.386914688525018e-06, -0.00014613281958186864, -7.869845643696005e-09, 1.75033379560604e-08, -7.442789261182744e-08, 2.3869146885250176e-06, 0.017808491165272767, 0.0017330682285196918, -7.381247517776604e-07, 2.525212843649792e-06, 1.2040362139327166e-08, -0.00014613281958186864, 0.0017330682285196918, 0.24504855908722833)"
2025/09/16/13:26:44.273365,84140,1758047204,265988588,odom,base_link,-2.790258400478023,-0.09655472975349903,0.08071234146439679,0.002834556458521568,0.018830622201657054,0.8148412887115491,0.5793712515892412,"(9.999963536947974e-10, -6.193641370466403e-21, -1.9047955291709949e-19, -1.592357143170401e-23, 2.365055183338359e-23, -2.3892873936510115e-22, -6.193641370465876e-21, 9.999963536988687e-10, -3.3776991382045616e-19, -7.863685446689361e-24, 1.625229430862812e-23, -1.8180258284791078e-22, -1.9047955291709932e-19, -3.377699138204562e-19, 9.999939147744795e-10, 7.43046751086844e-23, -5.937588915203661e-23, 2.0798875365684596e-23, -1.592357143170418e-23, -7.863685446689384e-24, 7.430467510868399e-23, 9.99987805860023e-10, -9.739968793577693e-20, 1.1811989802197853e-18, 2.3650551833383905e-23, 1.625229430862809e-23, -5.937588915203743e-23, -9.739968793577697e-20, 9.999878060127288e-10, -1.930743586304288e-18, -2.3892873936510416e-22, -1.8180258284791127e-22, 2.079887536568436e-23, 1.181198980219786e-18, -1.9307435863042885e-18, 9.999963584078866e-10)",0.22443741723023897,0.0937333332255815,-0.0046216606429250965,-0.005649365714527744,-0.003781374982986999,-0.5566336661343918,"(0.17871334183621446, 1.1045538184948738e-05, 0.00014961232059328443, 6.6289033644490106e-09, -7.839859122324873e-09, -8.992262876275539e-07, 1.1045538184950806e-05, 0.17857715934629315, -0.0018482922731677077, 9.280112425374315e-09, 1.605643677963169e-08, 2.839112592960204e-06, 0.00014961232059328435, -0.0018482922731677077, 0.07782713443016702, 1.2065790626018051e-07, -7.658804806120356e-08, 1.0523086255583105e-08, 6.628903364449016e-09, 9.280112425374282e-09, 1.206579062601798e-07, 0.017389992448776228, 1.4226512888617148e-06, -0.00021006178753067532, -7.839859122324962e-09, 1.605643677963186e-08, -7.658804806120509e-08, 1.4226512888617148e-06, 0.017434973822760144, 0.0016776216455747506, -8.992262876275473e-07, 2.8391125929602347e-06, 1.0523086255580698e-08, -0.00021006178753067527, 0.0016776216455747506, 0.22642784244104056)"
2025/09/16/13:26:44.283308,84141,1758047204,279304743,odom,base_link,-2.79192733801018,-0.09557773812736874,0.08319437934894174,0.002408746121938001,0.018277058114075692,0.8131441302025783,0.5817703761845452,"(9.999992665207645e-10, -5.535225796908567e-21, -1.5414507271792393e-19, -1.5437241822676004e-23, 2.0976532083529767e-23, -2.2759030985275973e-22, -5.535225796909576e-21, 9.999992665244343e-10, -3.2220095051317307e-19, -7.470144124328254e-24, 1.424668161468287e-23, -1.7009952511222802e-22, -1.541450727179238e-19, -3.2220095051317283e-19, 9.999987697537222e-10, 7.058178846392805e-23, -5.250933298247169e-23, 1.889397516794092e-23, -1.543724182267617e-23, -7.47014412432828e-24, 7.058178846392767e-23, 9.999975160249072e-10, -8.987889014176025e-20, 1.1827400843675595e-18, 2.0976532083530046e-23, 1.4246681614682836e-23, -5.2509332982472485e-23, -8.987889014176021e-20, 9.999975161458216e-10, -1.7414764413276215e-18, -2.2759030985276274e-22, -1.7009952511222842e-22, 1.889397516794067e-23, 1.18274008436756e-18, -1.7414764413276215e-18, 9.99999271006118e-10)",0.22188881193199927,0.09416247079704346,-0.0013642425753706596,-0.00636846006471039,-0.0037794010982133484,-0.553425452483991,"(0.17871033834344086, 1.1674507688004955e-05, 0.000165404481586796, 6.555101956959964e-09, -7.598827310737102e-09, -8.544354290314767e-07, 1.1674507688007438e-05, 0.17857861650728776, -0.0018265267008647518, 8.719636523208421e-09, 1.5492892697288802e-08, 2.6974749069758207e-06, 0.00016540448158679588, -0.0018265267008647518, 0.07782569270627113, 1.181938010443023e-07, -7.49130203328706e-08, 9.756450953372737e-09, 6.555101956959969e-09, 8.719636523208386e-09, 1.181938010443016e-07, 0.01739000154208894, 1.1135192175153198e-06, -0.00023128124707540073, -7.598827310737188e-09, 1.5492892697288968e-08, -7.491302033287211e-08, 1.1135192175153198e-06, 0.0174345887007213, 0.0016559627680807483, -8.544354290314705e-07, 2.69747490697585e-06, 9.756450953370432e-09, -0.00023128124707540068, 0.0016559627680807485, 0.22644016552966945)"
2025/09/16/13:26:44.296358,84142,1758047204,286000490,odom,base_link,-2.7927637103775758,-0.0950883765429002,0.08444030271933206,0.0021998795360635677,0.018025219406637337,0.8122918554511203,0.5829684327329788,"(9.999985241907715e-10, -5.283056451826336e-21, -1.4050431334009315e-19, -1.514392916675583e-23, 1.945715519299017e-23, -2.242315998055409e-22, -5.283056451826793e-21, 9.999985241943143e-10, -3.213301759676494e-19, -7.149530198465642e-24, 1.2965411087290755e-23, -1.6577130704902717e-22, -1.4050431334009296e-19, -3.213301759676494e-19, 9.999975323605746e-10, 7.380513212490238e-23, -6.093306909299345e-23, 1.7804616980607724e-23, -1.5143929166755994e-23, -7.149530198465664e-24, 7.380513212490201e-23, 9.999950410779846e-10, -8.748147849729693e-20, 1.2090273875872768e-18, 1.9457155192990428e-23, 1.2965411087290732e-23, -6.093306909299424e-23, -8.74814784972969e-20, 9.999950411850643e-10, -1.6824249002921228e-18, -2.2423159980554375e-22, -1.6577130704902748e-22, 1.780461698060748e-23, 1.2090273875872766e-18, -1.6824249002921226e-18, 9.999985288196854e-10)",0.2206096648402615,0.09437400221806296,0.0002600079258256855,-0.006700227533333648,-0.003764322810885951,-0.5518002055453057,"(0.17868925189483068, 1.195873946038127e-05, 0.00017329215462898572, 6.516220300070398e-09, -7.47810737334059e-09, -8.326245703181556e-07, 1.195873946038379e-05, 0.17855980499599747, -0.0018149737827469175, 8.450726795308423e-09, 1.5209127812053314e-08, 2.6285069555058877e-06, 0.0001732921546289856, -0.0018149737827469175, 0.07782264932862593, 1.1696978605664984e-07, -7.408151923464291e-08, 9.396238288110663e-09, 6.516220300070403e-09, 8.450726795308388e-09, 1.1696978605664915e-07, 0.017389752047409352, 9.619120585415664e-07, -0.00024189362662388247, -7.478107373340674e-09, 1.5209127812053476e-08, -7.408151923464442e-08, 9.619120585415664e-07, 0.017434124693721093, 0.0016445017384020364, -8.326245703181494e-07, 2.628506955505916e-06, 9.396238288108412e-09, -0.00024189362662388242, 0.0016445017384020366, 0.22639699900912463)"
2025/09/16/13:26:44.303365,84143,1758047204,303238153,odom,base_link,-2.795525563829585,-0.09200493140101093,0.08443065027330644,0.0021066057468275036,0.017970506269055816,0.8095111179402207,0.5868256751777614,"(0.0017769996440252095, -1.5485038512605786e-08, -2.400528739582095e-07, -1.3634306863857126e-11, 1.6956953926795764e-11, -6.643529224150282e-10, -1.5485038512600035e-08, 0.0017770101656709699, -5.784761482446004e-07, -6.4443163535521265e-12, 1.1288845683087665e-11, -4.874350049949646e-10, -2.4005287395820954e-07, -5.784761482446002e-07, 0.0010575426996081623, 3.7101661931142826e-11, -2.6690940283667022e-11, 3.134343278025384e-11, -1.3634306863857268e-11, -6.444316353552145e-12, 3.7101661931142626e-11, 0.0005223160141551648, -2.340292208490546e-08, 1.1013279776333023e-06, 1.6956953926795994e-11, 1.1288845683087646e-11, -2.6690940283667465e-11, -2.340292208490546e-08, 0.0005223431274061005, -1.4893634032265087e-06, -6.643529224150369e-10, -4.874350049949656e-10, 3.134343278025339e-11, 1.1013279776333023e-06, -1.4893634032265089e-06, 0.0017910269145557623)",0.220896590568015,0.0946959702005299,0.00029977990619558837,-0.006700227533333648,-0.003764322810885951,-0.5518002055453057,"(0.18410557906307298, 1.2035205749206232e-05, 0.0001750980692540407, 6.53420978837326e-09, -7.499670221827177e-09, -8.350818710156715e-07, 1.203520574920876e-05, 0.18397538334672944, -0.0018300551437233047, 8.474916468560375e-09, 1.5246181885801987e-08, 2.6359438262379997e-06, 0.00017509806925404057, -0.0018300551437233047, 0.0795589022899831, 1.176079998743871e-07, -7.433842413844029e-08, 9.490836275093964e-09, 6.534209788373265e-09, 8.47491646856034e-09, 1.1760799987438641e-07, 0.017562128680099782, 9.619120585415664e-07, -0.00024189362662388247, -7.499670221827262e-09, 1.524618188580215e-08, -7.433842413844181e-08, 9.619120585415664e-07, 0.017606501326411523, 0.0016445017384020364, -8.350818710156654e-07, 2.635943826238028e-06, 9.490836275091702e-09, -0.00024189362662388242, 0.0016445017384020366, 0.23501583064364612)"
2025/09/16/13:26:44.323316,84144,1758047204,323195696,odom,base_link,-2.798697607555832,-0.0884009874510431,0.08441886052579216,0.0019985065637686244,0.01790680533958613,0.8062687439937631,0.5912749485245966,"(0.003970000656950912, -5.1727404718316617e-08, -1.1312761618177992e-06, 1.8969507959859783e-08, 1.3776643697271593e-08, -6.7383909233686575e-06, -5.172740471831753e-08, 0.003970045045650334, -2.7323345491005703e-06, 2.0076786869236086e-08, 4.516786368440564e-09, -5.930312188498477e-06, -1.1312761618177986e-06, -2.7323345491005707e-06, 0.002341246295909235, 1.0254531347156696e-06, -2.3207076915935864e-06, 1.9548356497877835e-08, 1.896950795985978e-08, 2.0076786869236086e-08, 1.0254531347156696e-06, 0.0011401398670251198, -1.1343705338388059e-07, 5.409140824997919e-06, 1.3776643697271596e-08, 4.516786368440566e-09, -2.3207076915935877e-06, -1.1343705338388154e-07, 0.001140257622219666, -7.0722829304846525e-06, -6.738390923368657e-06, -5.930312188498476e-06, 1.9548356497877835e-08, 5.409140824997919e-06, -7.072282930484652e-06, 0.004036121748976287)",0.22122878944517665,0.09506874054460104,0.0003458273879771074,-0.006700227533333648,-0.003764322810885951,-0.5518002055453057,"(0.19041819723610878, 1.2124007165938612e-05, 0.0001771964669323211, 6.555037784042084e-09, -7.524635407458093e-09, -8.379269018149477e-07, 1.2124007165941144e-05, 0.19028713172244172, -0.0018475930660891572, 8.502922957752275e-09, 1.528908261063399e-08, 2.6445541384820332e-06, 0.00017719646693232098, -0.0018475930660891572, 0.08159804859736149, 1.1834691553490094e-07, -7.46358652959378e-08, 9.600360594518556e-09, 6.555037784042089e-09, 8.50292295775224e-09, 1.1834691553490024e-07, 0.017761704104294118, 9.619120585415664e-07, -0.00024189362662388247, -7.524635407458179e-09, 1.5289082610634153e-08, -7.463586529593934e-08, 9.619120585415664e-07, 0.01780607675060586, 0.0016445017384020364, -8.379269018149415e-07, 2.644554138482062e-06, 9.600360594516283e-09, -0.00024189362662388242, 0.0016445017384020366, 0.24499460185336291)"
2025/09/16/13:26:44.333429,84145,1758047204,325973988,odom,base_link,-2.80498334545144,-0.09757835981402757,0.05154123782715365,0.0015575210468509269,0.014416853897734228,0.8062437306555783,0.5914057619185454,"(9.99996418472863e-10, -4.589544673883535e-21, -1.1387138407484582e-19, -1.5703705998948197e-23, 1.944996597304057e-23, -2.4083317253333534e-22, -4.5895446738831915e-21, 9.999964184757785e-10, -3.079849304290221e-19, -8.104870698218317e-24, 1.372092279713602e-23, -1.8034599457032224e-22, -1.138713840748458e-19, -3.079849304290221e-19, 9.999940227244007e-10, 7.571667802729061e-23, -5.634907909332339e-23, 1.7665307509917002e-23, -1.57037059989483e-23, -8.104870698218333e-24, 7.571667802729021e-23, 9.999880217688778e-10, -7.927893146533673e-20, 1.217978247539709e-18, 1.944996597304075e-23, 1.372092279713603e-23, -5.634907909332454e-23, -7.927893146533676e-20, 9.9998802184997e-10, -1.52551338388475e-18, -2.408331725333374e-22, -1.8034599457032247e-22, 1.766530750991681e-23, 1.2179782475397094e-18, -1.5255133838847498e-18, 9.999964232045157e-10)",0.21016435226770844,0.1085413355663086,-0.04273417217816025,-0.010225242668698831,-0.005729502509126354,-0.5506696664319606,"(0.178757044720571, 1.3399107344046849e-05, 0.0002179336347872407, 5.9365045998267956e-09, -6.56543390948762e-09, -9.572793689059473e-07, 1.3399107344049168e-05, 0.17864051526398952, -0.0017464354218144878, 7.401712092795909e-09, 1.3207359039002915e-08, 2.827087504984141e-06, 0.00021793363478724058, -0.001746435421814488, 0.07782713937040957, 1.2345179734003213e-07, -7.388247321749221e-08, 7.736296581734261e-09, 5.936504599826805e-09, 7.4017120927958995e-09, 1.234517973400315e-07, 0.017390809611978822, 1.0090069385780683e-07, -0.0003013105170991804, -6.5654339094876265e-09, 1.3207359039002892e-08, -7.38824732174943e-08, 1.009006938578067e-07, 0.01743385511062813, 0.0015771402575880508, -9.572793689059441e-07, 2.8270875049841595e-06, 7.73629658173258e-09, -0.0003013105170991803, 0.001577140257588051, 0.2266233520204349)"
2025/09/16/13:26:44.345069,84146,1758047204,343201399,odom,base_link,-2.807872415255847,-0.09470122895589643,0.05079753843938527,0.001476416655656506,0.014324588621275204,0.8034306361734547,0.5952241923952756,"(0.0017759352494848665, -1.1266580614812819e-08, -1.0880567682401948e-07, -1.2992830234209467e-11, 1.4594901908563895e-11, -7.186272812750154e-10, -1.1266580614810338e-08, 0.0017759475210483403, -4.229357408667519e-07, -5.979865969918031e-12, 8.909701217019219e-12, -5.263963530541163e-10, -1.0880567682401938e-07, -4.2293574086675167e-07, 0.0010568950993883385, 3.908896119523783e-11, -2.6143692453142007e-11, 2.698660713924962e-11, -1.2992830234209548e-11, -5.979865969918044e-12, 3.908896119523762e-11, 0.0005219962876235462, -1.3575223565278198e-08, 8.885741252511317e-07, 1.4594901908564024e-11, 8.909701217019227e-12, -2.614369245314262e-11, -1.3575223565278203e-08, 0.0005220130484746635, -1.0899545547458634e-06, -7.186272812750209e-10, -5.263963530541173e-10, 2.6986607139249237e-11, 8.885741252511317e-07, -1.0899545547458632e-06, 0.0017899989357917155)",0.21041693264251848,0.1089037376819887,-0.04298083845482654,-0.010225242668698831,-0.005729502509126354,-0.5506696664319606,"(0.1841703194744992, 1.3484064740178742e-05, 0.00022013948554331917, 5.952589390503691e-09, -6.584075242935001e-09, -9.601118853417432e-07, 1.348406474018106e-05, 0.18405312258569023, -0.0017608214527097335, 7.4227928455726356e-09, 1.3238281031895101e-08, 2.8351386788705835e-06, 0.0002201394855433191, -0.0017608214527097337, 0.07956231713213806, 1.2412608191477447e-07, -7.413938750772122e-08, 7.822081956534777e-09, 5.9525893905037005e-09, 7.4227928455726265e-09, 1.2412608191477384e-07, 0.01756308372468024, 1.0090069385780683e-07, -0.0003013105170991804, -6.584075242935009e-09, 1.3238281031895078e-08, -7.413938750772334e-08, 1.009006938578067e-07, 0.017606129223329547, 0.0015771402575880508, -9.6011188534174e-07, 2.8351386788706026e-06, 7.82208195653309e-09, -0.0003013105170991803, 0.001577140257588051, 0.2352370576555057)"
2025/09/16/13:26:44.353330,84147,1758047204,345980406,odom,base_link,-2.807360647940241,-0.09615831083233008,0.05501474053111151,0.0012015532984717995,0.013743522273162117,0.8036716969736055,0.5949129981339818,"(9.99996419409463e-10, -3.5199305114415625e-21, -5.277483676654668e-20, -1.6996827960591468e-23, 1.5546541683991173e-23, -2.297957050724484e-22, -3.51993051144101e-21, 9.999964194133654e-10, -2.2861671323169726e-19, -6.87644453574887e-24, 4.7650587326498786e-24, -1.676732822022854e-22, -5.277483676654648e-20, -2.2861671323169707e-19, 9.99994024287147e-10, 8.886236851835975e-23, -8.152613643205847e-23, 1.3508327249198458e-23, -1.6996827960591565e-23, -6.876444535748884e-24, 8.886236851835947e-23, 9.999880249294392e-10, -4.719800397411704e-20, 9.78277837550213e-19, 1.554654168399131e-23, 4.76505873264988e-24, -8.152613643205956e-23, -4.719800397411705e-20, 9.999880249857332e-10, -1.1531019775973924e-18, -2.297957050724502e-22, -1.6767328220228557e-22, 1.350832724919825e-23, 9.782778375502125e-19, -1.1531019775973924e-18, 9.999964241468442e-10)",0.20660177211254144,0.10855551637519341,-0.03747669571516718,-0.010925641934725979,-0.0058458760694038514,-0.5458700077035421,"(0.1787660797627402, 1.3463957400629593e-05, 0.00023329206462541343, 5.8089217794225794e-09, -6.204866396439808e-09, -8.86677768065552e-07, 1.3463957400631569e-05, 0.17865599996059034, -0.0017028507242051634, 6.803940315569853e-09, 1.2343910627323666e-08, 2.6182759917238513e-06, 0.00023329206462541333, -0.0017028507242051634, 0.07782602217923779, 1.1967580654847342e-07, -7.145793792315507e-08, 7.100039836153414e-09, 5.808921779422588e-09, 6.803940315569842e-09, 1.1967580654847276e-07, 0.017391027619629195, -1.9727279642251207e-07, -0.00032118786987453505, -6.2048663964398175e-09, 1.2343910627323641e-08, -7.145793792315714e-08, -1.972727964225122e-07, 0.017433233036318642, 0.0015346507907952256, -8.866777680655492e-07, 2.6182759917238687e-06, 7.1000398361518395e-09, -0.00032118786987453494, 0.0015346507907952256, 0.22667670718045338)"
2025/09/16/13:26:44.363318,84148,1758047204,363229275,odom,base_link,-2.8102076634365023,-0.09330918959711437,0.05435943716551656,0.0011208566235692595,0.01364398815532964,0.8008632823432715,0.5986907283915528,"(0.0017782178397555506, -1.0280998912180677e-08, -8.264255076325211e-08, -1.2028861429468225e-11, 1.2555192053630198e-11, -6.716318133420777e-10, -1.028099891217887e-08, 0.0017782296526268832, -4.0531003187097743e-07, -5.271485776007642e-12, 7.383427255667908e-12, -4.831661514059904e-10, -8.264255076325192e-08, -4.053100318709776e-07, 0.0010582401115575425, 3.799728118380121e-11, -2.5315047464115706e-11, 2.3790229762720685e-11, -1.2028861429468304e-11, -5.2714857760076536e-12, 3.7997281183801004e-11, 0.0005226525975771739, -1.2347470268603806e-08, 8.77053815960213e-07, 1.2555192053630316e-11, 7.383427255667915e-12, -2.531504746411631e-11, -1.2347470268603805e-08, 0.0005226668564131123, -1.0080116252762995e-06, -6.716318133420828e-10, -4.831661514059912e-10, 2.3790229762720304e-11, 8.770538159602128e-07, -1.0080116252762992e-06, 0.0017923306687181336)",0.20684277734536552,0.10891714322884774,-0.03768677822767798,-0.010925641934725979,-0.0058458760694038514,-0.5458700077035421,"(0.18418613001086517, 1.3549178956676868e-05, 0.00023563214291244262, 5.824588670164828e-09, -6.22238517537913e-09, -8.892915967581295e-07, 1.3549178956678847e-05, 0.18407542230323923, -0.0017168239747281265, 6.823195919280374e-09, 1.2372301088951304e-08, 2.625694775842177e-06, 0.0002356321429124425, -0.0017168239747281265, 0.07956334266117449, 1.2032232217480662e-07, -7.169977244024254e-08, 7.179113973636058e-09, 5.8245886701648365e-09, 6.823195919280363e-09, 1.2032232217480596e-07, 0.017563516309051803, -1.9727279642251207e-07, -0.00032118786987453505, -6.222385175379141e-09, 1.2372301088951279e-08, -7.169977244024461e-08, -1.972727964225122e-07, 0.01760572172574125, 0.0015346507907952256, -8.892915967581267e-07, 2.625694775842194e-06, 7.179113973634478e-09, -0.00032118786987453494, 0.0015346507907952256, 0.23530114165158375)"
2025/09/16/13:26:44.383287,84149,1758047204,383185148,odom,base_link,-2.8134790670961283,-0.08997941632705457,0.05359567163148683,0.001027376324862949,0.013528574994675448,0.7975919653215432,0.6030447570545814,"(0.00397121221302697, -2.814538911179189e-08, -3.8626567957140284e-07, -3.692614983418371e-07, 1.1764402010837004e-07, -6.232831364749851e-06, -2.8145389111788156e-08, 0.003971267318388188, -1.9095344600745674e-06, -9.126057697605793e-08, -3.811837138224289e-07, -6.119599251859598e-06, -3.8626567957140247e-07, -1.909534460074568e-06, 0.002341848983882647, 1.1838169780544712e-06, -2.165754116719639e-06, 1.3724366702201983e-08, -3.69261498341837e-07, -9.12605769760579e-08, 1.1838169780544707e-06, 0.0011404029548869668, -5.976689233260841e-08, 4.247216535590518e-06, 1.1764402010836999e-07, -3.8118371382242886e-07, -2.165754116719638e-06, -5.976689233260739e-08, 0.0011404649473454596, -4.779750146250501e-06, -6.2328313647498526e-06, -6.1195992518595984e-06, 1.3724366702201978e-08, 4.247216535590518e-06, -4.7797501462504996e-06, 0.004037681506810636)",0.20712160547911823,0.10933552311022113,-0.03792983068845266,-0.010925641934725979,-0.0058458760694038514,-0.5458700077035421,"(0.19049846474397797, 1.3648076493534158e-05, 0.00023834964101156146, 5.842714292817004e-09, -6.242653318024993e-09, -8.923156347334074e-07, 1.364807649353614e-05, 0.1903870282329417, -0.0017330611996432723, 6.845473460659758e-09, 1.240514709540209e-08, 2.6342778497704387e-06, 0.00023834964101156135, -0.0017330611996432723, 0.08160225452434479, 1.210703007287165e-07, -7.197956000454704e-08, 7.270597855226654e-09, 5.842714292817012e-09, 6.845473460659747e-09, 1.210703007287158e-07, 0.0177630750439456, -1.9727279642251207e-07, -0.00032118786987453505, -6.242653318025005e-09, 1.2405147095402065e-08, -7.197956000454914e-08, -1.972727964225122e-07, 0.017805280460635047, 0.0015346507907952256, -8.923156347334045e-07, 2.634277849770456e-06, 7.270597855225068e-09, -0.00032118786987453494, 0.0015346507907952256, 0.2452790783962737)"
2025/09/16/13:26:44.393413,84150,1758047204,385970592,odom,base_link,-2.8118956029416715,-0.09332987240991991,0.062043996612958785,0.000814304299196507,0.012534686208311642,0.7985128385310485,0.6018467124204098,"(9.999964277233542e-10, -3.059622386802e-21, -4.106674440614706e-20, -1.4830230540532198e-23, 1.4062780851180914e-23, -2.3907417138485736e-22, -3.0596223868028143e-21, 9.999964277268803e-10, -2.1332761460637573e-19, -6.19294668004975e-24, 7.950843834864051e-24, -1.8038071248147473e-22, -4.106674440614702e-20, -2.1332761460637585e-19, 9.999940381236967e-10, 7.748294076556997e-23, -5.2665679852712326e-23, 1.3073013933069222e-23, -1.4830230540532228e-23, -6.192946680049735e-24, 7.748294076556951e-23, 9.999880525508492e-10, -4.13702014809761e-20, 9.430385039270638e-19, 1.4062780851180972e-23, 7.950843834864078e-24, -5.266567985271298e-23, -4.1370201480976103e-20, 9.999880525984725e-10, -1.0469851304816648e-18, -2.3907417138485854e-22, -1.8038071248147485e-22, 1.3073013933068998e-23, 9.430385039270642e-19, -1.046985130481664e-18, 9.99996432474823e-10)",0.19971753944287834,0.10833674263352158,-0.02707084164233236,-0.011960811262471584,-0.006280848389433902,-0.5372657038903196,"(0.17882494287927, 1.3404222623742645e-05, 0.00026140595712032785, 7.525152484225787e-09, -7.308547122070714e-09, -1.0410816860538428e-06, 1.34042226237434e-05, 0.1787269512994158, -0.0016161654594499318, 8.017330988125144e-09, 1.2593544088270655e-08, 2.782394750847859e-06, 0.0002614059571203277, -0.001616165459449932, 0.07782863857269881, 1.2582435834809801e-07, -7.028885909150671e-08, 3.920712109970532e-09, 7.525152484225823e-09, 8.017330988125011e-09, 1.2582435834809717e-07, 0.017392017981821734, -7.325232425070049e-07, -0.00035725302954771137, -7.308547122070635e-09, 1.2593544088270695e-08, -7.028885909150789e-08, -7.325232425070048e-07, 0.01743251563677869, 0.0014508860115564801, -1.0410816860538403e-06, 2.7823947508478724e-06, 3.920712109968954e-09, -0.00035725302954771126, 0.0014508860115564801, 0.2268788848665688)"
2025/09/16/13:26:44.403320,84151,1758047204,399298191,odom,base_link,-2.813335180788066,-0.09237894327693602,0.06438418889999703,0.0007972812084552812,0.01222743014197443,0.7968029964620958,0.6041149221164985,"(9.99999267179139e-10, -2.7855304740289667e-21, -2.6893939673093776e-20, -1.3456301003558477e-23, 1.2465515482098062e-23, -2.2773910256794896e-22, -2.785530474030335e-21, 9.999992671826819e-10, -1.9586712368916857e-19, -5.3866780344456205e-24, 7.29839208661086e-24, -1.6881479542360385e-22, -2.6893939673093794e-20, -1.9586712368916855e-19, 9.999987708215723e-10, 7.34066663949918e-23, -4.691235146018858e-23, 1.1884897021972459e-23, -1.3456301003558494e-23, -5.38667803444561e-24, 7.34066663949913e-23, 9.99997518148309e-10, -3.5908563445253094e-20, 8.896588752390374e-19, 1.2465515482098121e-23, 7.298392086610884e-24, -4.691235146018921e-23, -3.590856344525311e-20, 9.999975181904648e-10, -9.465163734980734e-19, -2.277391025679503e-22, -1.68814795423604e-22, 1.188489702197224e-23, 8.896588752390374e-19, -9.465163734980734e-19, 9.999992717007929e-10)",0.19742785955846426,0.10812750508772406,-0.02370798774522715,-0.012133938842024305,-0.006456876163417427,-0.5340098866403198,"(0.17881735252731942, 1.3304685632574314e-05, 0.0002693998725505612, 7.386000650156464e-09, -7.031243389874291e-09, -9.891675859893271e-07, 1.3304685632574837e-05, 0.1787231695069344, -0.0015864161871201436, 7.63636897775799e-09, 1.2015797299261255e-08, 2.643430876104434e-06, 0.000269399872550561, -0.0015864161871201438, 0.07782632707280922, 1.2324139412429635e-07, -6.873600732392684e-08, 3.7049032193398956e-09, 7.386000650156498e-09, 7.636368977757861e-09, 1.2324139412429553e-07, 0.01739200444870441, -8.827724099803982e-07, -0.0003673738467448441, -7.031243389874217e-09, 1.2015797299261293e-08, -6.8736007323928e-08, -8.827724099803981e-07, 0.017431914609420122, 0.001422287867374712, -9.891675859893248e-07, 2.643430876104447e-06, 3.7049032193383868e-09, -0.000367373846744844, 0.001422287867374712, 0.2268758929705357)"
2025/09/16/13:26:44.413377,84152,1758047204,406009674,odom,base_link,-2.814043283980042,-0.09190480322310118,0.065555114742388,0.0008088069475858219,0.012079180514831886,0.795944536936138,0.605248488929075,"(9.999985277053643e-10, -2.7213757811083177e-21, -2.650059670727723e-20, -1.3417440094480615e-23, 1.1930458404525698e-23, -2.2415623565524294e-22, -2.7213757811078885e-21, 9.99998527708941e-10, -1.9293630153718803e-19, -5.083066726376512e-24, 6.226521669013418e-24, -1.6451137714563318e-22, -2.6500596707277355e-20, -1.9293630153718815e-19, 9.999975381899e-10, 7.717429418841629e-23, -5.44628833704088e-23, 1.1307917795192217e-23, -1.3417440094480636e-23, -5.0830667263765e-24, 7.717429418841585e-23, 9.999950527206383e-10, -3.472731353996065e-20, 8.818419137540099e-19, 1.1930458404525758e-23, 6.2265216690134406e-24, -5.446288337040943e-23, -3.4727313539960654e-20, 9.999950527623526e-10, -9.3588454130154e-19, -2.241562356552442e-22, -1.645113771456333e-22, 1.130791779519201e-23, 8.818419137540097e-19, -9.358845413015398e-19, 9.99998532368849e-10)",0.19626715111119886,0.108001055909495,-0.02203627118668941,-0.012201100499877599,-0.006558762963474141,-0.5323517196772946,"(0.17879400081500682, 1.3245149412801646e-05, 0.0002731824099320793, 7.313963514903035e-09, -6.895474887831829e-09, -9.638515841954663e-07, 1.3245149412802349e-05, 0.17870169263134789, -0.0015714419491631797, 7.455131879040314e-09, 1.1734525234300665e-08, 2.5756672205030307e-06, 0.0002731824099320791, -0.00157144194916318, 0.0778228768554085, 1.2195650076762459e-07, -6.796419148701634e-08, 3.601887299203014e-09, 7.3139635149030675e-09, 7.455131879040187e-09, 1.219565007676238e-07, 0.01739174097731571, -9.539009452191213e-07, -0.00037214949010682037, -6.895474887831755e-09, 1.1734525234300703e-08, -6.796419148701749e-08, -9.539009452191213e-07, 0.017431355187245277, 0.0014079075742958074, -9.63851584195464e-07, 2.5756672205030434e-06, 3.6018872992015397e-09, -0.00037214949010682026, 0.0014079075742958074, 0.2268249832987685)"
2025/09/16/13:26:44.423245,84153,1758047204,423180342,odom,base_link,-2.816740397818196,-0.08915902046236017,0.06516854138673629,0.0007345085056513767,0.011965884991593614,0.793171203814672,0.6088807104292329,"(0.0017699260556219276, -8.023364102448847e-09, -4.680037213337963e-08, -1.1220665528996439e-11, 1.0260295673386703e-11, -6.594171807431211e-10, -8.023364102449967e-09, 0.00176993683696401, -3.410843543316237e-07, -4.279417533625934e-12, 6.017744771054164e-12, -4.800831581073372e-10, -4.680037213337944e-08, -3.410843543316239e-07, 0.001053335085890778, 3.8235866847756136e-11, -2.375572833694538e-11, 1.9834646366953822e-11, -1.122066552899646e-11, -4.279417533625925e-12, 3.8235866847755897e-11, 0.0005202576534748185, -9.167497074268052e-09, 7.820665286553286e-07, 1.0260295673386761e-11, 6.017744771054185e-12, -2.3755728336945715e-11, -9.167497074268059e-09, 0.0005202688079414831, -8.327206705647727e-07, -6.59417180743125e-10, -4.800831581073375e-10, 1.9834646366953444e-11, 7.820665286553287e-07, -8.327206705647723e-07, 0.0017839465169555905)",0.19647287412306116,0.10835556594580782,-0.022139035705320307,-0.012201100499877599,-0.006558762963474141,-0.5323517196772946,"(0.18418944136690307, 1.3327940123106958e-05, 0.00027584308357605337, 7.33403590574086e-09, -6.914938395608572e-09, -9.666785431938915e-07, 1.3327940123107658e-05, 0.18409661818567885, -0.0015840757796674694, 7.476362456195967e-09, 1.1761187521145836e-08, 2.582930505899295e-06, 0.00027584308357605315, -0.0015840757796674696, 0.07955217323852529, 1.226053487685223e-07, -6.818433536754951e-08, 3.656750785129177e-09, 7.334035905740892e-09, 7.47636245619584e-09, 1.226053487685215e-07, 0.017563447653798865, -9.539009452191213e-07, -0.00037214949010682037, -6.9149383956084986e-09, 1.1761187521145874e-08, -6.818433536755066e-08, -9.539009452191213e-07, 0.017603061863728432, 0.0014079075742958074, -9.666785431938892e-07, 2.582930505899308e-06, 3.656750785127697e-09, -0.00037214949010682026, 0.0014079075742958074, 0.2354103171229262)"
2025/09/16/13:26:44.433378,84154,1758047204,433229923,odom,base_link,-2.8183072912283236,-0.08753678002697181,0.0649410012373778,0.0006911354475817076,0.011899314110640538,0.791540344442975,0.6110006642996272,"(0.002855539655802528, -1.551481049102387e-08, -1.1477790822338783e-07, -1.05840279282011e-07, 3.237571549880094e-08, -2.9594771398556456e-06, -1.5514810491031414e-08, 0.0028555667084939488, -8.615869126315093e-07, -2.1138859498543022e-08, -1.1306669624527206e-07, -2.857533476656809e-06, -1.147779082233869e-07, -8.615869126315094e-07, 0.001691552342258255, 5.781089698766314e-07, -1.0290414134573468e-06, 4.108219099017705e-09, -1.05840279282011e-07, -2.113885949854302e-08, 5.781089698766313e-07, 0.0008295505316096394, -2.3696265758641583e-08, 2.0099522135282356e-06, 3.237571549880094e-08, -1.1306669624527209e-07, -1.0290414134573468e-06, -2.3696265758642635e-08, 0.000829577245728804, -2.1214138206108635e-06, -2.9594771398556456e-06, -2.8575334766568093e-06, 4.108219099017702e-09, 2.009952213528236e-06, -2.121413820610863e-06, 0.002890966667557421)",0.19659327888670697,0.10856305219999937,-0.022199181322793624,-0.012201100499877599,-0.006558762963474141,-0.5323517196772946,"(0.18736260961894127, 1.3376502935331172e-05, 0.0002774046402228464, 7.34578379652253e-09, -6.9263299216822125e-09, -9.683330947530998e-07, 1.337650293533187e-05, 0.18726948431081994, -0.0015914937803572777, 7.48878820575772e-09, 1.1776792320612792e-08, 2.58718153330509e-06, 0.0002774046402228462, -0.001591493780357278, 0.08057493950722262, 1.2298510400097265e-07, -6.831318032108057e-08, 3.6888610726265553e-09, 7.345783796522562e-09, 7.488788205757593e-09, 1.2298510400097183e-07, 0.017663943469075963, -9.539009452191213e-07, -0.00037214949010682037, -6.926329921682139e-09, 1.1776792320612831e-08, -6.831318032108172e-08, -9.539009452191213e-07, 0.01770355767900553, 0.0014079075742958074, -9.683330947530975e-07, 2.5871815333051028e-06, 3.688861072625072e-09, -0.00037214949010682026, 0.0014079075742958074, 0.24043510788678119)"
2025/09/16/13:26:44.443485,84155,1758047204,443239450,odom,base_link,-2.8198615500031257,-0.08591205167493277,0.06471350071627355,0.0006479299539254406,0.011832922148109187,0.7899103513722209,0.6131078199919051,"(0.003974365753073271, -1.6346459128792872e-08, -2.1557773121687837e-07, -2.7749050936476624e-07, 8.464893195041961e-08, -7.823876049324798e-06, -1.634645912880781e-08, 0.003974415687856898, -1.6254174925532744e-06, -5.534750076271557e-08, -2.924253385481387e-07, -7.509722022284058e-06, -2.1557773121687678e-07, -1.6254174925532746e-06, 0.002343535117513134, 1.5065636758759334e-06, -2.667092932590637e-06, 1.4560664320183562e-08, -2.774905093647662e-07, -5.5347500762715575e-08, 1.5065636758759339e-06, 0.001141162955679873, -4.517211706119898e-08, 3.8251245417753265e-06, 8.46489319504196e-08, -2.9242533854813875e-07, -2.667092932590636e-06, -4.517211706119991e-08, 0.0011412114608085248, -3.998007258327906e-06, -7.823876049324798e-06, -7.50972202228406e-06, 1.456066432018356e-08, 3.825124541775327e-06, -3.998007258327907e-06, 0.004041347542876636)",0.1967132037566304,0.10876971148233489,-0.022259087219649743,-0.012201100499877599,-0.006558762963474141,-0.5323517196772946,"(0.190534426022154, 1.342495101265604e-05, 0.0002789631496418069, 7.357484864081708e-09, -6.937676044885686e-09, -9.699810518148597e-07, 1.3424951012656736e-05, 0.19044099926936006, -0.001598899626517089, 7.501164430375194e-09, 1.1792334924489835e-08, 2.591415617516081e-06, 0.0002789631496418067, -0.0015988996265170893, 0.08160149429665826, 1.2336334565417096e-07, -6.844151174107286e-08, 3.7208433790962104e-09, 7.357484864081739e-09, 7.501164430375065e-09, 1.2336334565417013e-07, 0.017764038741140173, -9.539009452191213e-07, -0.00037214949010682037, -6.937676044885613e-09, 1.1792334924489875e-08, -6.844151174107401e-08, -9.539009452191213e-07, 0.01780365295106974, 0.0014079075742958074, -9.699810518148574e-07, 2.591415617516094e-06, 3.720843379094724e-09, -0.00037214949010682026, 0.0014079075742958074, 0.24543987148999163)"
2025/09/16/13:26:44.453614,84156,1758047204,449319363,odom,base_link,-2.8182740192034843,-0.08881801474097248,0.07327615845236465,0.0012385313362797412,0.011558242389511784,0.790401930556083,0.6124782945102719,"(9.999983729423886e-10, -2.4733046410176133e-21, -3.783435984220925e-20, -1.2779191142381715e-23, 1.254342983693276e-23, -2.3738846490335483e-22, -2.473304641018162e-21, 9.999983729456551e-10, -1.77513958959264e-19, -5.1698838949961326e-24, 8.000835044959648e-24, -1.809663524654802e-22, -3.783435984220911e-20, -1.7751395895926402e-19, 9.999972802360324e-10, 7.285471243464908e-23, -4.429000536629106e-23, 1.1162139651950367e-23, -1.2779191142381693e-23, -5.1698838949961275e-24, 7.28547124346488e-23, 9.999945367896094e-10, -3.173394713690497e-20, 8.132668901043204e-19, 1.2543429836932793e-23, 8.00083504495964e-24, -4.4290005366291366e-23, -3.173394713690497e-20, 9.999945368345969e-10, -9.219503347566231e-19, -2.373884649033554e-22, -1.8096635246548064e-22, 1.1162139651950126e-23, 8.132668901043204e-19, -9.21950334756623e-19, 9.99998377618071e-10)",0.18906099653407482,0.10676309655908761,-0.011211043400980296,-0.011986293136459564,-0.007229837307595077,-0.5227302465585957,"(0.17875754948786515, 1.2820768353454672e-05, 0.00029503414775231755, 7.601059596030098e-09, -7.133262884100208e-09, -1.129436894482023e-06, 1.282076835345669e-05, 0.1786764421952308, -0.0014789152090519738, 7.847857013937218e-09, 1.0550685620472866e-08, 2.7534191055525182e-06, 0.00029503414775231744, -0.001478915209051974, 0.07781388915212671, 1.2472553939284617e-07, -6.873353055107438e-08, -4.542508993050307e-10, 7.601059596030121e-09, 7.847857013937058e-09, 1.2472553939284565e-07, 0.017391470498534543, -1.3706733709043475e-06, -0.0003993714681881096, -7.133262884100274e-09, 1.0550685620472868e-08, -6.873353055107499e-08, -1.3706733709043475e-06, 0.017429224812219573, 0.001319780747373791, -1.129436894482025e-06, 2.753419105552523e-06, -4.5425089930656026e-10, -0.00039937146818810947, 0.001319780747373791, 0.22678392259337743)"
2025/09/16/13:26:44.463428,84157,1758047204,459310055,odom,base_link,-2.8191833501974957,-0.08809805578755982,0.07510187157455309,0.00141260169304506,0.01150257684669212,0.7891230246400956,0.6141258399263214,"(9.99999016658012e-10, -2.3920340996194294e-21, -4.277510642936332e-20, -1.2033722122245551e-23, 1.2140047086348989e-23, -2.307059130131085e-22, -2.392034099617828e-21, 9.999990166613425e-10, -1.6726454714042138e-19, -4.526342685107089e-24, 7.471742276464202e-24, -1.7266594528444646e-22, -4.2775106429363185e-20, -1.6726454714042145e-19, 9.999983532029128e-10, 7.449097994571756e-23, -4.8397536260546035e-23, 1.0635219620257242e-23, -1.2033722122245531e-23, -4.526342685107084e-24, 7.449097994571728e-23, 9.99996682821645e-10, -2.994550617585211e-20, 7.672434913484241e-19, 1.2140047086349017e-23, 7.471742276464196e-24, -4.839753626054636e-23, -2.9945506175852103e-20, 9.999966828691748e-10, -9.150706109271757e-19, -2.3070591301310894e-22, -1.726659452844468e-22, 1.063521962025702e-23, 7.672434913484241e-19, -9.150706109271765e-19, 9.99999021246203e-10)",0.18740999146135653,0.10638144031186897,-0.008733196366126522,-0.011827012946269077,-0.007404443995536053,-0.520347489454794,"(0.17873945099445224, 1.271188892156476e-05, 0.00029877277827097213, 7.481086785258615e-09, -6.929482327885121e-09, -1.0868350906377499e-06, 1.2711888921566537e-05, 0.17866067094095517, -0.0014588087542494195, 7.598750102935241e-09, 1.0181783081515789e-08, 2.6493985244388805e-06, 0.000298772778270972, -0.0014588087542494199, 0.0778106983896668, 1.2279314140695583e-07, -6.758972383320102e-08, -4.743153655822614e-10, 7.481086785258638e-09, 7.598750102935084e-09, 1.227931414069553e-07, 0.017391270436502026, -1.4504447512236376e-06, -0.00040384414958936617, -6.929482327885185e-09, 1.0181783081515792e-08, -6.758972383320163e-08, -1.4504447512236376e-06, 0.017428615925120527, 0.0013007815058989581, -1.0868350906377516e-06, 2.649398524438885e-06, -4.743153655837422e-10, -0.00040384414958936606, 0.0013007815058989581, 0.2267498980847348)"
