time,.header.seq,.header.stamp.secs,.header.stamp.nsecs,.header.frame_id,.child_frame_id,.pose.pose.position.x,.pose.pose.position.y,.pose.pose.position.z,.pose.pose.orientation.x,.pose.pose.orientation.y,.pose.pose.orientation.z,.pose.pose.orientation.w,.pose.covariance,.twist.twist.linear.x,.twist.twist.linear.y,.twist.twist.linear.z,.twist.twist.angular.x,.twist.twist.angular.y,.twist.twist.angular.z,.twist.covariance
2025/09/16/13:35:12.713278,126418,1758047712,713206530,odom,base_link,1.3384099375928278,0.29714493247438123,0.033908110223396834,-0.004342132385390907,-0.0032535136464316196,-0.8678496298451546,0.4967973233753668,"(0.0018501050556380453, 7.462378428602387e-10, -1.9701969839574895e-07, -5.850603836963785e-12, -1.4352547183980763e-12, 3.137844033152617e-10, 7.462378428563596e-10, 0.0018501030700672264, -1.0776540662730974e-07, 1.1408695469913506e-12, -2.5372354855258652e-12, -8.705199533567717e-12, -1.97019698395749e-07, -1.0776540662730963e-07, 0.0011006474734259304, 3.812966883025644e-12, -1.084542909421817e-11, -9.655718245428352e-13, -5.850603836963872e-12, 1.1408695469913873e-12, 3.812966883025689e-12, 0.0005433390678136183, 1.4950795991195767e-09, -5.883007600116517e-07, -1.435254718398076e-12, -2.5372354855258313e-12, -1.0845429094218262e-11, 1.4950795991195784e-09, 0.0005433337420367204, 4.68438587345759e-08, 3.1378440331526414e-10, -8.705199533567861e-12, -9.655718245428514e-13, -5.883007600116518e-07, 4.6843858734575923e-08, 0.001865449457460086)",0.06813045230297604,0.05820762410911172,0.04123923708261479,-0.007058457622069366,0.0051684682488949,0.11710959451645184,"(0.18441209376610032, -8.471939873345898e-06, -0.0004987755254343704, 1.2206970269580703e-09, 5.693501265055613e-09, -4.7028735623345996e-07, -8.471939873346393e-06, 0.18440859649342597, -0.0005095151245568263, -5.918233445465844e-09, 1.3794852184389216e-09, 8.521885937075979e-07, -0.0004987755254343704, -0.0005095151245568264, 0.07956945629025095, 8.575579814699511e-09, -3.010321832931133e-08, 8.830339971072735e-10, 1.2206970269580734e-09, -5.9182334454660605e-09, 8.575579814699647e-09, 0.01757838328965596, 7.177736290537572e-06, 0.0006350886246626954, 5.693501265055512e-09, 1.3794852184388785e-09, -3.010321832931162e-08, 7.1777362905375754e-06, 0.017575686149108916, 0.00045658393187839757, -4.7028735623346335e-07, 8.521885937076046e-07, 8.830339971072502e-10, 0.0006350886246626953, 0.0004565839318783976, 0.23604422513489803)"
2025/09/16/13:35:12.733288,126419,1758047712,733211279,odom,base_link,1.3387261902208776,0.29538311436820497,0.03475195168915055,-0.004336263635123906,-0.003161468388364564,-0.8672675472645347,0.4978134222749262,"(0.00405371102194774, 4.4101365007669966e-09, -8.962276574376162e-07, -3.922049715833818e-07, -2.337392600783692e-07, 3.432269069015976e-06, 4.410136500752775e-09, 0.004053696624481082, -4.8203414452995e-07, 2.353790810506434e-07, -4.0041886360646176e-07, 6.150953109003876e-07, -8.962276574376164e-07, -4.820341445299502e-07, 0.0023895947465268504, 6.384234015260804e-07, -7.484434173613199e-07, -1.5057432995792567e-09, -3.922049715833816e-07, 2.3537908105064337e-07, 6.384234015260802e-07, 0.001163010744945095, 6.6942097799454256e-09, -2.6020734534764774e-06, -2.337392600783692e-07, -4.0041886360646176e-07, -7.484434173613202e-07, 6.6942097799450235e-09, 0.0011629879283120365, 2.1774351843532458e-07, 3.4322690690159764e-06, 6.150953109003877e-07, -1.5057432995792569e-09, -2.6020734534764774e-06, 2.1774351843532458e-07, 0.004123272113654445)",0.06864743275075187,0.058360295366183416,0.041501382325088716,-0.007058457622069366,0.0051684682488949,0.11710959451645184,"(0.19074112802869198, -8.526208208259594e-06, -0.0005031952044788078, 1.2248283197084682e-09, 5.7113905063157525e-09, -4.7185982964226544e-07, -8.526208208260094e-06, 0.19073760570199816, -0.0005143199383224079, -5.9364741962028745e-09, 1.3836579865252145e-09, 8.550428355338864e-07, -0.0005031952044788079, -0.000514319938322408, 0.08161350897201212, 8.59865407649699e-09, -3.029692287839925e-08, 8.885202532355233e-10, 1.2248283197084711e-09, -5.936474196203092e-09, 8.598654076497124e-09, 0.017778430782636915, 7.177736290537572e-06, 0.0006350886246626954, 5.7113905063156524e-09, 1.3836579865251715e-09, -3.029692287839954e-08, 7.1777362905375754e-06, 0.017775733642089873, 0.00045658393187839757, -4.7185982964226883e-07, 8.550428355338932e-07, 8.885202532354998e-10, 0.0006350886246626953, 0.0004565839318783976, 0.24604659978394589)"
2025/09/16/13:35:12.753327,126420,1758047712,748645306,odom,base_link,1.3175076231908545,0.3100094204665857,-0.017553969078250877,-0.009504393182929675,-0.003816512745022779,-0.8667221399689665,0.4986861065122092,"(9.999992690726076e-10, -1.0614180040527815e-21, -2.1728322701064667e-19, -8.852560882219044e-24, -4.8766990328371757e-26, 1.0252830258736397e-22, -1.0614180040535709e-21, 9.99999269072522e-10, -1.7302167144571758e-19, 3.5267486449196686e-25, -1.9998800340139898e-24, 2.12866755526135e-24, -2.1728322701064667e-19, -1.7302167144571732e-19, 9.999987739616146e-10, 5.915934813428813e-24, -1.9699671975353637e-23, -2.0021210017589323e-24, -8.852560882219116e-24, 3.526748644919897e-25, 5.915934813428799e-24, 9.99997524490935e-10, -8.205718557865525e-21, -1.319610432341432e-18, -4.8766990328387065e-26, -1.99988003401398e-24, -1.969967197535391e-23, -8.20571855786552e-21, 9.999975244128568e-10, 2.4376176040689486e-19, 1.0252830258736527e-22, 2.1286675552613114e-24, -2.0021210017589514e-24, -1.319610432341432e-18, 2.4376176040689486e-19, 9.999992736309011e-10)",0.06332752024017435,0.014509746298767855,-0.024115782380888965,-0.009274363749688399,-0.00030133117815322265,0.11831295634062487,"(0.178836694772457, -6.910431356941294e-06, -0.0004935309865022576, 1.5648131496337303e-09, 7.503582303927592e-09, -5.346363500182274e-07, -6.91043135693855e-06, 0.17883520547720205, -0.00044247149496177377, -7.47508002194353e-09, 1.515454190807406e-09, 8.711060215502103e-07, -0.0004935309865022576, -0.0004424714949617737, 0.0777699315830957, 9.573662924180108e-09, -3.0946648752389985e-08, 4.947022240119999e-10, 1.5648131496336467e-09, -7.475080021943515e-09, 9.573662924180081e-09, 0.017399826105828842, 6.792851450866408e-06, 0.0006354370606783016, 7.503582303927589e-09, 1.5154541908073329e-09, -3.0946648752390475e-08, 6.792851450866411e-06, 0.017396893851369978, 0.0003954845397396808, -5.346363500182336e-07, 8.711060215502216e-07, 4.947022240120288e-10, 0.0006354370606783014, 0.0003954845397396808, 0.2272339000467669)"
2025/09/16/13:35:12.763298,126421,1758047712,755281687,odom,base_link,1.3183346972510939,0.30923545414035136,-0.015929938059760684,-0.009535189780151988,-0.0035076902194363857,-0.8665619851728585,0.49896603303076215,"(9.99998510852156e-10, -1.0378681343945484e-21, -2.3111078256201055e-19, -8.01131119405849e-24, 5.710028041100542e-25, 1.0047506326289701e-22, -1.0378681343960133e-21, 9.999985108524694e-10, -1.595109520025291e-19, 9.007634966384682e-26, -1.5388321571979512e-24, 2.079868987906529e-24, -2.311107825620105e-19, -1.5951095200252922e-19, 9.999975100833568e-10, 6.6167934894908266e-24, -2.223633299613629e-23, -2.0594530385078968e-24, -8.011311194058557e-24, 9.007634966387013e-26, 6.616793489490815e-24, 9.999949965650164e-10, -1.2506836223883145e-20, -1.3002703361764233e-18, 5.710028041100439e-25, -1.5388321571979393e-24, -2.2236332996136546e-23, -1.250683622388314e-20, 9.99994996492569e-10, 3.2603985973076207e-19, 1.0047506326289829e-22, 2.0798689879065013e-24, -2.059453038507917e-24, -1.3002703361764231e-18, 3.260398597307622e-19, 9.999985155532717e-10)",0.06328186161584472,0.01626539346901818,-0.021904023714581805,-0.009561013971178419,-0.00015416938251067706,0.11808398536592991,"(0.17881259845975897, -6.648154104916836e-06, -0.0004972903264817668, 1.522643624584814e-09, 7.4157839573392045e-09, -5.210769634552474e-07, -6.648154104914272e-06, 0.17881152955113155, -0.0004331247808231092, -7.335780855371473e-09, 1.4625548809229835e-09, 8.490046375856254e-07, -0.0004972903264817669, -0.00043312478082310914, 0.07776708311651073, 9.465513545490386e-09, -3.0629747386988005e-08, 5.500759512063147e-10, 1.5226436245847313e-09, -7.335780855371457e-09, 9.46551354549036e-09, 0.017399545799372574, 6.745952858528194e-06, 0.0006409921551440717, 7.415783957339201e-09, 1.462554880922911e-09, -3.062974738698849e-08, 6.745952858528197e-06, 0.017396548161986238, 0.00038639258814479664, -5.210769634552535e-07, 8.490046375856364e-07, 5.500759512063437e-10, 0.0006409921551440716, 0.00038639258814479664, 0.22717136643147826)"
2025/09/16/13:35:12.773443,126422,1758047712,773213148,odom,base_link,1.3180103067385607,0.30809821306502055,-0.016302622981476042,-0.009582967190618965,-0.0034240544335474507,-0.8660335229891727,0.49988236581221973,"(0.0018508209358110345, -3.2958092919399713e-09, -4.636615270948083e-07, -8.32390665723963e-12, 3.7076609872254315e-13, 3.2190965756319924e-10, -3.2958092919412547e-09, 0.001850822565618041, -2.977677831921905e-07, 4.575016797349375e-13, -2.1022977908179095e-12, 7.515493113354999e-12, -4.63661527094808e-07, -2.9776778319219003e-07, 0.0011010756772078872, 3.4380444640617646e-12, -1.1001631821505023e-11, -4.090896277694505e-12, -8.323906657239693e-12, 4.575016797349603e-13, 3.4380444640617565e-12, 0.0005435605127489127, -4.254433127602065e-09, -1.2572092810725093e-06, 3.7076609872253487e-13, -2.1022977908178994e-12, -1.1001631821505177e-11, -4.2544331276020645e-09, 0.0005435401507070638, 3.561277921038493e-07, 3.219096575632032e-10, 7.515493113354902e-12, -4.090896277694546e-12, -1.2572092810725093e-06, 3.5612779210384935e-07, 0.0018662189370973468)",0.06372606356129973,0.01626710325398543,-0.02210446025683168,-0.009561013971178419,-0.00015416938251067706,0.11808398536592991,"(0.1844476052378247, -6.685340277351571e-06, -0.0005012876002011128, 1.5273051028182344e-09, 7.437244066176888e-09, -5.226507390041482e-07, -6.685340277349007e-06, 0.184446529926067, -0.00043668954758983175, -7.35663947403411e-09, 1.4665940265254902e-09, 8.515563855067986e-07, -0.0005012876002011129, -0.0004366895475898317, 0.07957277493568599, 9.49323542819613e-09, -3.080532189765849e-08, 5.524737590792193e-10, 1.5273051028181515e-09, -7.356639474034095e-09, 9.4932354281961e-09, 0.01757886041271486, 6.745952858528194e-06, 0.0006409921551440717, 7.437244066176885e-09, 1.4665940265254177e-09, -3.080532189765897e-08, 6.745952858528197e-06, 0.017575862775328525, 0.00038639258814479664, -5.226507390041543e-07, 8.515563855068096e-07, 5.524737590792486e-10, 0.0006409921551440716, 0.00038639258814479664, 0.2361370970985925)"
2025/09/16/13:35:12.783392,126423,1758047712,783250570,odom,base_link,1.3178282838055484,0.30745822346865437,-0.016512776087574003,-0.009609682233324002,-0.0033772227577779923,-0.8657372815029727,0.5003950517237973,"(0.00293790760035933, -8.305945781639369e-09, -1.1380999872319193e-06, 1.0526589932291026e-07, 5.769584530297553e-08, 1.2209956972496287e-06, -8.305945781642746e-09, 0.002937911044636146, -7.271579076953628e-07, -5.89698130689591e-08, 9.944537933891717e-08, -3.468088938284011e-07, -1.1380999872319193e-06, -7.27157907695362e-07, 0.0017397224547507039, 8.840233536140133e-08, -3.528603834656627e-07, -6.779488397101342e-10, 1.0526589932291028e-07, -5.8969813068959124e-08, 8.840233536140133e-08, 0.0008527487944738786, -1.040524123405849e-08, -3.0742634625726842e-06, 5.769584530297553e-08, 9.944537933891717e-08, -3.528603834656628e-07, -1.0405241234058677e-08, 0.0008526991416977264, 8.715847040670099e-07, 1.220995697249629e-06, -3.468088938284012e-07, -6.779488397101343e-10, -3.074263462572685e-06, 8.715847040670099e-07, 0.0029755669379612896)",0.06397471270242,0.01626806033345786,-0.022216657816048802,-0.009561013971178419,-0.00015416938251067706,0.11808398536592991,"(0.18761763872272946, -6.706208163437556e-06, -0.0005035324709202519, 1.5299144397897409e-09, 7.449256705215134e-09, -5.235316850300586e-07, -6.706208163434992e-06, 0.18761655980780073, -0.0004386922304366473, -7.3683154193299096e-09, 1.468855002856637e-09, 8.529847672044636e-07, -0.000503532470920252, -0.0004386922304366473, 0.080594468555873, 9.508753195273804e-09, -3.090360253719083e-08, 5.538159703735856e-10, 1.5299144397896578e-09, -7.368315419329895e-09, 9.508753195273773e-09, 0.01767923463451662, 6.745952858528194e-06, 0.0006409921551440717, 7.4492567052151316e-09, 1.4688550028565641e-09, -3.0903602537191315e-08, 6.745952858528197e-06, 0.017676236997130283, 0.00038639258814479664, -5.235316850300647e-07, 8.529847672044746e-07, 5.538159703736149e-10, 0.0006409921551440716, 0.00038639258814479664, 0.2411558081886804)"
2025/09/16/13:35:12.793725,126424,1758047712,793315887,odom,base_link,1.31764523555496,0.30681405929986494,-0.01672461502862978,-0.009636468215428675,-0.0033302597437818494,-0.8654399094055888,0.5009089848050429,"(0.004065906751523925, -1.617063789504153e-08, -2.1267920811908277e-06, 2.713531647278576e-07, 1.4929591523730793e-07, 3.205642053065962e-06, -1.6170637895029814e-08, 0.004065911415539178, -1.3554231795862443e-06, -1.5192611521625625e-07, 2.573619058632666e-07, -9.100225276886619e-07, -2.126792081190828e-06, -1.3554231795862432e-06, 0.002396590420979681, 2.275460100199268e-07, -9.122457052458412e-07, -2.3635516552971404e-09, 2.713531647278576e-07, -1.519261152162563e-07, 2.2754601001992677e-07, 0.001166377952116419, -1.9643802970808102e-08, -5.731594604953717e-06, 1.4929591523730795e-07, 2.573619058632667e-07, -9.122457052458412e-07, -1.9643802970808522e-08, 0.0011662855199261258, 1.6358720998193523e-06, 3.2056420530659625e-06, -9.100225276886621e-07, -2.363551655297141e-09, -5.731594604953719e-06, 1.6358720998193523e-06, 0.0041363044808720995)",0.06422405286371868,0.01626902007274735,-0.02232916718320959,-0.009561013971178419,-0.00015416938251067706,0.11808398536592991,"(0.19080786610890832, -6.727171761412218e-06, -0.0005057888655100166, 1.5325310283628072e-09, 7.461302728547145e-09, -5.244150792907679e-07, -6.727171761409655e-06, 0.19080678356716088, -0.00044070570268930166, -7.380023813214773e-09, 1.4711222626611977e-09, 8.544171185139726e-07, -0.0005057888655100168, -0.00044070570268930166, 0.08162692862066172, 9.524314087737419e-09, -3.1002156308191706e-08, 5.55161911803853e-10, 1.532531028362724e-09, -7.380023813214759e-09, 9.524314087737386e-09, 0.017779887806055925, 6.745952858528194e-06, 0.0006409921551440717, 7.461302728547141e-09, 1.471122262661125e-09, -3.100215630819219e-08, 6.745952858528197e-06, 0.01777689016866959, 0.00038639258814479664, -5.24415079290774e-07, 8.544171185139836e-07, 5.551619118038825e-10, 0.0006409921551440716, 0.00038639258814479664, 0.24618846676564574)"
2025/09/16/13:35:12.813577,126425,1758047712,795298100,odom,base_link,1.3233327745674568,0.30460784870087393,-0.006010346677277644,-0.009611865647387424,-0.0019716889385185407,-0.8655768738425379,0.5006799376352975,"(9.999949729863356e-10, -1.006233999592238e-21, -2.4667606980813097e-19, -7.69316671622338e-24, 1.3264870566888624e-24, 1.0620781400726831e-22, -1.0062339995919498e-21, 9.9999497298734e-10, -1.3254645820593006e-19, 4.132207290982651e-25, -1.2971792302745018e-24, -3.462062338780739e-24, -2.46676069808131e-19, -1.3254645820592997e-19, 9.999916135483123e-10, 7.212593820917893e-24, -2.340268372864332e-23, -2.4596013610588467e-24, -7.69316671622347e-24, 4.1322072909828486e-25, 7.212593820917834e-24, 9.99983203522589e-10, -1.8837143308513344e-20, -1.2350319407532128e-18, 1.3264870566888718e-24, -1.2971792302744488e-24, -2.340268372864357e-23, -1.883714330851333e-20, 9.99983203463218e-10, 4.613485103236095e-19, 1.0620781400726965e-22, -3.4620623387809806e-24, -2.4596013610588688e-24, -1.2350319407532128e-18, 4.613485103236097e-19, 9.999949777841802e-10)",0.06301365236682714,0.026558283284356114,-0.008576645040666688,-0.010887018590253544,0.0006482475819794663,0.11703388298531348,"(0.17878943182516, -5.119635204915041e-06, -0.0005174128676374179, 1.0876660612770555e-09, 5.4695375512584934e-09, -4.979394431807358e-07, -5.1196352049159606e-06, 0.1787905560775493, -0.0003774159689889261, -5.122894760477824e-09, 8.886859420735727e-10, 9.268615516162181e-07, -0.0005174128676374182, -0.0003774159689889261, 0.07776400140680843, 9.163436855896387e-09, -3.1937525176174755e-08, -6.21464658968198e-10, 1.0876660612770453e-09, -5.122894760477836e-09, 9.163436855896278e-09, 0.01739938873389995, 6.444673861795332e-06, 0.0006704171153363501, 5.4695375512583545e-09, 8.886859420734557e-10, -3.193752517617522e-08, 6.4446738617953345e-06, 0.017396014325720972, 0.0003326560513788588, -4.979394431807404e-07, 9.268615516162309e-07, -6.214646589681764e-10, 0.00067041711533635, 0.0003326560513788588, 0.22710884793614)"
2025/09/16/13:35:12.823367,126426,1758047712,821956635,odom,base_link,1.326660989444874,0.3016401235214216,0.0006384333158545572,-0.009662639236051592,-0.0012348579592488971,-0.8649251628493585,0.5018063084486134,"(9.999985154385932e-10, -8.1251532907865625e-22, -2.595761833384623e-19, -7.106004579472972e-24, 1.5096161905075944e-24, 9.595001976780808e-23, -8.125153290800214e-22, 9.999985154402786e-10, -9.731073840116268e-20, 6.600148317031661e-25, -1.7642469965772766e-24, -2.6315265959040016e-24, -2.595761833384624e-19, -9.731073840116286e-20, 9.999975177284237e-10, 7.613437931436045e-24, -2.2214088781202985e-23, -2.385432979977997e-24, -7.106004579473046e-24, 6.600148317031832e-25, 7.613437931435989e-24, 9.999950118370279e-10, -2.377712764144102e-20, -1.1249785748654767e-18, 1.5096161905076109e-24, -1.7642469965772277e-24, -2.2214088781203232e-23, -2.3777127641441012e-20, 9.9999501179574e-10, 5.991008608188795e-19, 9.595001976780931e-23, -2.631526595904218e-24, -2.385432979978017e-24, -1.1249785748654767e-18, 5.991008608188796e-19, 9.999985201363139e-10)",0.06262854911669903,0.03276972946948315,2.306927565513065e-05,-0.011463433113949229,0.0010037037236755415,0.11608006503760611,"(0.17881356627455183, -4.041054974507486e-06, -0.0005261557523934291, 9.754959123579474e-10, 5.2402208608997145e-09, -4.4957066855492713e-07, -4.041054974507595e-06, 0.1788155355093618, -0.0003367287700766099, -4.739709045393307e-09, 6.958710326907168e-10, 8.368308482489752e-07, -0.0005261557523934292, -0.00033672877007660996, 0.0777665395601956, 8.753740056001686e-09, -3.064449965572983e-08, -3.0359579840831024e-10, 9.754959123579374e-10, -4.739709045393318e-09, 8.753740056001577e-09, 0.017399783149294835, 6.2035090136896495e-06, 0.0006831397916054988, 5.240220860899585e-09, 6.958710326906046e-10, -3.0644499655730275e-08, 6.203509013689652e-06, 0.01739619121170382, 0.0002936614171001844, -4.4957066855493126e-07, 8.368308482489868e-07, -3.035957984082871e-10, 0.0006831397916054986, 0.0002936614171001844, 0.22716749309930698)"
2025/09/16/13:35:12.833277,126427,1758047712,833208799,odom,base_link,1.3266308056096439,0.3008439574479038,0.0006484252642232151,-0.009690969572634125,-0.0011699499318817185,-0.8645973924029258,0.5023704463600146,"(0.0011479000461650688, -1.0124956457732506e-09, -2.019731983937757e-07, -2.7209632295693013e-12, 5.920892653952856e-13, 1.211650156146001e-10, -1.0124956457720282e-09, 0.0011479023057481832, -7.223119566468285e-08, 2.6552932855146805e-13, -6.989963477854606e-13, -3.2136361276090874e-12, -2.0197319839377575e-07, -7.223119566468277e-08, 0.0006850230375959527, 1.5190851327369252e-12, -4.600056399357164e-12, -1.835247606905694e-12, -2.7209632295693303e-12, 2.6552932855147476e-13, 1.5190851327369112e-12, 0.0003397751337487155, -2.8348268357090798e-09, -4.300310176544427e-07, 5.920892653952924e-13, -6.989963477854419e-13, -4.60005639935722e-12, -2.8348268357090794e-09, 0.0003397705924934585, 2.3806940499145156e-07, 1.211650156146017e-10, -3.213636127609364e-12, -1.8352476069057114e-12, -4.300310176544427e-07, 2.3806940499145158e-07, 0.0011539866789324034)",0.06290271630248262,0.032803754294366834,-5.0504105498057545e-06,-0.011463433113949229,0.0010037037236755415,0.11608006503760611,"(0.18234536693527859, -4.0540381320269216e-06, -0.0005288608412540748, 9.773173546556728e-10, 5.249224222673244e-09, -4.5041239569167824e-07, -4.054038132027033e-06, 0.18234734473342262, -0.00033836757586610904, -4.747561942544899e-09, 6.968975432028773e-10, 8.38403451597629e-07, -0.000528860841254075, -0.00033836757586610904, 0.07889670352160762, 8.768522886026602e-09, -3.07527780025737e-08, -3.056385845877184e-10, 9.773173546556627e-10, -4.7475619425449105e-09, 8.768522886026492e-09, 0.017512304797701817, 6.2035090136896495e-06, 0.0006831397916054988, 5.249224222673114e-09, 6.96897543202765e-10, -3.0752778002574146e-08, 6.203509013689652e-06, 0.0175087128601108, 0.0002936614171001844, -4.504123956916824e-07, 8.384034515976405e-07, -3.05638584587695e-10, 0.0006831397916054986, 0.0002936614171001844, 0.2327935755196561)"
2025/09/16/13:35:12.843315,126428,1758047712,843226194,odom,base_link,1.3266038497065,0.3001327068301376,0.0006570352510053627,-0.009716183010613947,-0.0011121623313275464,-0.8643052769798687,0.5028724958350829,"(0.0022084319932465122, -3.6620270199653444e-09, -7.279665469319106e-07, 1.2139334124473092e-09, -1.1336000217313107e-09, 8.394154320647667e-07, -3.6620270199528896e-09, 0.0022084396164669985, -2.58750801987313e-07, 1.3113656984209962e-09, -2.572565864060943e-09, -3.181465755020151e-08, -7.279665469319107e-07, -2.5875080198731294e-07, 0.0013117030145319947, 1.120874810101929e-07, -2.1587945264695283e-07, -5.51074750608687e-10, 1.2139334124473092e-09, 1.3113656984209964e-09, 1.120874810101929e-07, 0.0006459930755312675, -1.0179213253727273e-08, -1.5386217164104203e-06, -1.1336000217313103e-09, -2.5725658640609416e-09, -2.1587945264695278e-07, -1.0179213253727376e-08, 0.0006459771117636086, 8.555358217795103e-07, 8.394154320647667e-07, -3.181465755020151e-08, -5.510747506086872e-10, -1.5386217164104205e-06, 8.555358217795104e-07, 0.002230316538191465)",0.06314679742289545,0.03283404536423256,-3.008434922099143e-05,-0.011463433113949229,0.0010037037236755415,0.11608006503760611,"(0.1855015510800808, -4.065619101096333e-06, -0.0005312751465444746, 9.789389187955443e-10, 5.257239589730699e-09, -4.5116175489027417e-07, -4.065619101096448e-06, 0.18550353650953277, -0.00033983068794929286, -4.754553092597262e-09, 6.978114083512814e-10, 8.39803483429328e-07, -0.0005312751465444748, -0.0003398306879492929, 0.07991113843540584, 8.781683504446497e-09, -3.0849174294998576e-08, -3.074572031726111e-10, 9.789389187955341e-10, -4.7545530925972745e-09, 8.781683504446384e-09, 0.01761247874789713, 6.2035090136896495e-06, 0.0006831397916054988, 5.257239589730569e-09, 6.978114083511691e-10, -3.084917429499902e-08, 6.203509013689652e-06, 0.017608886810306115, 0.0002936614171001844, -4.5116175489027835e-07, 8.398034834293395e-07, -3.074572031725876e-10, 0.0006831397916054986, 0.0002936614171001844, 0.23780227302942172)"
2025/09/16/13:35:12.863334,126429,1758047712,863239050,odom,base_link,1.3265488085558677,0.2987048776764217,0.0006734964961062964,-0.009766618297744022,-0.0009967424244509242,-0.8637208011652241,0.5038749818219486,"(0.004438760310536286, -1.4246464643751791e-08, -2.7896809749938754e-06, 3.732810867993088e-09, -3.746462286950456e-09, 4.201172534588608e-06, -1.4246464643708728e-08, 0.004438784552946279, -9.863065917080167e-07, 6.15721585552674e-09, -1.2078890702340728e-08, -1.614189248777041e-07, -2.7896809749938767e-06, -9.863065917080156e-07, 0.0026122296227536874, 5.40705738165791e-07, -1.0485292841751718e-06, -5.117211424968419e-09, 3.732810867993088e-09, 6.1572158555267406e-09, 5.407057381657911e-07, 0.001268356159375397, -3.945151757955355e-08, -5.8692575212757256e-06, -3.746462286950456e-09, -1.2078890702340728e-08, -1.0485292841751716e-06, -3.945151757955341e-08, 0.0012682959772345077, 3.2962478250238974e-06, 4.2011725345886085e-06, -1.614189248777042e-07, -5.1172114249684195e-09, -5.8692575212757256e-06, 3.296247825023897e-06, 0.004522566612027084)",0.06363442521343839,0.03289456117736396,-8.009741119879336e-05,-0.011463433113949229,0.0010037037236755415,0.11608006503760611,"(0.19184079118344496, -4.088819242198972e-06, -0.0005361155713629017, 9.821784964302739e-10, 5.273252773060925e-09, -4.526588324590609e-07, -4.088819242199091e-06, 0.19184279188047057, -0.0003427653934392236, -4.768520084585918e-09, 6.996371376105407e-10, 8.426004815241685e-07, -0.000536115571362902, -0.00034276539343922367, 0.08196128674627261, 8.807975924242904e-09, -3.1041755806473826e-08, -3.110904582186863e-10, 9.821784964302638e-10, -4.7685200845859314e-09, 8.807975924242788e-09, 0.01781260730319498, 6.2035090136896495e-06, 0.0006831397916054988, 5.273252773060796e-09, 6.996371376104282e-10, -3.104175580647427e-08, 6.203509013689652e-06, 0.017809015365603965, 0.0002936614171001844, -4.526588324590651e-07, 8.4260048152418e-07, -3.1109045821866246e-10, 0.0006831397916054986, 0.0002936614171001844, 0.2478087007943143)"
2025/09/16/13:35:12.873808,126430,1758047712,868617296,odom,base_link,1.3324482380275577,0.2965762661168174,0.012417422450344238,-0.009409972051441472,-0.0005757648076058653,-0.8637686013565192,0.5038004805788499,"(9.999981583894164e-10, -7.711190232189724e-22, -2.552624848053316e-19, -7.514926047604853e-24, 1.940922760260037e-24, 1.0661798945456436e-22, -7.71119023222593e-22, 9.999981583913216e-10, -8.475479896084099e-20, 7.063633262027973e-25, -1.7610058447412177e-24, -2.9615273992862824e-24, -2.5526248480533166e-19, -8.475479896084109e-20, 9.999969226114857e-10, 6.0393534266728374e-24, -1.977420065022087e-23, -2.9762461923413647e-24, -7.514926047604932e-24, 7.063633262028114e-25, 6.039353426672797e-24, 9.999938215623004e-10, -2.423374529113307e-20, -1.067571729922328e-18, 1.9409227602600617e-24, -1.7610058447411748e-24, -1.9774200650221034e-23, -2.4233745291133072e-20, 9.99993821528972e-10, 6.379040094112595e-19, 1.0661798945456577e-22, -2.9615273992864844e-24, -2.97624619234138e-24, -1.067571729922328e-18, 6.379040094112595e-19, 9.999981631131486e-10)",0.061903510107621434,0.04309287285097033,0.014957661007389104,-0.011638591466424304,0.0015930449291249175,0.11476758012935334,"(0.1788065308434838, -2.268432632204636e-06, -0.000537713646691943, 8.019592169614488e-10, 4.890509974773503e-09, -5.003074742432561e-07, -2.268432632205999e-06, 0.1788095044971074, -0.00026640404794503, -4.125310030534883e-09, 2.9861067949225503e-10, 9.389472862316732e-07, -0.0005377136466919433, -0.0002664040479450299, 0.07776518363190801, 8.880872660209756e-09, -3.281949349496209e-08, -1.7902078975761459e-09, 8.019592169614398e-10, -4.1253100305348835e-09, 8.88087266020969e-09, 0.017399769406389695, 5.755965198640828e-06, 0.0006998641994726186, 4.890509974773389e-09, 2.986106794921467e-10, -3.281949349496238e-08, 5.75596519864083e-06, 0.017395849678764192, 0.00022675518082389953, -5.003074742432612e-07, 9.389472862316864e-07, -1.7902078975760454e-09, 0.0006998641994726183, 0.00022675518082389953, 0.22714923489625438)"
2025/09/16/13:35:12.883763,126431,1758047712,875293016,odom,base_link,1.3332663763091703,0.2958659532786481,0.014116912857358036,-0.009354602845483517,-0.0005568052024963262,-0.8635964196955596,0.5040966229430432,"(9.999985197271926e-10, -6.864129306253203e-22, -2.532647618544358e-19, -7.678402938069372e-24, 1.661568037027802e-24, 1.0469607956301685e-22, -6.864129306234475e-22, 9.99998519729155e-10, -7.487523915926843e-20, 1.000525570665888e-24, -2.3050954484338018e-24, -2.508714950425452e-24, -2.5326476185443575e-19, -7.487523915926835e-20, 9.999975248798217e-10, 8.625402763569881e-24, -2.315629047634491e-23, -2.895018614981315e-24, -7.678402938069443e-24, 1.0005255706659022e-24, 8.625402763569846e-24, 9.99995026133446e-10, -2.391085729099098e-20, -1.0221959313272795e-18, 1.6615680370278266e-24, -2.305095448433761e-24, -2.3156290476345073e-23, -2.391085729099099e-20, 9.99995026105426e-10, 6.565625165461154e-19, 1.0469607956301824e-22, -2.5087149504256625e-24, -2.8950186149813296e-24, -1.0221959313272794e-18, 6.565625165461152e-19, 9.999985244184412e-10)",0.061780989509348724,0.04444689880263788,0.01704332148314182,-0.011576816238757875,0.0016510737507906608,0.1145809531999884,"(0.17878323802481838, -2.036163189934148e-06, -0.0005386738285169947, 7.806942472806121e-10, 4.83981843044062e-09, -4.875484070296368e-07, -2.03616318993602e-06, 0.17878629169211022, -0.0002565224914075646, -4.0471201246205164e-09, 2.562366798298112e-10, 9.150024602755311e-07, -0.000538673828516995, -0.00025652249140756456, 0.07776237994320272, 8.779556016924023e-09, -3.2480001655707985e-08, -1.682141200819366e-09, 7.806942472806032e-10, -4.047120124620517e-09, 8.779556016923955e-09, 0.01739947497918623, 5.690138975573329e-06, 0.0007012674156535201, 4.839818430440508e-09, 2.5623667982970397e-10, -3.248000165570827e-08, 5.690138975573332e-06, 0.01739551724631424, 0.00021738259892676334, -4.875484070296417e-07, 9.150024602755439e-07, -1.6821412008192669e-09, 0.0007012674156535198, 0.00021738259892676334, 0.22709033889643804)"
2025/09/16/13:35:12.893333,126432,1758047712,893222570,odom,base_link,1.3334192785584738,0.29450904172997655,0.014434923235073933,-0.009394823674377335,-0.00045014923933878615,-0.8630783490684136,0.5049824729860742,"(0.001850607244731889, -2.2131639779294083e-09, -4.931726168538458e-07, -7.050421334819649e-12, 1.8118840449843416e-12, 3.351018325337459e-10, -2.2131639779285406e-09, 0.0018506135796945897, -1.4551568630479826e-07, 7.481318285602188e-13, -1.855351281888153e-12, -8.04046564788978e-12, -4.931726168538459e-07, -1.455156863047981e-07, 0.0011009533948107787, 3.740433250198813e-12, -1.1610642388941589e-11, -5.576772084993888e-12, -7.050421334819723e-12, 7.481318285602318e-13, 3.740433250198791e-12, 0.0005434939013187774, -6.977140254776207e-09, -9.952964241273797e-07, 1.811884044984365e-12, -1.8553512818881116e-12, -1.161064238894168e-11, -6.9771402547762064e-09, 0.0005434857789621014, 6.409567314348308e-07, 3.3510183253375027e-10, -8.040465647890448e-12, -5.5767720849939165e-12, -9.9529642412738e-07, 6.409567314348307e-07, 0.0018659733498750668)",0.06221106016025172,0.04453777872916294,0.017116684727076108,-0.011576816238757875,0.0016510737507906608,0.1145809531999884,"(0.1844175430886919, -2.044276893268527e-06, -0.0005431284342274337, 7.829734294678094e-10, 4.8527918870025875e-09, -4.890096824869384e-07, -2.044276893270411e-06, 0.18442061761065096, -0.0002583569366015442, -4.057420125687186e-09, 2.565215567655259e-10, 9.177544736695228e-07, -0.0005431284342274338, -0.0002583569366015441, 0.07956785673289092, 8.803920942366016e-09, -3.2662823651036676e-08, -1.694736211053871e-09, 7.829734294678004e-10, -4.057420125687187e-09, 8.803920942365945e-09, 0.017578770519042188, 5.690138975573329e-06, 0.0007012674156535201, 4.852791887002475e-09, 2.565215567654185e-10, -3.266282365103696e-08, 5.690138975573332e-06, 0.017574812786170197, 0.00021738259892676334, -4.890096824869433e-07, 9.177544736695357e-07, -1.6947362110537714e-09, 0.0007012674156535198, 0.00021738259892676334, 0.2360551158892359)"
2025/09/16/13:35:12.903372,126433,1758047712,903243780,odom,base_link,1.3335053094325633,0.29374751325212106,0.0146131515162693,-0.00941727018210108,-0.0003905263132767925,-0.8627883880110249,0.5054773585679709,"(0.0029358859113660317, -5.268035510519505e-09, -1.2096289333124963e-06, -7.923192774039697e-08, -4.686029205869654e-08, 1.4530163455268477e-06, -5.26803551053118e-09, 0.0029359004944130725, -3.5290167428665435e-07, 4.827638014993979e-08, -8.490541134171219e-08, 1.637331884621001e-07, -1.2096289333124968e-06, -3.5290167428665456e-07, 0.0017385490055836519, 2.445122688726571e-07, -3.401686502311501e-07, -1.3165653284214344e-09, -7.923192774039694e-08, 4.827638014993979e-08, 2.4451226887265684e-07, 0.0008521668609609075, -1.7087460754614675e-08, -2.4151696295242702e-06, -4.6860292058696555e-08, -8.490541134171216e-08, -3.401686502311502e-07, -1.7087460754614566e-08, 0.0008521478249630606, 1.5708696323977125e-06, 1.4530163455268477e-06, 1.6373318846210006e-07, -1.3165653284214346e-09, -2.4151696295242706e-06, 1.5708696323977123e-06, 0.0029734256715107706)",0.06245143580981895,0.04458857345632048,0.01715768900713576,-0.011576816238757875,0.0016510737507906608,0.1145809531999884,"(0.1875823889815184, -2.0488243020533246e-06, -0.0005456264774266392, 7.842473129508586e-10, 4.860043028278253e-09, -4.898264204729135e-07, -2.048824302055216e-06, 0.18758547518026733, -0.000259386247634984, -4.0631770157277995e-09, 2.5668078055428096e-10, 9.192926325878529e-07, -0.0005456264774266394, -0.00025938624763498393, 0.08058788031289173, 8.817539018297212e-09, -3.2765006759300495e-08, -1.7017758306142115e-09, 7.842473129508497e-10, -4.063177015727801e-09, 8.81753901829714e-09, 0.01767898261621016, 5.690138975573329e-06, 0.0007012674156535201, 4.860043028278141e-09, 2.566807805541735e-10, -3.276500675930078e-08, 5.690138975573332e-06, 0.017675024883338167, 0.00021738259892676334, -4.898264204729185e-07, 9.192926325878657e-07, -1.7017758306141114e-09, 0.0007012674156535198, 0.00021738259892676334, 0.24106572074763433)"
2025/09/16/13:35:12.913389,126434,1758047712,913259029,odom,base_link,1.3335914536165283,0.2929841771535334,0.014791642811600215,-0.009439700198134622,-0.00033093866955098,-0.8624983123248549,0.5059717816010529,"(0.004058090176984445, -9.458302965563766e-09, -2.2564794046131673e-06, -2.0530524387987255e-07, -1.1974485673567307e-07, 3.8040376540648716e-06, -9.458302965577827e-09, 0.004058114572122354, -6.537773883746669e-07, 1.239856837275882e-07, -2.1876804115101526e-07, 4.282018411180699e-07, -2.2564794046131673e-06, -6.537773883746673e-07, 0.0023920738976069165, 6.291305951470715e-07, -8.774737247325669e-07, -4.578468365481111e-09, -2.0530524387987253e-07, 1.2398568372758825e-07, 6.291305951470715e-07, 0.0011642024436740457, -3.204063120932554e-08, -4.47919396927514e-06, -1.1974485673567313e-07, -2.1876804115101523e-07, -8.77473724732567e-07, -3.204063120932504e-08, 0.0011641678498574125, 2.937900797760243e-06, 3.804037654064871e-06, 4.282018411180698e-07, -4.578468365481111e-09, -4.479193969275141e-06, 2.937900797760243e-06, 0.004128099804773746)",0.0626916684875733,0.04463933797154,0.01719866889846774,-0.011576816238757875,0.0016510737507906608,0.1145809531999884,"(0.19075664256417146, -2.053377952159836e-06, -0.0005481289590361352, 7.85520438747215e-10, 4.867289856684392e-09, -4.906426726754462e-07, -2.0533779521617343e-06, 0.19075974044757496, -0.0002604178125181992, -4.068930481656998e-09, 2.5683990963912667e-10, 9.20829876632445e-07, -0.0005481289590361352, -0.0002604178125181991, 0.0816151588580983, 8.831148994402126e-09, -3.2867129090591845e-08, -1.7088112631149544e-09, 7.85520438747206e-10, -4.0689304816569995e-09, 8.831148994402051e-09, 0.017779135108733354, 5.690138975573329e-06, 0.0007012674156535201, 4.8672898566842815e-09, 2.568399096390191e-10, -3.286712909059213e-08, 5.690138975573332e-06, 0.017775177375861363, 0.00021738259892676334, -4.906426726754512e-07, 9.208298766324578e-07, -1.708811263114854e-09, 0.0007012674156535198, 0.00021738259892676334, 0.246073345373794)"
2025/09/16/13:35:12.923363,126435,1758047712,915277958,odom,base_link,1.3041322046471546,0.3028107900019569,-0.030667306980094303,-0.008919619050928636,-0.005079745213848688,-0.8621031770653405,0.5066288075883516,"(9.999950647284623e-10, -9.58670231852301e-22, -2.1396635554269676e-19, -8.076959074564504e-24, 1.0750769018671256e-24, 1.1354093891682777e-22, -9.58670231853193e-22, 9.999950647296065e-10, -1.1770488994185135e-19, 5.395759619948347e-25, -1.8267120599865682e-24, 5.294598808450789e-25, -2.1396635554269685e-19, -1.1770488994185151e-19, 9.99991766452233e-10, 8.177420965198116e-24, -2.4454328549075444e-23, -2.9988848864923203e-24, -8.076959074564537e-24, 5.395759619948606e-25, 8.177420965198103e-24, 9.999835093164118e-10, -1.637132279550629e-20, -1.103235729990675e-18, 1.0750769018670948e-24, -1.8267120599865517e-24, -2.445432854907568e-23, -1.6371322795506284e-20, 9.999835092700437e-10, 4.515399408073014e-19, 1.135409389168284e-22, 5.294598808450295e-25, -2.9988848864923217e-24, -1.1032357299906744e-18, 4.515399408073012e-19, 9.999950695201037e-10)",0.07098499609931593,-0.008141401082202057,-0.04149579014876374,-0.006542293107126838,-0.0006001183566017479,0.11643966141811464,"(0.17876421962616143, -7.832449106368921e-07, -0.0005436245305678097, 8.249659956704725e-10, 5.685708770038901e-09, -5.559332176554006e-07, -7.832449106397103e-07, 0.17876772303780422, -0.0002010228065441055, -4.7128517438947e-09, 1.1968018476967576e-10, 9.77502468586114e-07, -0.0005436245305678095, -0.00020102280654410548, 0.07775955256655856, 9.888938461266105e-09, -3.3755844806420746e-08, -2.7387265614874694e-09, 8.249659956703992e-10, -4.7128517438947135e-09, 9.88893846126608e-09, 0.017399231086716895, 5.302868174763612e-06, 0.0007083902227568618, 5.685708770038919e-09, 1.196801847695376e-10, -3.375584480642117e-08, 5.302868174763615e-06, 0.01739506805274134, 0.00016523514494783836, -5.559332176554035e-07, 9.775024685861201e-07, -2.7387265614874e-09, 0.0007083902227568617, 0.00016523514494783836, 0.22704635070403864)"
2025/09/16/13:35:12.933387,126436,1758047712,928618431,odom,base_link,1.3055212483416712,0.3017111720943466,-0.027363536006391184,-0.008756821225472833,-0.00532398272854346,-0.8617405726288067,0.507245659198093,"(9.999992679024752e-10, -1.1698897562137895e-21, -1.5110060522442874e-19, -7.821302613854269e-24, -4.087439822247809e-25, 1.0715393476310844e-22, -1.1698897562130346e-21, 9.999992679018919e-10, -1.9575423829677334e-19, 5.9062992235107094e-27, -9.651421480044509e-25, 6.285978503688204e-25, -1.5110060522442874e-19, -1.9575423829677343e-19, 9.99998772018096e-10, 5.1892896892114806e-24, -2.1210988321653794e-23, -2.2702565154344703e-24, -7.821302613854306e-24, 5.9062992235369944e-27, 5.1892896892114644e-24, 9.999975206051107e-10, 1.1163358255583957e-21, -1.2693288219263967e-18, -4.087439822248238e-25, -9.651421480044367e-25, -2.1210988321654032e-23, 1.1163358255583985e-21, 9.999975205300009e-10, 7.187044359841688e-20, 1.0715393476310916e-22, 6.285978503687833e-25, -2.27025651543447e-24, -1.2693288219263967e-18, 7.18704435984169e-20, 9.999992724479959e-10)",0.07033565451653082,-0.004959256847491618,-0.036804832677945695,-0.00614603057562447,-0.0005769199782115772,0.11606930025253501,"(0.1787586872546664, -6.950497287672394e-07, -0.0005497090881342738, 7.656750911889509e-10, 5.540528091208262e-09, -5.281451346628117e-07, -6.950497287686995e-07, 0.1787629050064904, -0.00019356689883010076, -4.516847638803121e-09, 9.262857448263853e-11, 9.286398815390476e-07, -0.0005497090881342735, -0.00019356689883010073, 0.07775883116411032, 9.668550232376107e-09, -3.306246269405915e-08, -2.544560130556455e-09, 7.656750911888794e-10, -4.516847638803135e-09, 9.668550232376078e-09, 0.017399205691032177, 5.2300946486759486e-06, 0.0007169883051810243, 5.540528091208279e-09, 9.262857448250426e-11, -3.306246269405956e-08, 5.230094648675952e-06, 0.017394945923508712, 0.0001588171823283935, -5.281451346628145e-07, 9.286398815390534e-07, -2.544560130556388e-09, 0.0007169883051810243, 0.0001588171823283935, 0.2270324971370965)"
2025/09/16/13:35:12.943483,126437,1758047712,935289621,odom,base_link,1.3062149272150325,0.30115866683771925,-0.025705979239743795,-0.0086380202216358,-0.005456169718944347,-0.8615556034068953,0.5075603974472684,"(9.99998518707047e-10, -1.1605326824802006e-21, -1.4387326802584009e-19, -6.895485256483443e-24, -2.2004478419012337e-25, 1.0494578084488401e-22, -1.1605326824785762e-21, 9.99998518706259e-10, -2.0391233581133217e-19, -4.0139299426832636e-25, -2.745737528948226e-25, 4.8731481766976285e-25, -1.4387326802584004e-19, -2.0391233581133205e-19, 9.999975231822184e-10, 5.0454636937429875e-24, -2.396491417188175e-23, -2.123414376729679e-24, -6.895485256483478e-24, -4.0139299426830143e-25, 5.0454636937429706e-24, 9.999950227697123e-10, 3.3581106653479527e-21, -1.2878903980292258e-18, -2.2004478419016635e-25, -2.745737528948091e-25, -2.3964914171881995e-23, 3.3581106653479565e-21, 9.999950226932935e-10, 3.19240452535988e-20, 1.0494578084488463e-22, 4.873148176697411e-25, -2.1234143767296783e-24, -1.2878903980292252e-18, 3.1924045253598787e-20, 9.999985233949956e-10)",0.07002026545673279,-0.0033820400020623184,-0.03446889692652459,-0.005916714723575662,-0.0005339423515423506,0.11591142643253029,"(0.1787363144859534, -6.666263874293674e-07, -0.0005526985558031234, 7.374816568153332e-10, 5.467896579148433e-09, -5.146874416632669e-07, -6.666263874306758e-07, 0.17874088185917372, -0.00019026728907547543, -4.422202093839705e-09, 8.166163415523972e-11, 9.049759754789943e-07, -0.000552698555803123, -0.0001902672890754754, 0.0777561809243823, 9.559798594157704e-09, -3.2719938306594466e-08, -2.4544404731551087e-09, 7.374816568152627e-10, -4.4222020938397185e-09, 9.559798594157676e-09, 0.017398936527454677, 5.195719232363903e-06, 0.00072121991081028, 5.467896579148451e-09, 8.166163415510738e-11, -3.271993830659487e-08, 5.195719232363905e-06, 0.01739462916084976, 0.0001560216708581169, -5.146874416632697e-07, 9.049759754789999e-07, -2.4544404731550433e-09, 0.00072121991081028, 0.0001560216708581169, 0.22697607759985397)"
2025/09/16/13:35:12.953421,126438,1758047712,953243971,odom,base_link,1.305544312889101,0.3000741488418087,-0.02630152485351242,-0.008674845712217497,-0.005403893637000772,-0.8610272382011122,0.508456133861314,"(0.0018532367478708406, -3.7033810384997998e-09, -2.7140496701263405e-07, -7.651522285425209e-12, -8.534356275851918e-13, 3.3726454934817215e-10, -3.7033810384927456e-09, 0.0018532338487431365, -4.0535440872991705e-07, 1.6070521411738563e-13, -1.2238249785174335e-12, 2.9824569891375753e-12, -2.714049670126342e-07, -4.053544087299173e-07, 0.0011025082518312116, 3.1076446242851283e-12, -1.1822831120956623e-11, -4.009930326781207e-12, -7.651522285425243e-12, 1.6070521411741e-13, 3.1076446242851186e-12, 0.0005442612367384241, 1.3740206906567187e-09, -1.2623860075667886e-06, -8.534356275852348e-13, -1.2238249785174205e-12, -1.1822831120956754e-11, 1.3740206906567193e-09, 0.0005442387791330235, 7.525009507620745e-09, 3.372645493481742e-10, 2.9824569891374623e-12, -4.009930326781202e-12, -1.2623860075667886e-06, 7.525009507620746e-09, 0.001868634305195983)",0.0704722866362739,-0.003443758893426542,-0.03475048689704339,-0.005916714723575662,-0.0005339423515423506,0.11591142643253029,"(0.18437830677214923, -6.664065121788048e-07, -0.0005573139411858109, 7.396317334971294e-10, 5.482807681153439e-09, -5.162344693854899e-07, -6.664065121801238e-07, 0.18438290484343528, -0.00019148107239850835, -4.433721641961453e-09, 8.144723632732406e-11, 9.076936443009522e-07, -0.0005573139411858105, -0.00019148107239850832, 0.0795641598055562, 9.59018873491302e-09, -3.290187320926008e-08, -2.472270905779721e-09, 7.396317334970586e-10, -4.433721641961467e-09, 9.590188734912988e-09, 0.0175784800226329, 5.195719232363903e-06, 0.00072121991081028, 5.482807681153458e-09, 8.144723632719148e-11, -3.2901873209260484e-08, 5.195719232363905e-06, 0.01757417265602798, 0.0001560216708581169, -5.162344693854927e-07, 9.076936443009578e-07, -2.4722709057796558e-09, 0.00072121991081028, 0.0001560216708581169, 0.2359532523587651)"
2025/09/16/13:35:12.973336,126439,1758047712,973207712,odom,base_link,1.3047952680109425,0.29885892719201895,-0.026969437297565145,-0.008715789574025589,-0.005345765448958883,-0.8604386425595425,0.5094514699106856,"(0.004052334027341531, -1.852685583679613e-08, -1.2329160338075224e-06, 3.327202737568991e-07, 1.7681196229699008e-07, 2.3695826267621e-06, -1.8526855836804102e-08, 0.004052319326056089, -1.8294428885437458e-06, -1.8321165117475657e-07, 3.223530570174806e-07, -1.459742327243626e-06, -1.2329160338075232e-06, -1.8294428885437472e-06, 0.002388854200769906, -3.981840776911241e-08, -7.848562001123365e-07, 1.8196827542936987e-10, 3.327202737568992e-07, -1.8321165117475663e-07, -3.9818407769112415e-08, 0.0011627297598757378, 6.1839362371565094e-09, -5.712005214816294e-06, 1.7681196229699003e-07, 3.2235305701748053e-07, -7.848562001123366e-07, 6.183936237156486e-09, 0.0011626277500041808, 3.5611764451835e-08, 2.3695826267621005e-06, -1.4597423272436256e-06, 1.8196827542936993e-10, -5.712005214816295e-06, 3.5611764451835014e-08, 0.004121868104341904)",0.07097489654050061,-0.003512385160251123,-0.03506359149151688,-0.005916714723575662,-0.0005339423515423506,0.11591142643253029,"(0.19069421988273447, -6.661661104422443e-07, -0.0005624690850757078, 7.420224396941591e-10, 5.499387584684197e-09, -5.179546353655263e-07, -6.661661104435751e-07, 0.19069885218137378, -0.00019283846290042884, -4.446530420045888e-09, 8.120884379920294e-11, 9.107154656848769e-07, -0.0005624690850757074, -0.0001928384629004288, 0.08160398529913525, 9.623980040333645e-09, -3.310416966823815e-08, -2.4920968618176105e-09, 7.420224396940879e-10, -4.4465304200459025e-09, 9.62398004033361e-09, 0.0177781174356578, 5.195719232363903e-06, 0.00072121991081028, 5.499387584684217e-09, 8.120884379907008e-11, -3.3104169668238553e-08, 5.195719232363905e-06, 0.017773810069052882, 0.0001560216708581169, -5.179546353655291e-07, 9.107154656848825e-07, -2.492096861817545e-09, 0.00072121991081028, 0.0001560216708581169, 0.24593512301001022)"
2025/09/16/13:35:12.983349,126440,1758047712,978623629,odom,base_link,1.3107552491583385,0.29760340058027634,-0.014884623590831886,-0.007965009822002512,-0.006619903251856573,-0.8602918456033916,0.5096966508500737,"(9.999981713220993e-10, -1.0536163026204676e-21, -1.120546466245271e-19, -7.20699910987497e-24, -1.2191586867625742e-24, 1.0491940890758944e-22, -1.0536163026210647e-21, 9.99998171320722e-10, -2.173770222149077e-19, 6.735698361863278e-25, -5.323015027269341e-25, -9.020912152162969e-24, -1.1205464662452716e-19, -2.173770222149077e-19, 9.999969441637824e-10, 4.666023981547288e-24, -2.0852453955756368e-23, -1.526410386593208e-24, -7.206999109874998e-24, 6.735698361863286e-25, 4.666023981547268e-24, 9.999938646945463e-10, 1.0534638246801109e-20, -1.2770245755852613e-18, -1.2191586867626465e-24, -5.323015027269379e-25, -2.085245395575672e-23, 1.0534638246801109e-20, 9.999938646199142e-10, -9.934415630201105e-20, 1.0491940890759047e-22, -9.020912152163088e-24, -1.5264103865932057e-24, -1.2770245755852611e-18, -9.93441563020111e-20, 9.999981760460444e-10)",0.06803432045761433,0.006566993700939058,-0.019512476039597992,-0.004202915043170528,-0.0005346464095777635,0.11555839547405117,"(0.1787956486480981, -5.747269495166223e-07, -0.0005702862698772376, 1.2407689756374841e-10, 3.001286520925551e-09, -4.26912488660783e-07, -5.747269495192256e-07, 0.17880225065558378, -0.0001720443217803766, -1.8664515331387806e-09, -4.731130559319744e-10, 9.588262667138572e-07, -0.0005702862698772372, -0.0001720443217803765, 0.07776293607161358, 8.063017733775761e-09, -3.3531382276832615e-08, -2.4202934374635873e-09, 1.2407689756370615e-10, -1.866451533138654e-09, 8.063017733775718e-09, 0.017399850877339345, 4.98614757825191e-06, 0.0007457060151779894, 3.0012865209256444e-09, -4.731130559321405e-10, -3.353138227683327e-08, 4.986147578251913e-06, 0.01739524514058939, 0.00014097479400412036, -4.2691248866078705e-07, 9.58826266713867e-07, -2.4202934374635075e-09, 0.0007457060151779894, 0.00014097479400412036, 0.22712660875678195)"
2025/09/16/13:35:12.993356,126441,1758047712,988652945,odom,base_link,1.311802862781931,0.29679059999670626,-0.012354730420351153,-0.007788085445550351,-0.006973760803930738,-0.8599886712546098,0.5102060345576804,"(9.999990205205442e-10, -9.508870340966718e-22, -9.365328008544177e-20, -6.81351824137658e-24, -1.4949196737973724e-24, 1.0118480810463422e-22, -9.508870340954797e-22, 9.999990205188753e-10, -2.242184466066332e-19, 5.707549728464182e-25, -3.893225650918362e-25, -8.559899805721828e-24, -9.365328008544176e-20, -2.2421844660663305e-19, 9.999983596208857e-10, 4.8425939735461246e-24, -2.2008092463482634e-23, -1.300310030972734e-24, -6.813518241376604e-24, 5.707549728464177e-25, 4.842593973546101e-24, 9.9999669572265e-10, 1.4815210365006375e-20, -1.2641070124363378e-18, -1.4949196737974472e-24, -3.8932256509184034e-25, -2.200809246348298e-23, 1.4815210365006378e-20, 9.999966956497695e-10, -1.766610185669635e-19, 1.0118480810463525e-22, -8.559899805721944e-24, -1.3003100309727297e-24, -1.2641070124363384e-18, -1.766610185669635e-19, 9.999990251402426e-10)",0.06757684722641732,0.008757825673667867,-0.01611605920658791,-0.003717062004504065,-0.0005631486548950751,0.1154936077304943,"(0.1787758019003863, -6.464748456438633e-07, -0.0005741894961528003, 1.0212439043243713e-10, 2.9402201721494778e-09, -4.106996107522569e-07, -6.46474845646295e-07, 0.17878283054475116, -0.00017037843582985978, -1.7843914516252206e-09, -4.635754540018397e-10, 9.224407283407199e-07, -0.0005741894961528001, -0.0001703784358298597, 0.07776061177121427, 7.924194451641203e-09, -3.300995719510471e-08, -2.318645239930657e-09, 1.0212439043239557e-10, -1.7843914516250967e-09, 7.92419445164116e-09, 0.0173996358962497, 4.9513096934119916e-06, 0.0007511276053783689, 2.9402201721495696e-09, -4.635754540020022e-10, -3.3009957195105356e-08, 4.951309693411994e-06, 0.017394965133502877, 0.0001399774963360856, -4.106996107522608e-07, 9.224407283407293e-07, -2.3186452399305792e-09, 0.0007511276053783689, 0.0001399774963360856, 0.22707573733949452)"
2025/09/16/13:35:13.003359,126442,1758047712,995293617,odom,base_link,1.3124947535159288,0.29625839011008376,-0.010681005877457437,-0.007634131575062323,-0.007213415357842264,-0.8597885505783084,0.5105421970497852,"(9.999985118216842e-10, -8.934496084262141e-22, -8.302277677652398e-20, -6.502185923102732e-24, -1.6380938692710478e-24, 9.900094563964397e-23, -8.934496084264632e-22, 9.999985118197823e-10, -2.3322880649358994e-19, 4.732043001146979e-25, -2.4397923840769596e-25, -8.340205917273492e-24, -8.302277677652402e-20, -2.3322880649359e-19, 9.999975117021619e-10, 5.152264258589863e-24, -2.3717421059630156e-23, -1.1592647624781442e-24, -6.5021859231027546e-24, 4.73204300114697e-25, 5.152264258589837e-24, 9.999949998074453e-10, 1.794213113856332e-20, -1.278442579850043e-18, -1.638093869271124e-24, -2.4397923840770014e-25, -2.3717421059630524e-23, 1.7942131138563332e-20, 9.999949997345047e-10, -2.319423018682119e-19, 9.9000945639645e-23, -8.340205917273587e-24, -1.1592647624781383e-24, -1.278442579850043e-18, -2.3194230186821164e-19, 9.999985165118857e-10)",0.06727059240398284,0.01018837278749614,-0.01388424652193091,-0.0033695890085881836,-0.0005485009895485687,0.11543768787968463,"(0.17875306256023463, -7.119490930806265e-07, -0.0005767755833598167, 8.823528281463209e-11, 2.8995327139604805e-09, -4.002714736830698e-07, -7.119490930827161e-07, 0.17876036439550735, -0.00016977231724791953, -1.7318828511597088e-09, -4.5520837733287186e-10, 8.990370516122009e-07, -0.0005767755833598166, -0.00016977231724791945, 0.07775794592619305, 7.833362240499138e-09, -3.2668467726703544e-08, -2.2567581431595354e-09, 8.823528281459095e-11, -1.7318828511595866e-09, 7.833362240499095e-09, 0.01739936561563526, 4.931105178998941e-06, 0.0007547209060046288, 2.8995327139605715e-09, -4.5520837733303197e-10, -3.2668467726704186e-08, 4.931105178998943e-06, 0.01739465238776302, 0.00013979997391285804, -4.002714736830736e-07, 8.9903705161221e-07, -2.2567581431594597e-09, 0.0007547209060046288, 0.00013979997391285804, 0.22701802646746308)"
2025/09/16/13:35:13.013311,126443,1758047713,13208628,odom,base_link,1.312074801777173,0.29510473160016376,-0.010905262227858266,-0.007661261017411943,-0.00718211060381708,-0.8592603527554347,0.5114307074760993,"(0.0018490571196302689, -2.719304630312927e-09, -1.4583729818853996e-07, -6.727884624766188e-12, -1.9806388162014693e-12, 3.165548966316589e-10, -2.719304630313477e-09, 0.00184905048543527, -4.65579163202738e-07, 6.961128547362893e-13, -6.438704106646892e-13, -2.582710823528538e-11, -1.4583729818853977e-07, -4.6557916320273776e-07, 0.0011000375826187025, 2.740108769285847e-12, -1.1710194475826369e-11, -2.0799746722840372e-12, -6.727884624766213e-12, 6.961128547362885e-13, 2.740108769285832e-12, 0.0005430563000938408, 5.903422344861591e-09, -1.2514650699442317e-06, -1.980638816201544e-12, -6.438704106646928e-13, -1.1710194475826576e-11, 5.903422344861592e-09, 0.0005430351222592269, -2.6533181658187556e-07, 3.165548966316621e-10, -2.5827108235285687e-11, -2.0799746722840267e-12, -1.2514650699442317e-06, -2.653318165818756e-07, 0.0018643926112452457)",0.06770811132407867,0.010170656339499115,-0.01401744038148982,-0.0033695890085881836,-0.0005485009895485687,0.11543768787968463,"(0.18438270130376816, -7.125967662829376e-07, -0.0005816324944386169, 8.83187478415806e-11, 2.906150877388184e-09, -4.0144828306860734e-07, -7.125967662850315e-07, 0.18439005115134285, -0.00017082779776053216, -1.7348235619978225e-09, -4.5710711447513183e-10, 9.01726573897079e-07, -0.0005816324944386168, -0.00017082779776053208, 0.0795619420096458, 7.85239508280594e-09, -3.284702751260133e-08, -2.2724139142803568e-09, 8.831874784153922e-11, -1.7348235619977e-09, 7.852395082805895e-09, 0.017578515720157967, 4.931105178998941e-06, 0.0007547209060046288, 2.906150877388276e-09, -4.5710711447529225e-10, -3.2847027512601974e-08, 4.931105178998943e-06, 0.017573802492285726, 0.00013979997391285804, -4.0144828306861115e-07, 9.017265738970881e-07, -2.2724139142802807e-09, 0.0007547209060046288, 0.00013979997391285804, 0.23597553169359833)"
2025/09/16/13:35:13.023373,126444,1758047713,23249149,odom,base_link,1.3118390004290659,0.2944547123451965,-0.011031918284386873,-0.007676452256088033,-0.007164553552356604,-0.858963920617492,0.5119284367278129,"(0.0029364068454602243, -6.9707835089285136e-09, -3.590938770113246e-07, 6.682876719579821e-08, 3.263911693416537e-08, 1.238945404229033e-06, -6.970783508930021e-09, 0.0029363899231283005, -1.1399799265201734e-06, -3.50900442930749e-08, 6.093831844720228e-08, -4.49240768931781e-07, -3.590938770113243e-07, -1.1399799265201728e-06, 0.0017388508119067388, 5.565434364521864e-08, -3.7355653673570693e-07, 8.594993962013593e-11, 6.68287671957982e-08, -3.509004429307488e-08, 5.5654343645218636e-08, 0.0008523346375316794, 1.458700814745128e-08, -3.0734569373765606e-06, 3.263911693416537e-08, 6.093831844720231e-08, -3.7355653673570693e-07, 1.4587008147451286e-08, 0.0008522823335840178, -6.547485702115463e-07, 1.2389454042290327e-06, -4.492407689317809e-07, 8.594993962013603e-11, -3.073456937376561e-06, -6.547485702115463e-07, 0.0029739472041900444)",0.06795332012196525,0.010160727102804117,-0.014092089281658893,-0.0033695890085881836,-0.0005485009895485687,0.11543768787968463,"(0.18755359513004802, -7.129632710303697e-07, -0.0005843636773617494, 8.836552606758083e-11, 2.909860047034993e-09, -4.0210782943681034e-07, -7.129632710324662e-07, 0.18756097194527768, -0.0001714219857765383, -1.736471692253282e-09, -4.58171267431201e-10, 9.032339247705444e-07, -0.0005843636773617494, -0.00017142198577653822, 0.08058392424039204, 7.863062096660777e-09, -3.294710188296523e-08, -2.281188238407147e-09, 8.83655260675393e-11, -1.7364716922531595e-09, 7.86306209666073e-09, 0.01767892093637501, 4.931105178998941e-06, 0.0007547209060046288, 2.909860047035086e-09, -4.581712674313616e-10, -3.294710188296587e-08, 4.931105178998943e-06, 0.017674207708502768, 0.00013979997391285804, -4.0210782943681415e-07, 9.032339247705535e-07, -2.2811882384070707e-09, 0.0007547209060046288, 0.00013979997391285804, 0.24099579250445038)"
2025/09/16/13:35:13.043336,126445,1758047713,43245792,odom,base_link,1.3113671017630524,0.29315324618186395,-0.011286246020410635,-0.007706724556181799,-0.007129601974678889,-0.8583726879305431,0.5129191981074529,"(0.005214868682023428, -2.3388652228885945e-08, -1.081803881486192e-06, 2.7592732412252145e-07, 1.3507920565201914e-07, 5.32972892872091e-06, -2.3388652228861046e-08, 0.005214812162424642, -3.410442038754033e-06, -1.447424685384401e-07, 2.553763882487719e-07, -1.9322149759313895e-06, -1.0818038814861916e-06, -3.4104420387540315e-06, 0.003060144358473354, 2.2876880573593278e-07, -1.5587268003369955e-06, 6.569822224010228e-10, 2.759273241225216e-07, -1.4474246853844012e-07, 2.2876880573593273e-07, 0.0014789354933245726, 4.33448460893472e-08, -9.209603534484265e-06, 1.350792056520191e-07, 2.5537638824877207e-07, -1.5587268003369953e-06, 4.334484608934765e-08, 0.0014787777817094202, -1.9403451158431253e-06, 5.329728928720909e-06, -1.9322149759313887e-06, 6.569822224010227e-10, -9.209603534484267e-06, -1.940345115843125e-06, 0.005327532881095591)",0.0684416765035183,0.010140952094134993,-0.014240759586671136,-0.0033695890085881836,-0.0005485009895485687,0.11543768787968463,"(0.19390253185973857, -7.137007200312044e-07, -0.0005898225847042029, 8.845868930389956e-11, 2.9172472072139682e-09, -4.0342137805585723e-07, -7.13700720033306e-07, 0.19390996250987627, -0.0001726110180773057, -1.7397540986547708e-09, -4.602906281210458e-10, 9.062359557932522e-07, -0.0005898225847042029, -0.0001726110180773056, 0.08264284463103871, 7.884306457927676e-09, -3.314640940299849e-08, -2.2986631300834026e-09, 8.845868930385776e-11, -1.7397540986546482e-09, 7.884306457927627e-09, 0.017878887367039072, 4.931105178998941e-06, 0.0007547209060046288, 2.917247207214062e-09, -4.602906281212067e-10, -3.314640940299913e-08, 4.931105178998943e-06, 0.01787417413916683, 0.00013979997391285804, -4.0342137805586105e-07, 9.062359557932613e-07, -2.298663130083326e-09, 0.0007547209060046288, 0.00013979997391285804, 0.2509941140376535)"
2025/09/16/13:35:13.053398,126446,1758047713,48615217,odom,base_link,1.3180925790926574,0.2920026813616244,0.002809190959233404,-0.0066298132360840525,-0.009492438730026795,-0.8581629450948561,0.513246820593693,"(9.999981553365544e-10, -6.220044560157608e-22, -4.169978820461817e-20, -8.029751846224324e-24, -3.1488746954990703e-24, 1.198893188637858e-22, -6.22004456015745e-22, 9.999981553338083e-10, -2.597367853706259e-19, 1.4918168892109756e-24, 1.8670881705374277e-25, -2.0597321519149768e-23, -4.169978820461818e-20, -2.597367853706259e-19, 9.999969175194435e-10, 4.090239152742514e-24, -2.2033244612671567e-23, -4.44526678338339e-25, -8.02975184622426e-24, 1.4918168892109667e-24, 4.0902391527424835e-24, 9.999938114045527e-10, 2.923300652060166e-20, -1.3015528717171705e-18, -3.148874695499145e-24, 1.8670881705378566e-25, -2.2033244612671988e-23, 2.923300652060165e-20, 9.99993811335329e-10, -4.298356610774875e-19, 1.198893188637861e-22, -2.0597321519149518e-23, -4.445266783383385e-25, -1.30155287171717e-18, -4.2983566107748765e-19, 9.999981600604809e-10)",0.06497459146327865,0.021442631543506337,0.0037674867831483205,-0.0004008076359075835,-0.0008714136098069655,0.11544122086750215,"(0.1787955688622237, -1.3158952326566937e-06, -0.0005957987568913027, -4.313589890195815e-10, 7.078445341430601e-10, -3.889389073321684e-07, -1.3158952326594836e-06, 0.17880477859898916, -0.0001686001695520104, 5.000907897313032e-10, -8.882082273969759e-10, 1.1498428572113456e-06, -0.0005957987568913026, -0.00016860016955201032, 0.07776284073390895, 6.627926007959002e-09, -3.6816735372680636e-08, -2.241353437599534e-09, -4.3135898901972764e-10, 5.000907897315132e-10, 6.627926007958952e-09, 0.017400086203774423, 4.794327592104286e-06, 0.0007806902168385102, 7.078445341430139e-10, -8.882082273972311e-10, -3.6816735372681404e-08, 4.7943275921042885e-06, 0.017395043671671346, 0.00014168459916300046, -3.8893890733217196e-07, 1.1498428572113471e-06, -2.241353437599461e-09, 0.0007806902168385102, 0.0001416845991630004, 0.2271259073004878)"
