time,.header.seq,.header.stamp.secs,.header.stamp.nsecs,.header.frame_id,.child_frame_id,.pose.pose.position.x,.pose.pose.position.y,.pose.pose.position.z,.pose.pose.orientation.x,.pose.pose.orientation.y,.pose.pose.orientation.z,.pose.pose.orientation.w,.pose.covariance,.twist.twist.linear.x,.twist.twist.linear.y,.twist.twist.linear.z,.twist.twist.angular.x,.twist.twist.angular.y,.twist.twist.angular.z,.twist.covariance
2025/09/16/13:37:28.065467,138823,1758047848,62154531,odom,base_link,1.093523741257966,0.2927975661708002,0.004034462905682713,-0.007511637776445557,-0.009484035863147102,-0.9975492538380963,0.06891381957720506,"(9.999990181103456e-10, -2.1834890129752653e-21, -1.5295944183924965e-19, 1.9982081829980795e-24, 2.97887183187935e-24, -8.155839014890059e-25, -2.1834890129750764e-21, 9.999990181050622e-10, -8.631242142753601e-20, -5.7935657603160186e-24, -1.4051050774332224e-24, 6.128856207922542e-23, -1.5295944183924936e-19, -8.631242142753613e-20, 9.999983556262161e-10, 8.655107229462641e-24, 1.6897758690279652e-23, -1.8350994492390114e-24, 1.998208182998093e-24, -5.793565760316063e-24, 8.655107229462711e-24, 9.99996687686257e-10, 4.4402719825153174e-20, -9.34937085586569e-19, 2.9788718318792685e-24, -1.4051050774332088e-24, 1.6897758690279443e-23, 4.440271982515317e-20, 9.999966877104964e-10, -8.263675938233029e-19, -8.155839014890542e-25, 6.128856207922553e-23, -1.8350994492390195e-24, -9.349370855865683e-19, -8.263675938233029e-19, 9.999990226746302e-10)",-0.06325475197209056,0.014101752778885621,-0.01872616708527952,-0.013485090431291907,0.0025480347316160627,0.19493014418746113,"(0.17866561686185092, -3.3862817395538606e-05, -0.0006579591947588239, -4.547988508759515e-09, -7.590945916845632e-09, -7.386767103313337e-08, -3.3862817395539135e-05, 0.17860177242990719, -0.001435547829465168, 6.769612739676802e-09, -5.274018060295578e-09, -6.025395900254428e-07, -0.0006579591947588245, -0.001435547829465168, 0.07780838867043122, 1.4050412555459182e-08, 2.4155181669234394e-08, 8.754929837779975e-10, -4.547988508759527e-09, 6.769612739676924e-09, 1.405041255545931e-08, 0.017395800237910573, 1.4843395282775892e-05, 0.0008646257447261666, -7.590945916845398e-09, -5.2740180602956794e-09, 2.415518166923403e-08, 1.484339528277589e-05, 0.017427775152859974, 0.0012875135270010477, -7.386767103313302e-08, -6.025395900254438e-07, 8.754929837779696e-10, 0.0008646257447261664, 0.0012875135270010475, 0.22645764881899658)"
2025/09/16/13:37:28.073310,138824,1758047848,73209047,odom,base_link,1.0942348306352723,0.2927345902133794,0.0038185402371688037,-0.00751303777802254,-0.009400626072243214,-0.9974752340260662,0.06998814183445937,"(0.0011273290891791257, -2.6433848573676435e-09, -1.1296841503319029e-07, 7.389079511371125e-13, 1.107561785666332e-12, -1.1132366514355254e-12, -2.643384857366683e-09, 0.0011273225827543342, -6.062026155864806e-08, -2.1226242732544095e-12, -4.726110715800389e-13, 7.496910338014399e-11, -1.1296841503319032e-07, -6.062026155864802e-08, 0.000672819336652777, 1.908875097167852e-12, 3.651125416873343e-12, -1.3070632092067572e-12, 7.38907951137117e-13, -2.122624273254426e-12, 1.908875097167867e-12, 0.0003337661991090073, 4.806353245881488e-09, -3.452946790052069e-07, 1.1075617856663025e-12, -4.726110715800331e-13, 3.651125416873299e-12, 4.806353245881488e-09, 0.00033376874846722865, -2.996779342088885e-07, -1.1132366514355844e-12, 7.496910338014409e-11, -1.3070632092067629e-12, -3.4529467900520684e-07, -2.996779342088885e-07, 0.0011331310851689271)",-0.0632317682790362,0.01418954706457321,-0.018794980821709578,-0.013485090431291907,0.0025480347316160627,0.19493014418746113,"(0.18213503946034967, -3.398945395854058e-05, -0.000661553257444416, -4.555871319386637e-09, -7.604646280092174e-09, -7.400885632885455e-08, -3.3989453958541116e-05, 0.18207097007064052, -0.0014429142587451499, 6.781777301531566e-09, -5.282292391243139e-09, -6.036188118592795e-07, -0.0006615532574444166, -0.0014429142587451499, 0.07891900154290661, 1.4095909387829325e-08, 2.42073362628128e-08, 8.721808675813093e-10, -4.5558713193866485e-09, 6.781777301531689e-09, 1.4095909387829452e-08, 0.017506345396296804, 1.4843395282775892e-05, 0.0008646257447261666, -7.604646280091939e-09, -5.2822923912432405e-09, 2.4207336262812437e-08, 1.484339528277589e-05, 0.017538320311246205, 0.0012875135270010477, -7.400885632885421e-08, -6.036188118592805e-07, 8.721808675812811e-10, 0.0008646257447261664, 0.0012875135270010475, 0.2319849067383081)"
2025/09/16/13:37:28.093418,138825,1758047848,93264341,odom,base_link,1.09552480766962,0.2926206041290984,0.003424856088006268,-0.007515701022671559,-0.009249292593403974,-0.9973379741703078,0.071936987027023,"(0.003285976217559423, -2.080729846759993e-08, -9.071118493508177e-07, 1.957614562105685e-08, 1.3146168851119465e-07, 1.3448203678265767e-07, -2.08072984675991e-08, 0.003285926350086679, -4.822899863481246e-07, -1.2570017723439233e-07, 1.7940833185369717e-08, 1.527391859986981e-06, -9.071118493508173e-07, -4.822899863481242e-07, 0.0019429722040716882, 1.0053060572493435e-07, 4.255624600628577e-07, -1.3881926810920237e-09, 1.9576145621056848e-08, -1.2570017723439236e-07, 1.0053060572493434e-07, 0.0009502127600680893, 3.879607806553635e-08, -2.781890185728266e-06, 1.3146168851119468e-07, 1.7940833185369717e-08, 4.255624600628577e-07, 3.8796078065536154e-08, 0.0009502320317474066, -2.40564595254599e-06, 1.3448203678265765e-07, 1.5273918599869812e-06, -1.3881926810920235e-09, -2.7818901857282665e-06, -2.4056459525459904e-06, 0.0033324142650252553)",-0.06319007086514787,0.014348824977774016,-0.01891982389381033,-0.013485090431291907,0.0025480347316160627,0.19493014418746113,"(0.1884643293196978, -3.4219786132786884e-05, -0.0006680946020366818, -4.570172450912587e-09, -7.629501716307774e-09, -7.426499713689222e-08, -3.4219786132787426e-05, 0.18839985068052906, -0.001456328976773359, 6.8038464602707095e-09, -5.2973038257133745e-09, -6.055767547963169e-07, -0.0006680946020366825, -0.0014563289767733593, 0.08095819291319657, 1.417845052886611e-08, 2.4301956029508835e-08, 8.661719690299352e-10, -4.570172450912599e-09, 6.803846460270831e-09, 1.4178450528866239e-08, 0.017706898336665455, 1.4843395282775892e-05, 0.0008646257447261666, -7.629501716307538e-09, -5.297303825713476e-09, 2.430195602950847e-08, 1.484339528277589e-05, 0.017738873251614856, 0.0012875135270010477, -7.426499713689188e-08, -6.055767547963178e-07, 8.661719690299063e-10, 0.0008646257447261664, 0.0012875135270010475, 0.24201255375674072)"
2025/09/16/13:37:28.113381,138826,1758047848,112148046,odom,base_link,1.094298840014781,0.28901818457803763,-0.0070394441464265815,-0.006856779879697431,-0.008474776432235487,-0.9972630849804978,0.07312661669519165,"(9.999992680570498e-10, -1.797244590226997e-21, -1.3315350417776786e-19, 1.946310366355716e-24, 2.9914429103843484e-24, -4.08720050358687e-25, -1.7972445902264086e-21, 9.999992680524466e-10, -6.255385161632948e-20, -5.475720097606081e-24, -9.425304520836073e-25, 5.830229426900374e-23, -1.3315350417776772e-19, -6.255385161632943e-20, 9.999987722894767e-10, 8.635899425063015e-24, 1.5306464383903224e-23, -1.4858092078086153e-24, 1.946310366355725e-24, -5.4757200976061216e-24, 8.635899425063084e-24, 9.999975210946749e-10, 3.6111835893786284e-20, -8.311863211394934e-19, 2.991442910384286e-24, -9.425304520835935e-25, 1.5306464383903024e-23, 3.611183589378627e-20, 9.99997521116355e-10, -6.966993480820968e-19, -4.087200503587268e-25, 5.83022942690039e-23, -1.4858092078086182e-24, -8.311863211394933e-19, -6.966993480820968e-19, 9.999992725598977e-10)",-0.058557512610720855,0.019577391055431808,-0.03196607115415977,-0.014155168189294425,0.0033382363805190707,0.1924163409452911,"(0.17869044504538859, -3.0379183086752903e-05, -0.0006468715477061989, -4.3739624583426355e-09, -7.2638733272466725e-09, -7.836535742725487e-08, -3.0379183086753652e-05, 0.1786360009057596, -0.001334300503719528, 6.555735185692636e-09, -4.817678572084568e-09, -5.738334138963275e-07, -0.0006468715477061995, -0.0013343005037195277, 0.07780520338853908, 1.4011506466125068e-08, 2.326113899579094e-08, 1.1798947754754574e-09, -4.373962458342642e-09, 6.555735185692741e-09, 1.4011506466125185e-08, 0.017396108269795423, 1.4471878601929659e-05, 0.0008468922267203471, -7.263873327246495e-09, -4.817678572084657e-09, 2.326113899579058e-08, 1.4471878601929657e-05, 0.01742607413915188, 0.0011912372976122104, -7.836535742725461e-08, -5.738334138963285e-07, 1.179894775475466e-09, 0.000846892226720347, 0.0011912372976122102, 0.2266022899213563)"
2025/09/16/13:37:28.123310,138827,1758047848,122153521,odom,base_link,1.0944470171639131,0.2882728880877532,-0.009278364127814567,-0.0067541093456026545,-0.008390743778014543,-0.9972017255733885,0.07397767189670057,"(9.999990181352072e-10, -1.7525227617873626e-21, -1.3068162532838817e-19, 1.9712829929835195e-24, 3.2936622362577294e-24, -4.74687170312107e-25, -1.7525227617872633e-21, 9.999990181306947e-10, -6.278775121464469e-20, -5.6158434063557324e-24, -7.699192285762663e-25, 5.627022791151417e-23, -1.306816253283881e-19, -6.278775121464466e-20, 9.999983556641634e-10, 8.849169263179014e-24, 1.5848068432652003e-23, -1.400393431589959e-24, 1.9712829929835294e-24, -5.615843406355769e-24, 8.849169263179082e-24, 9.999966877568785e-10, 3.5503310417258975e-20, -8.209295736031659e-19, 3.2936622362576688e-24, -7.69919228576252e-25, 1.5848068432651806e-23, 3.5503310417258987e-20, 9.99996687778857e-10, -6.920204305487282e-19, -4.7468717031214705e-25, 5.627022791151422e-23, -1.4003934315899612e-24, -8.209295736031659e-19, -6.920204305487283e-19, 9.999990227099513e-10)",-0.05763616968745011,0.020599246512931196,-0.03456335609551244,-0.014154017064447244,0.0034509614155050486,0.1919209691311757,"(0.17867443880982395, -2.9698502648100455e-05, -0.0006439155109623421, -4.279915210420813e-09, -7.103803676563191e-09, -7.541458895625346e-08, -2.969850264810132e-05, 0.17862171357213485, -0.0013143057702030808, 6.413097688841704e-09, -4.6813807423296895e-09, -5.521138033623206e-07, -0.0006439155109623426, -0.0013143057702030808, 0.07780212951422863, 1.3791834622700495e-08, 2.2872500918043847e-08, 1.1318622777373797e-09, -4.2799152104208184e-09, 6.413097688841806e-09, 1.3791834622700611e-08, 0.017395889043727672, 1.4385178306118433e-05, 0.0008423897366473571, -7.103803676563017e-09, -4.681380742329776e-09, 2.2872500918043493e-08, 1.4385178306118431e-05, 0.017425466220497773, 0.0011723250394433285, -7.541458895625322e-08, -5.521138033623215e-07, 1.1318622777373875e-09, 0.000842389736647357, 0.0011723250394433283, 0.22657669960468133)"
2025/09/16/13:37:28.133363,138828,1758047848,133236647,odom,base_link,1.09510766871848,0.28813390935499944,-0.009667884779406302,-0.00674986165950626,-0.008303930015653334,-0.997123266492145,0.0750378273533239,"(0.0011303049013559237, -2.1676556281229755e-09, -9.700567223293306e-08, 7.30511078410536e-13, 1.2140284543172963e-12, -6.961374528246969e-13, -2.1676556281241013e-09, 0.001130299278667823, -4.7916945976525317e-08, -2.0578901155192402e-12, -2.7184063475706954e-13, 6.918475822145614e-11, -9.700567223293287e-08, -4.791694597652515e-08, 0.00067458480354703, 1.9538393048977906e-12, 3.4428439414218892e-12, -1.022415099493015e-12, 7.305110784105393e-13, -2.057890115519253e-12, 1.9538393048978047e-12, 0.00033463461013359696, 3.968625830820047e-09, -3.0601769263125806e-07, 1.2140284543172737e-12, -2.7184063475706454e-13, 3.442843941421845e-12, 3.968625830820047e-09, 0.00033463709458523715, -2.6034814302125657e-07, -6.961374528247401e-13, 6.918475822145624e-11, -1.0224150994930158e-12, -3.0601769263125806e-07, -2.603481430212565e-07, 0.0011361495537850514)",-0.0576023307725101,0.020699043767550405,-0.03469793443588013,-0.014154017064447244,0.0034509614155050486,0.1919209691311757,"(0.18215289076625307, -2.9808521308785568e-05, -0.0006474073750460176, -4.2872444871911686e-09, -7.116482383203965e-09, -7.555833494515145e-08, -2.9808521308786435e-05, 0.18209998360418353, -0.001320955246051777, 6.4245076682914025e-09, -4.688532997441249e-09, -5.530994723743792e-07, -0.0006474073750460181, -0.0013209552460517772, 0.0789155782661515, 1.3835793764645867e-08, 2.2919882152999646e-08, 1.1301976735829281e-09, -4.287244487191174e-09, 6.4245076682915035e-09, 1.3835793764645982e-08, 0.017506720304408824, 1.4385178306118433e-05, 0.0008423897366473571, -7.11648238320379e-09, -4.688532997441336e-09, 2.291988215299929e-08, 1.4385178306118431e-05, 0.017536297481178926, 0.0011723250394433285, -7.555833494515121e-08, -5.5309947237438e-07, 1.1301976735829356e-09, 0.000842389736647357, 0.0011723250394433283, 0.23211826263873894)"
2025/09/16/13:37:28.143373,138829,1758047848,143282890,odom,base_link,1.0957065780532547,0.28800825558550425,-0.010022269966085396,-0.006745996261156923,-0.008225229352143745,-0.9970511675771205,0.07599872610544006,"(0.002193289406327482, -7.784473635791555e-09, -3.552825927152765e-07, 1.8615656799542466e-08, 1.1784395574543013e-07, 1.4571950838345486e-07, -7.784473635793883e-09, 0.0021932693156274503, -1.7335442861099935e-07, -1.1527972723464201e-07, 1.776053759290585e-08, 6.959839071588233e-07, -3.5528259271527615e-07, -1.7335442861099893e-07, 0.0013028219031810339, 7.233487413065275e-08, 1.9286313000234297e-07, -4.1832959955450836e-10, 1.8615656799542456e-08, -1.15279727234642e-07, 7.233487413065274e-08, 0.0006416718739693959, 1.4607517451116312e-08, -1.119626941283715e-06, 1.1784395574543013e-07, 1.7760537592905852e-08, 1.9286313000234294e-07, 1.4607517451116214e-08, 0.0006416807393522755, -9.548359831405032e-07, 1.4571950838345488e-07, 6.959839071588234e-07, -4.1832959955450836e-10, -1.119626941283715e-06, -9.548359831405032e-07, 0.002214668004298633)",-0.05757165765890972,0.020789504485140425,-0.034819922293043,-0.014154017064447244,0.0034509614155050486,0.1919209691311757,"(0.1853178210483931, -2.9908417272904742e-05, -0.0006505794164308166, -4.293888073115371e-09, -7.127974932825836e-09, -7.56886327710387e-08, -2.9908417272905613e-05, 0.18526474867191786, -0.0013269981094834757, 6.434850186556513e-09, -4.695016122976589e-09, -5.539929270738824e-07, -0.0006505794164308172, -0.001326998109483476, 0.0799331190434745, 1.387564030691993e-08, 2.2962830634205438e-08, 1.128688801551432e-09, -4.293888073115377e-09, 6.434850186556614e-09, 1.3875640306920047e-08, 0.01760718274108485, 1.4385178306118433e-05, 0.0008423897366473571, -7.1279749328256605e-09, -4.6950161229766755e-09, 2.2962830634205084e-08, 1.4385178306118431e-05, 0.01763675991785495, 0.0011723250394433285, -7.568863277103846e-08, -5.539929270738833e-07, 1.1286888015514393e-09, 0.000842389736647357, 0.0011723250394433283, 0.2371413844725402)"
2025/09/16/13:37:28.163306,138830,1758047848,163220167,odom,base_link,1.0968950689295542,0.2877584367814883,-0.01072920599662985,-0.006738467055911277,-0.008069028539080958,-0.9969053223994087,0.0779054684338842,"(0.00441371882620958, -2.873192622236709e-08, -1.365211723705076e-06, 9.226992647051799e-08, 5.718944396938447e-07, 7.276264553479572e-07, -2.8731926222364795e-08, 0.004413646033211588, -6.607465127875181e-07, -5.613495754211073e-07, 8.710137176577572e-08, 3.4749991519416793e-06, -1.3652117237050755e-06, -6.607465127875167e-07, 0.0025978546211097367, 3.53801733907125e-07, 9.317261208140634e-07, -3.909265925137718e-09, 9.2269926470518e-08, -5.613495754211073e-07, 3.5380173390712506e-07, 0.0012615306456303052, 5.5949131993406255e-08, -4.3029590473286915e-06, 5.71894439693845e-07, 8.710137176577573e-08, 9.317261208140635e-07, 5.5949131993406414e-08, 0.001261563050473456, -3.6378757351722714e-06, 7.276264553479571e-07, 3.4749991519416793e-06, -3.909265925137718e-09, -4.302959047328691e-06, -3.6378757351722714e-06, 0.0044958182803456785)",-0.057510785319193916,0.020969028337978316,-0.03506201334317782,-0.014154017064447244,0.0034509614155050486,0.1919209691311757,"(0.19163238602206187, -3.010714489073894e-05, -0.000656893807977118, -4.307072604186393e-09, -7.150782476719083e-09, -7.594721537288907e-08, -3.0107144890739816e-05, 0.19157898489634684, -0.0013390340696724367, 6.4553754352662774e-09, -4.707882212319487e-09, -5.55766032950821e-07, -0.0006568938079771187, -0.0013390340696724369, 0.08197585574338782, 1.3954717778134873e-08, 2.3048064059553043e-08, 1.1256943689651113e-09, -4.307072604186398e-09, 6.455375435266378e-09, 1.3954717778134989e-08, 0.017806555509486947, 1.4385178306118433e-05, 0.0008423897366473571, -7.150782476718906e-09, -4.7078822123195735e-09, 2.304806405955269e-08, 1.4385178306118431e-05, 0.01783613268625705, 0.0011723250394433285, -7.594721537288884e-08, -5.557660329508219e-07, 1.125694368965118e-09, 0.000842389736647357, 0.0011723250394433283, 0.2471100228926452)"
2025/09/16/13:37:28.173363,138831,1758047848,172142029,odom,base_link,1.0951706172187283,0.28462678391995094,-0.020655088687082677,-0.006147471791746555,-0.008571386166494584,-0.9968792086777322,0.07823415645236434,"(9.99998896777298e-10, -1.6104611303056695e-21, -1.1769097174560844e-19, 2.0782993468151166e-24, 2.9534652986218057e-24, 3.7155474954335296e-24, -1.6104611303054122e-21, 9.999988967732374e-10, -7.559627158202437e-20, -5.982267491116273e-24, -1.1850825562215846e-24, 6.813188856756657e-23, -1.176909717456084e-19, -7.559627158202426e-20, 9.99998153367727e-10, 9.120390032914477e-24, 1.395125563011526e-23, -1.613995744085857e-24, 2.078299346815129e-24, -5.982267491116274e-24, 9.120390032914513e-24, 9.999962831293023e-10, 3.469509659964541e-20, -7.698585691771717e-19, 2.953465298621865e-24, -1.1850825562215778e-24, 1.395125563011522e-23, 3.469509659964542e-20, 9.999962831553576e-10, -7.147412123603588e-19, 3.7155474954334525e-24, 6.81318885675666e-23, -1.6139957440858664e-24, -7.69858569177172e-19, -7.147412123603589e-19, 9.999989013838179e-10)",-0.05322057897676388,0.02539935750630931,-0.04753654991299635,-0.013455485395820765,0.004061793991274659,0.1899319111178706,"(0.17868839524684982, -2.655986413313034e-05, -0.0006286880321504936, -5.1788933118587825e-09, -8.994255222185103e-09, -1.393531196908251e-07, -2.6559864133132584e-05, 0.17864346710363838, -0.0012202870208579543, 8.4806786814254e-09, -5.271826744884361e-09, -6.66873878689714e-07, -0.0006286880321504941, -0.0012202870208579545, 0.0777979913021659, 1.5613534550951975e-08, 2.3747133710494075e-08, 2.4055713046233796e-09, -5.178893311858804e-09, 8.480678681425406e-09, 1.5613534550952038e-08, 0.017395963355928308, 1.3948581689036964e-05, 0.0008196296225859314, -8.994255222185273e-09, -5.271826744884366e-09, 2.3747133710494006e-08, 1.3948581689036963e-05, 0.017423689812099123, 0.0010841737335429333, -1.3935311969082437e-07, -6.668738786897146e-07, 2.4055713046233217e-09, 0.0008196296225859312, 0.0010841737335429331, 0.22667962501205802)"
2025/09/16/13:37:28.183324,138832,1758047848,182162762,odom,base_link,1.0965783587689844,0.3007937807507754,0.024285331301009905,-0.005745637592558322,-0.01702932084917075,-0.9965708165955388,0.08076878970352266,"(9.999990196566053e-10, -1.5691312779434496e-21, -1.082529370072439e-19, 2.2620728936568563e-24, 4.083908715112088e-24, 3.415503413035218e-24, -1.5691312779427646e-21, 9.99999019652525e-10, -8.3174191804856e-20, -6.860679190441985e-24, -9.85471221872339e-25, 6.596385850351062e-23, -1.0825293700724374e-19, -8.317419180485603e-20, 9.999983581989821e-10, 1.0071255920721129e-23, 1.5805104717672435e-23, -1.5775140419136437e-24, 2.262072893656868e-24, -6.860679190441989e-24, 1.0071255920721164e-23, 9.999966928235115e-10, 3.4457988797049404e-20, -7.332389331683238e-19, 4.083908715112148e-24, -9.854712218723315e-25, 1.5805104717672394e-23, 3.445798879704939e-20, 9.999966928537801e-10, -7.424409508402394e-19, 3.4155034130351425e-24, 6.596385850351068e-23, -1.5775140419136543e-24, -7.332389331683238e-19, -7.424409508402395e-19, 9.999990242372588e-10)",-0.057796786616344645,-0.0014384621156943098,0.01118310453209853,-0.0036047124383698855,0.0037459402741905714,0.19554664450515957,"(0.17867257766276637, -2.598549708776434e-05, -0.0006249637344587983, -5.066680540047211e-09, -8.794666654190992e-09, -1.340958524597286e-07, -2.5985497087767036e-05, 0.1786290114450033, -0.0012033218321970327, 8.298979356900668e-09, -5.128615442303394e-09, -6.416092888776419e-07, -0.0006249637344587988, -0.0012033218321970329, 0.0777950569318402, 1.536934693523221e-08, 2.335125317369827e-08, 2.3236362789274694e-09, -5.066680540047232e-09, 8.298979356900674e-09, 1.5369346935232272e-08, 0.01739573377807129, 1.3859596579788983e-05, 0.0008141949549313305, -8.79466665419116e-09, -5.1286154423033985e-09, 2.33512531736982e-08, 1.3859596579788981e-05, 0.017423122038928002, 0.001068419703999121, -1.340958524597279e-07, -6.416092888776425e-07, 2.3236362789274135e-09, 0.0008141949549313303, 0.0010684197039991209, 0.22665121169750863)"
2025/09/16/13:37:28.193370,138833,1758047848,193213463,odom,base_link,1.097207063294574,0.30091614561466123,0.024399604431851386,-0.00574505251344452,-0.017001601459366127,-0.9964834243159826,0.08184573894179391,"(0.0011269340056278031, -2.726516483501232e-09, -5.537842357080944e-08, 7.198551120902301e-13, 7.53921520579773e-13, 3.4443055019112264e-12, -2.7265164835008127e-09, 0.0011269229812840224, -2.718283966994867e-07, -1.849281798602079e-12, -1.7703833016492494e-12, 8.063772481602258e-11, -5.537842357080942e-08, -2.7182839669948677e-07, 0.0006725879353932072, 1.919717141843479e-12, 3.543463171194014e-12, -2.4444104478859965e-12, 7.198551120902341e-13, -1.849281798602079e-12, 1.919717141843487e-12, 0.0003336491349457875, 8.535726245580057e-09, -2.934737979061579e-07, 7.539215205797964e-13, -1.7703833016492476e-12, 3.5434631711940052e-12, 8.535726245580059e-09, 0.00033366896605744933, -7.130270009922319e-07, 3.444305501911132e-12, 8.063772481602264e-11, -2.444410447886005e-12, -2.9347379790615797e-07, -7.130270009922319e-07, 0.0011327356929707593)",-0.057763661602754944,-0.0013831910013636097,0.011247422162347077,-0.0036047124383698855,0.0037459402741905714,0.19554664450515957,"(0.18214085329446528, -2.6080261695189076e-05, -0.0006283079668578192, -5.0754902678122806e-09, -8.810539382002546e-09, -1.3435356035201575e-07, -2.608026169519178e-05, 0.18209714102204425, -0.0012092930715423525, 8.313988650325603e-09, -5.136645798392887e-09, -6.427711101542397e-07, -0.0006283079668578197, -0.001209293071542353, 0.07890519010858846, 1.5419341057190007e-08, 2.340111349611559e-08, 2.326444514349182e-09, -5.075490267812301e-09, 8.313988650325608e-09, 1.541934105719007e-08, 0.017506240789484866, 1.3859596579788983e-05, 0.0008141949549313305, -8.810539382002713e-09, -5.13664579839289e-09, 2.340111349611552e-08, 1.3859596579788981e-05, 0.017533629050341577, 0.001068419703999121, -1.3435356035201507e-07, -6.427711101542403e-07, 2.3264445143491255e-09, 0.0008141949549313303, 0.0010684197039991209, 0.23217656226818734)"
2025/09/16/13:37:28.213268,138834,1758047848,213207960,odom,base_link,1.0983434836686845,0.30113836977212727,0.024608201013043552,-0.005744030640007651,-0.016951425137733126,-0.9963223424489497,0.08379406443683428,"(0.003278796383914313, -2.195109858395426e-08, -4.430309098251203e-07, -1.2620701931683901e-08, -6.897308411081056e-08, -2.6236996492520516e-07, -2.1951098583947836e-08, 0.003278709955095565, -2.169821511848327e-06, 7.390944451757261e-08, -1.404195807311255e-08, 1.3446620372947425e-06, -4.4303090982511976e-07, -2.1698215118483274e-06, 0.0019388087947806718, -9.950390711760945e-09, 3.90765759703091e-07, -2.33091179670568e-09, -1.2620701931683903e-08, 7.39094445175726e-08, -9.950390711760945e-09, 0.0009481953480491869, 6.8879794750636e-08, -2.3779651170145375e-06, -6.897308411081056e-08, -1.404195807311255e-08, 3.90765759703091e-07, 6.887979475063595e-08, 0.0009483522692705274, -5.705128909363505e-06, -2.6236996492520516e-07, 1.3446620372947425e-06, -2.33091179670568e-09, -2.3779651170145375e-06, -5.705128909363506e-06, 0.0033250685458894712)",-0.05770372712563147,-0.0012831866548454762,0.011363794749737236,-0.0036047124383698855,0.0037459402741905714,0.19554664450515957,"(0.18845097508403966, -2.6252145952635925e-05, -0.0006343779572334693, -5.091430077943068e-09, -8.839258574504386e-09, -1.348198420558103e-07, -2.625214595263864e-05, 0.18840699781461798, -0.0012201380291844324, 8.341145594759157e-09, -5.151175458646027e-09, -6.44873242143869e-07, -0.0006343779572334699, -0.0012201380291844328, 0.08093797412338155, 1.5509797519967718e-08, 2.349132786977004e-08, 2.3315255725405757e-09, -5.091430077943089e-09, 8.341145594759162e-09, 1.5509797519967777e-08, 0.01770618576247681, 1.3859596579788983e-05, 0.0008141949549313305, -8.839258574504552e-09, -5.151175458646031e-09, 2.3491327869769972e-08, 1.3859596579788981e-05, 0.01773357402333352, 0.001068419703999121, -1.3481984205580962e-07, -6.448732421438696e-07, 2.331525572540518e-09, 0.0008141949549313303, 0.0010684197039991209, 0.2421738109177845)"
2025/09/16/13:37:28.233353,138835,1758047848,232142448,odom,base_link,1.0977406504891445,0.29760968754483247,0.0131352617963848,-0.005504861516372802,-0.01811481704337304,-0.9962012879410064,0.08499731647440706,"(9.999992682052225e-10, -2.064763017798333e-21, -6.60883900032577e-20, 1.8359261240406325e-24, 2.2312010814880567e-24, 7.107615806267285e-25, -2.0647630177987327e-21, 9.99999268195842e-10, -3.802304675151683e-19, -4.771352432930507e-24, -4.813909759666913e-24, 6.118861198077767e-23, -6.608839000325767e-20, -3.8023046751516826e-19, 9.999987725462689e-10, 8.593045973913923e-24, 1.5014205519442088e-23, -3.2063751526488825e-24, 1.8359261240406413e-24, -4.771352432930511e-24, 8.593045973913957e-24, 9.999975215812219e-10, 7.758800937852917e-20, -7.678208689467665e-19, 2.2312010814881107e-24, -4.813909759666908e-24, 1.501420551944203e-23, 7.758800937852919e-20, 9.9999752177304e-10, -1.9723957604861494e-18, 7.107615806266789e-25, 6.118861198077773e-23, -3.206375152648896e-24, -7.678208689467667e-19, -1.972395760486148e-18, 9.999992727031848e-10)",-0.05415407214486921,0.003773348208336299,-0.0034827534676704504,-0.0022090293991669026,0.003892866995427624,0.1928075169568989,"(0.17869613978295262, -2.5220677988320016e-05, -0.0006100481350086755, -4.36549970789048e-09, -7.612838354609212e-09, -1.09125238930861e-07, -2.522067798832327e-05, 0.17865282951024788, -0.0011992578726371793, 7.171709916918431e-09, -4.488220137802519e-09, -5.991369061775226e-07, -0.0006100481350086761, -0.0011992578726371798, 0.07779546849677026, 1.4858886415235128e-08, 2.2597526086959886e-08, 2.1413451305601016e-09, -4.365499707890499e-09, 7.171709916918441e-09, 1.4858886415235182e-08, 0.017395951836394273, 1.3847334279351048e-05, 0.0007924917654008207, -7.612838354609364e-09, -4.488220137802535e-09, 2.2597526086959783e-08, 1.3847334279351046e-05, 0.01742270876329256, 0.0010690324387421892, -1.0912523893086058e-07, -5.991369061775232e-07, 2.1413451305600487e-09, 0.0007924917654008205, 0.001069032438742189, 0.2267235101289464)"
2025/09/16/13:37:28.243327,138836,1758047848,242181540,odom,base_link,1.0979720357118985,0.29696542092933703,0.010859737109181028,-0.005439667398379872,-0.018416722627460674,-0.9961217514689432,0.0858643732679787,"(9.999990214819917e-10, -2.052223508170224e-21, -6.412636435440136e-20, 1.82879003137752e-24, 2.3182686133535297e-24, 5.481344994533456e-25, -2.0522235081708328e-21, 9.999990214721774e-10, -3.9556497249358733e-19, -4.725111819783803e-24, -4.6918253687128245e-24, 5.902127253124916e-23, -6.412636435440129e-20, -3.955649724935874e-19, 9.999983612540503e-10, 8.577192076395269e-24, 1.550800642707643e-23, -3.131622825695693e-24, 1.8287900313775282e-24, -4.725111819783806e-24, 8.5771920763953e-24, 9.999966989092183e-10, 7.999030755762639e-20, -7.744914884123985e-19, 2.3182686133535833e-24, -4.691825368712818e-24, 1.5508006427076378e-23, 7.999030755762639e-20, 9.999966991119482e-10, -2.037557902449993e-18, 5.481344994532948e-25, 5.902127253124922e-23, -3.131622825695705e-24, -7.744914884123985e-19, -2.037557902449994e-18, 9.999990260489005e-10)",-0.05344121203679065,0.004762704978431208,-0.006386316543282032,-0.0018361184436053513,0.003933385059928844,0.192301992967451,"(0.1786801059241575, -2.5115485251715677e-05, -0.0006071662548360197, -4.271366284414021e-09, -7.452272522762974e-09, -1.0499951621007205e-07, -2.5115485251718598e-05, 0.17863663981615466, -0.0012001008666992414, 7.011247288067977e-09, -4.414636879885457e-09, -5.763588692881539e-07, -0.0006071662548360203, -0.0012001008666992416, 0.07779321907967451, 1.4624364231287152e-08, 2.2219508976060138e-08, 2.149744765747761e-09, -4.2713662844140395e-09, 7.011247288067986e-09, 1.4624364231287206e-08, 0.017395727167684588, 1.3851441022369396e-05, 0.0007883514398975475, -7.452272522763122e-09, -4.4146368798854724e-09, 2.2219508976060035e-08, 1.3851441022369394e-05, 0.017422385764199907, 0.0010707194967205474, -1.0499951621007164e-07, -5.763588692881544e-07, 2.1497447657477093e-09, 0.0007883514398975473, 0.0010707194967205472, 0.22668391575813004)"
2025/09/16/13:37:28.253352,138837,1758047848,253246784,odom,base_link,1.0985629420653253,0.2970115065761069,0.010782681678860392,-0.0054384782959721045,-0.018398956597516742,-0.9960301383385993,0.08692447797449075,"(0.0011284469754688521, -2.5421124297458697e-09, -4.655537935653785e-08, 6.807977360070044e-13, 8.830376755212249e-13, 5.649401557828851e-13, -2.542112429746292e-09, 0.0011284342580453574, -3.0683788809000697e-07, -1.761617429368845e-12, -1.7622742357435177e-12, 7.234680085563353e-11, -4.6555379356537794e-08, -3.0683788809000697e-07, 0.0006734870872989075, 1.905532625087241e-12, 3.3686285496896444e-12, -2.346460428198629e-12, 6.807977360070078e-13, -1.7616174293688461e-12, 1.9055326250872475e-12, 0.00033409101301221946, 9.232571545000683e-09, -2.917823396115752e-07, 8.830376755212447e-13, -1.762274235743515e-12, 3.368628549689632e-12, 9.232571545000681e-09, 0.00033411493826716936, -7.849688354538274e-07, 5.649401557828261e-13, 7.234680085563359e-11, -2.346460428198638e-12, -2.9178233961157515e-07, -7.849688354538274e-07, 0.0011342626553294839)",-0.05339986145516412,0.004829562287426341,-0.006397811239653569,-0.0018361184436053513,0.003933385059928844,0.192301992967451,"(0.18215298105558475, -2.5206974822045787e-05, -0.0006103888612403406, -4.278572686534762e-09, -7.465410338596272e-09, -1.0519863556735925e-07, -2.5206974822048714e-05, 0.18210936724326457, -0.001206098649909574, 7.023632117889987e-09, -4.421245468333864e-09, -5.773953428646641e-07, -0.000610388861240341, -0.0012060986499095744, 0.078904806699272, 1.4670649389461233e-08, 2.2265183427697756e-08, 2.1521591835278734e-09, -4.27857268653478e-09, 7.023632117889995e-09, 1.4670649389461287e-08, 0.017506379614431414, 1.3851441022369396e-05, 0.0007883514398975475, -7.46541033859642e-09, -4.42124546833388e-09, 2.2265183427697653e-08, 1.3851441022369394e-05, 0.017533038210946733, 0.0010707194967205474, -1.0519863556735884e-07, -5.773953428646646e-07, 2.1521591835278213e-09, 0.0007883514398975473, 0.0010707194967205472, 0.23221653809547135)"
2025/09/16/13:37:28.273281,138838,1758047848,273171425,odom,base_link,1.0996259581018346,0.29709471283747285,0.010643654433606249,-0.005436357843119411,-0.018366941760216745,-0.9958623301182467,0.08883310708983931,"(0.003272648191599607, -2.0170917959062943e-08, -3.6980790867880425e-07, 7.983890295941425e-09, 4.6442957164882716e-08, -9.885216626848023e-08, -2.017091795906965e-08, 0.00327254868131773, -2.4348474686606474e-06, -4.2083700930002443e-08, 5.934329994571917e-09, 1.259444870664489e-06, -3.6980790867880335e-07, -2.434847468660647e-06, 0.0019352277608436332, 3.5841197589565944e-08, 3.5864062328842787e-07, -2.4563408181432047e-09, 7.983890295941429e-09, -4.208370093000243e-08, 3.5841197589565964e-08, 0.000946475539853863, 7.406790816013783e-08, -2.3522545784883785e-06, 4.644295716488272e-08, 5.934329994571914e-09, 3.5864062328842787e-07, 7.406790816013823e-08, 0.0009466640668210882, -6.2423356739011665e-06, -9.885216626848025e-08, 1.2594448706644894e-06, -2.456340818143205e-09, -2.3522545784883785e-06, -6.2423356739011665e-06, 0.0033187448723541843)",-0.053325403501090114,0.004949948948190455,-0.0064185091728109975,-0.0018361184436053513,0.003933385059928844,0.192301992967451,"(0.18844105791698587, -2.537212067772527e-05, -0.0006162098586417924, -4.29154889961421e-09, -7.48906695597553e-09, -1.0555717997899639e-07, -2.537212067772821e-05, 0.18839717739362072, -0.0012169396217706046, 7.0459328704750495e-09, -4.43314522780109e-09, -5.792616697438296e-07, -0.0006162098586417928, -0.001216939621770605, 0.0809304337771849, 1.4753992792288321e-08, 2.23474271613677e-08, 2.156506706612573e-09, -4.291548899614228e-09, 7.045932870475057e-09, 1.4753992792288376e-08, 0.01770562602098659, 1.3851441022369396e-05, 0.0007883514398975475, -7.48906695597568e-09, -4.433145227801105e-09, 2.2347427161367597e-08, 1.3851441022369394e-05, 0.017732284617501908, 0.0010707194967205474, -1.0555717997899598e-07, -5.792616697438301e-07, 2.15650670661252e-09, 0.0007883514398975473, 0.0010707194967205472, 0.24217885842323014)"
2025/09/16/13:37:28.283313,138839,1758047848,283227921,odom,base_link,1.1001619262812796,0.29713776859761953,0.010573331590990727,-0.005435259776245939,-0.018350741430442564,-0.9957762445604127,0.08979631957535335,"(0.004410908067529691, -3.5583549653907193e-08, -6.529800118843846e-07, 1.9666537694342994e-08, 1.1300095625415321e-07, -2.476433806309442e-07, -3.5583549653920614e-08, 0.004410733828893594, -4.298047910443942e-06, -1.0294867019112208e-07, 1.2808502929623668e-08, 3.103949997344759e-06, -6.529800118843828e-07, -4.2980479104439415e-06, 0.002596512367798722, 8.761329140277374e-08, 8.701261052134691e-07, -7.87303491251807e-09, 1.9666537694343e-08, -1.0294867019112208e-07, 8.761329140277375e-08, 0.0012608700162561608, 1.3162281855504964e-07, -4.188695661309918e-06, 1.1300095625415323e-07, 1.2808502929623667e-08, 8.701261052134694e-07, 1.316228185550499e-07, 0.0012612012996012305, -1.1023592504512116e-05, -2.4764338063094425e-07, 3.1039499973447594e-06, -7.873034912518068e-09, -4.188695661309918e-06, -1.1023592504512114e-05, 0.0044922875534885165)",-0.05328782259283546,0.005010711295336923,-0.006428955969754641,-0.0018361184436053513,0.003933385059928844,0.192301992967451,"(0.19163176498210185, -2.5455671987411333e-05, -0.0006191567620875529, -4.298098339218029e-09, -7.501007079477471e-09, -1.0573814687241334e-07, -2.545567198741428e-05, 0.19158774947774718, -0.0012224313975174505, 7.0571886529811876e-09, -4.4391513526584265e-09, -5.802036545202231e-07, -0.0006191567620875534, -0.001222431397517451, 0.08196461130914767, 1.4796058422672987e-08, 2.2388937759503374e-08, 2.1587010170554666e-09, -4.298098339218047e-09, 7.057188652981194e-09, 1.4796058422673041e-08, 0.01780619097765163, 1.3851441022369396e-05, 0.0007883514398975475, -7.501007079477619e-09, -4.439151352658441e-09, 2.238893775950327e-08, 1.3851441022369394e-05, 0.017832849574166948, 0.0010707194967205474, -1.0573814687241293e-07, -5.802036545202236e-07, 2.1587010170554136e-09, 0.0007883514398975473, 0.0010707194967205472, 0.2472071062564821)"
2025/09/16/13:37:28.293420,138840,1758047848,292174101,odom,base_link,1.0992382762168809,0.29379186222501674,-0.0008580468045308496,-0.005524945134117639,-0.020136606084905022,-0.9957088753025789,0.09015446589226525,"(9.999988998241113e-10, -2.033580788617282e-21, -6.167186479320573e-20, 1.8392565890366443e-24, 2.473401238151897e-24, -1.4606943792832676e-24, -2.0335807886169507e-21, 9.999988998131287e-10, -4.315958169657118e-19, -5.157631192469191e-24, -6.34121670199739e-24, 6.818431644906498e-23, -6.16718647932058e-20, -4.3159581696571116e-19, 9.999981584613228e-10, 8.67985461237386e-24, 1.410095252357067e-23, -4.0200276688184274e-24, 1.8392565890366524e-24, -5.157631192469197e-24, 8.679854612373898e-24, 9.999962932872344e-10, 8.734864022524534e-20, -7.983568173742108e-19, 2.473401238151956e-24, -6.341216701997391e-24, 1.4100952523570776e-23, 8.734864022524536e-20, 9.999962935175633e-10, -2.1853897213708137e-18, -1.4606943792833295e-24, 6.818431644906512e-23, -4.020027668818455e-24, -7.983568173742107e-19, -2.185389721370813e-18, 9.999989044144697e-10)",-0.05027948306151687,0.009427204913673902,-0.021062661811666814,0.00020324457077764064,0.0036405951793469543,0.19037652553502396,"(0.1786918727166003, -2.4732055310828112e-05, -0.0005938867375124201, -4.00245513302629e-09, -7.186832935542859e-09, -1.0483628499421956e-07, -2.4732055310829918e-05, 0.17864727503027783, -0.0012074345417054193, 6.834231831241026e-09, -4.189284428195566e-09, -6.736725991243094e-07, -0.0005938867375124206, -0.0012074345417054197, 0.07779297038769868, 1.4909581136667536e-08, 2.3406587498859293e-08, 1.5906161691795294e-09, -4.0024551330263055e-09, 6.834231831241026e-09, 1.4909581136667603e-08, 0.0173957769383516, 1.388823951980699e-05, 0.000769472890684381, -7.186832935543009e-09, -4.189284428195575e-09, 2.3406587498859475e-08, 1.3888239519806988e-05, 0.017422018691749412, 0.0010816572329403254, -1.0483628499421919e-07, -6.736725991243109e-07, 1.5906161691794093e-09, 0.0007694728906843806, 0.0010816572329403252, 0.22671665196555668)"
2025/09/16/13:37:28.303389,138841,1758047848,302153826,odom,base_link,1.099519253001513,0.2931482202087204,-0.0032645343975564204,-0.00558962444941999,-0.020528298635492534,-0.9956222757820657,0.09101444401954382,"(9.999990155577424e-10, -2.0586769258675445e-21, -6.067709307605131e-20, 1.9302337319085233e-24, 3.0300512965290636e-24, -1.6876557979330836e-24, -2.0586769258681603e-21, 9.999990155457398e-10, -4.604499000413258e-19, -5.611506884902329e-24, -6.319456898277206e-24, 6.595970646900873e-23, -6.067709307605127e-20, -4.604499000413255e-19, 9.999983513843279e-10, 9.014228684567296e-24, 1.589899143037205e-23, -4.042779561095072e-24, 1.9302337319085318e-24, -5.611506884902333e-24, 9.01422868456733e-24, 9.999966791620257e-10, 9.437990472213965e-20, -8.248473658236636e-19, 3.0300512965291212e-24, -6.319456898277209e-24, 1.589899143037216e-23, 9.437990472213969e-20, 9.999966794163107e-10, -2.3012304022996e-18, -1.6876557979331443e-24, 6.595970646900883e-23, -4.042779561095097e-24, -8.248473658236636e-19, -2.3012304022995995e-18, 9.999990201206967e-10)",-0.04971542926430281,0.010309502982739506,-0.023977554252068878,0.0006523799102390268,0.0035243986690085653,0.18995974989512138,"(0.17867579962434169, -2.477165475226788e-05, -0.0005919371484329701, -3.917342448348669e-09, -7.037875838619781e-09, -1.0089340568982648e-07, -2.4771654752269526e-05, 0.1786306252715797, -0.001211661730335393, 6.677422196220274e-09, -4.135677126498556e-09, -6.482094751030383e-07, -0.0005919371484329705, -0.0012116617303353937, 0.07779093841841057, 1.4675195177863964e-08, 2.3019618803082672e-08, 1.6394325651797788e-09, -3.917342448348685e-09, 6.677422196220274e-09, 1.4675195177864028e-08, 0.017395557176665702, 1.391471304646762e-05, 0.0007667330089546207, -7.037875838619927e-09, -4.135677126498565e-09, 2.301961880308285e-08, 1.3914713046467619e-05, 0.017421757806808543, 0.0010864894647671056, -1.0089340568982614e-07, -6.482094751030398e-07, 1.6394325651796627e-09, 0.0007667330089546204, 0.0010864894647671054, 0.22667372517404416)"
2025/09/16/13:37:28.313377,138842,1758047848,313231230,odom,base_link,1.1000793832730251,0.2931240720781373,-0.003533993194611732,-0.0055914662538750996,-0.020524251779010908,-0.9955259998620949,0.09206233862236911,"(0.0011297106232213514, -2.6400875004443037e-09, -4.6915381053976055e-08, 7.183515592334248e-13, 1.1347859327993011e-12, -2.2025921958351834e-12, -2.6400875004441486e-09, 0.0011296949373347436, -3.587665354475066e-07, -2.0976521902700515e-12, -2.385700067849351e-12, 8.102881638859359e-11, -4.691538105397608e-08, -3.5876653544750646e-07, 0.0006742402132768765, 1.9998545619830844e-12, 3.465522931479579e-12, -3.0446714462753117e-12, 7.183515592334279e-13, -2.0976521902700527e-12, 1.9998545619830925e-12, 0.0003344610677437552, 1.1186846691735281e-08, -3.1908047441976777e-07, 1.1347859327993215e-12, -2.3857000678493526e-12, 3.4655229314796006e-12, 1.1186846691735281e-08, 0.0003344911210410659, -8.899755641522008e-07, -2.2025921958352578e-12, 8.102881638859375e-11, -3.0446714462753323e-12, -3.1908047441976777e-07, -8.899755641522008e-07, 0.0011355322897706177)",-0.049667175515494634,0.010386560697951226,-0.0240635143324706,0.0006523799102390268,0.0035243986690085653,0.18995974989512138,"(0.1821525078342562, -2.4861981019886594e-05, -0.0005950568700924469, -3.923825387129247e-09, -7.050123662038854e-09, -1.0108369409409654e-07, -2.4861981019888244e-05, 0.18210717711677635, -0.0012177730119102505, 6.689086915461849e-09, -4.141716941236201e-09, -6.493907918824282e-07, -0.0005950568700924474, -0.001217773011910251, 0.07890374892273574, 1.4721230599150549e-08, 2.306932864692344e-08, 1.6390743900845917e-09, -3.923825387129263e-09, 6.6890869154618486e-09, 1.4721230599150614e-08, 0.01750633121688787, 1.391471304646762e-05, 0.0007667330089546207, -7.050123662039e-09, -4.14171694123621e-09, 2.306932864692362e-08, 1.3914713046467619e-05, 0.01753253184703071, 0.0010864894647671056, -1.010836940940962e-07, -6.493907918824296e-07, 1.6390743900844751e-09, 0.0007667330089546204, 0.0010864894647671054, 0.23221242718515256)"
2025/09/16/13:37:28.333329,138843,1758047848,333200932,odom,base_link,1.1010882701222684,0.2930802053138552,-0.00402210490127791,-0.005594786147978581,-0.020516934565665446,-0.9953496534524281,0.0939511635697912,"(0.003279011884907137, -2.0838207994496818e-08, -3.729658477235634e-07, 3.1042880670734306e-08, 1.6217094874148314e-07, 5.0702489817567967e-08, -2.0838207994492944e-08, 0.003278888417891903, -2.852329203874607e-06, -1.5804301139502043e-07, 2.828439378162291e-08, 1.1970059245324267e-06, -3.729658477235634e-07, -2.8523292038746068e-06, 0.0019389630568651297, 7.836901662373146e-08, 3.326591717700119e-07, -2.7065179018832136e-09, 3.104288067073431e-08, -1.580430113950204e-07, 7.836901662373146e-08, 0.0009482591388687722, 8.993146070037694e-08, -2.58256472457922e-06, 1.621709487414832e-07, 2.8284393781622912e-08, 3.326591717700119e-07, 8.993146070037695e-08, 0.0009484965072909888, -7.089784102167004e-06, 5.070248981756796e-08, 1.1970059245324265e-06, -2.7065179018832136e-09, -2.58256472457922e-06, -7.089784102167005e-06, 0.0033252254992022874)",-0.04958018645461856,0.010525475879571011,-0.0242184781819469,0.0006523799102390268,0.0035243986690085653,0.18995974989512138,"(0.1884549003547521, -2.5025218242320546e-05, -0.0006006985358122294, -3.935512453319305e-09, -7.072203328040276e-09, -1.0142673499748547e-07, -2.5025218242322202e-05, 0.18840928695058132, -0.0012288322109935076, 6.7101153950571125e-09, -4.152605169091446e-09, -6.515204012863478e-07, -0.0006006985358122299, -0.0012288322109935078, 0.08093400430482213, 1.480422058777659e-08, 2.3158942671508236e-08, 1.638428692787924e-09, -3.935512453319321e-09, 6.710115395057111e-09, 1.4804220587776653e-08, 0.017706028234557546, 1.391471304646762e-05, 0.0007667330089546207, -7.0722033280404226e-09, -4.152605169091455e-09, 2.3158942671508415e-08, 1.3914713046467619e-05, 0.017732228864700387, 0.0010864894647671056, -1.0142673499748512e-07, -6.515204012863493e-07, 1.6384286927878063e-09, 0.0007667330089546204, 0.0010864894647671054, 0.24219727806863645)"
2025/09/16/13:37:28.343324,138844,1758047848,343204498,odom,base_link,1.1015932627296416,0.29305896035489337,-0.004267774037678987,-0.00559643324811656,-0.020513221262029254,-0.9952599687342633,0.09489721978766141,"(0.004411390972236055, -3.648755747234468e-08, -6.559593343631963e-07, 7.597971050063958e-08, 3.929895583768651e-07, 1.2110235974318086e-07, -3.6487557472334116e-08, 0.0044111749355968755, -5.019330237983639e-06, -3.8375609387459525e-07, 6.737339291109705e-08, 2.938536399507647e-06, -6.559593343631966e-07, -5.019330237983638e-06, 0.0025968323546490006, 1.9027066688017645e-07, 8.037610558456769e-07, -8.622347515520639e-09, 7.59797105006396e-08, -3.8375609387459525e-07, 1.9027066688017642e-07, 0.0012610136717004406, 1.5935205235936872e-07, -4.587649169534771e-06, 3.929895583768652e-07, 6.737339291109708e-08, 8.037610558456765e-07, 1.5935205235936912e-07, 0.0012614296777666337, -1.2480393291901829e-05, 1.2110235974318083e-07, 2.9385363995076467e-06, -8.62234751552064e-09, -4.587649169534772e-06, -1.248039329190183e-05, 0.004492689129033978)",-0.049536610396926396,0.010595063663455763,-0.02429610534077552,0.0006523799102390268,0.0035243986690085653,0.18995974989512138,"(0.1916288573123525, -2.51071843807701e-05, -0.0006035331736536723, -3.941366939681397e-09, -7.0832638543847605e-09, -1.0159857695147718e-07, -2.510718438077176e-05, 0.19158310191231212, -0.0012343925522909386, 6.720649343013249e-09, -4.158059487604684e-09, -6.525872018853241e-07, -0.0006035331736536728, -0.001234392552290939, 0.08196275937714559, 1.4845793361362372e-08, 2.3203833671204138e-08, 1.638105238983872e-09, -3.941366939681413e-09, 6.720649343013247e-09, 1.4845793361362435e-08, 0.01780606390197698, 1.391471304646762e-05, 0.0007667330089546207, -7.083263854384907e-09, -4.158059487604693e-09, 2.3203833671204316e-08, 1.3914713046467619e-05, 0.01783226453211982, 0.0010864894647671056, -1.0159857695147684e-07, -6.525872018853256e-07, 1.638105238983754e-09, 0.0007667330089546204, 0.0010864894647671054, 0.24719906143960813)"
2025/09/16/13:37:28.353406,138845,1758047848,352146626,odom,base_link,1.1009223457596045,0.2897735853726791,-0.015512764984184873,-0.0059819782005284435,-0.02259620317524297,-0.995159312733509,0.09545454320587118,"(9.99998899317229e-10, -2.2079441619972953e-21, -6.57681138362474e-20, 2.010569505475916e-24, 2.9202818616718993e-24, -1.2971439366443305e-24, -2.2079441619965028e-21, 9.999988993034855e-10, -5.031145237758648e-19, -6.117820381393195e-24, -7.73857680883307e-24, 7.288603820878294e-23, -6.576811383624735e-20, -5.03114523775865e-19, 9.999981576233564e-10, 9.028330527839912e-24, 1.443340631731392e-23, -4.983179996897004e-24, 2.010569505475932e-24, -6.117820381393224e-24, 9.02833052783994e-24, 9.999962916055934e-10, 1.0823598417761464e-19, -8.923857726297606e-19, 2.920281861672028e-24, -7.738576808833082e-24, 1.4433406317313968e-23, 1.0823598417761469e-19, 9.999962918943582e-10, -2.4760219083718108e-18, -1.2971439366444007e-24, 7.288603820878321e-23, -4.983179996897015e-24, -8.923857726297608e-19, -2.4760219083718116e-18, 9.999989039005217e-10)",-0.04699771041105885,0.014776161889021143,-0.038560472969424185,0.0029872043551108706,0.0028587028756458773,0.18902030218290497,"(0.1786884663813204, -2.5183772014152353e-05, -0.0005844432057125617, -4.171162985618182e-09, -8.203714381541145e-09, -1.2206144444599593e-07, -2.518377201415519e-05, 0.17864013996493458, -0.0012356993533338958, 7.89693260999905e-09, -4.509467894153229e-09, -7.188589124822537e-07, -0.0005844432057125622, -0.0012356993533338965, 0.07779195091082537, 1.519039930272205e-08, 2.381403153762221e-08, 9.335104607368843e-10, -4.171162985618208e-09, 7.896932609999103e-09, 1.5190399302722105e-08, 0.01739566102878844, 1.408385623520379e-05, 0.0007563118177402306, -8.203714381541501e-09, -4.5094678941532354e-09, 2.3814031537622288e-08, 1.4083856235203789e-05, 0.017421728433170275, 0.0011128636471998022, -1.2206144444599564e-07, -7.188589124822562e-07, 9.335104607369087e-10, 0.0007563118177402303, 0.001112863647199802, 0.22669296557408097)"
2025/09/16/13:37:28.363322,138846,1758047848,362152100,odom,base_link,1.101223468962838,0.2890862232519636,-0.017995542194428865,-0.0061155648420196185,-0.023020403429386847,-0.9950621507275801,0.09635339683692457,"(9.999990181354022e-10, -2.3345440958731194e-21, -6.886968973965755e-20, 2.1942900502500647e-24, 3.8820976720868286e-24, -1.5198064127722433e-24, -2.334544095873944e-21, 9.99999018120243e-10, -5.373254374384685e-19, -7.030571223268274e-24, -7.66267693122606e-24, 7.045470827697108e-23, -6.886968973965727e-20, -5.373254374384682e-19, 9.999983556891954e-10, 9.615359808164393e-24, 1.6088922141836853e-23, -5.020526035486783e-24, 2.1942900502500805e-24, -7.030571223268303e-24, 9.615359808164425e-24, 9.999966877670218e-10, 1.2004198200735836e-19, -9.450842296426284e-19, 3.882097672086952e-24, -7.662676931226072e-24, 1.60889221418369e-23, 1.200419820073584e-19, 9.999966880857068e-10, -2.610871397860397e-18, -1.5198064127723155e-24, 7.04547082769713e-23, -5.020526035486796e-24, -9.450842296426284e-19, -2.610871397860396e-18, 9.999990226898202e-10)",-0.04650359405877898,0.015623638905565281,-0.04141698465789895,0.003450604393924292,0.002665018792095531,0.1888234578352786,"(0.1786725127062479, -2.5440865951991385e-05, -0.0005841470943532981, -4.083876798006443e-09, -8.035638430987541e-09, -1.1745811857386376e-07, -2.544086595199361e-05, 0.17862314664002757, -0.001243533111526061, 7.708429673199811e-09, -4.463173987551112e-09, -6.916086408284533e-07, -0.0005841470943532988, -0.0012435331115260618, 0.07779020738113884, 1.4950711872502622e-08, 2.3420857468415006e-08, 1.0303470374601772e-09, -4.083876798006468e-09, 7.708429673199863e-09, 1.4950711872502672e-08, 0.017395457077826675, 1.4146191671956433e-05, 0.0007559424987017601, -8.03563843098789e-09, -4.463173987551119e-09, 2.3420857468415082e-08, 1.4146191671956432e-05, 0.017421544618111098, 0.00112103598301048, -1.1745811857386348e-07, -6.916086408284557e-07, 1.0303470374602014e-09, 0.0007559424987017598, 0.0011210359830104797, 0.22664652398505516)"
2025/09/16/13:37:28.373332,138847,1758047848,373205662,odom,base_link,1.1017573322218008,0.2889932598104152,-0.018454500569448837,-0.006123086486530411,-0.023031599061916555,-0.9949607059236533,0.09739223236190375,"(0.0011272314415859614, -3.0383966671526326e-09, -5.430538394896701e-08, 8.111033940915258e-13, 1.4296789121846857e-12, -2.009331921485146e-12, -3.038396667152502e-09, 0.0011272117168656657, -4.1585218758938527e-07, -2.6091231469399082e-12, -2.8788224290063526e-12, 8.618714015266155e-11, -5.4305383948966985e-08, -4.158521875893848e-07, 0.0006727719302755644, 2.1194458723209367e-12, 3.5006685708082585e-12, -3.760603438641523e-12, 8.111033940915317e-13, -2.609123146939918e-12, 2.1194458723209432e-12, 0.00033373783711798715, 1.4272884374946009e-08, -3.670032930646193e-07, 1.4296789121847317e-12, -2.8788224290063554e-12, 3.5006685708082673e-12, 1.427288437494601e-08, 0.00033377519043409283, -1.0037579742497801e-06, -2.0093319214852326e-12, 8.618714015266184e-11, -3.760603438641531e-12, -3.670032930646194e-07, -1.0037579742497803e-06, 0.0011330181198580468)",-0.04644968278677033,0.01571007514700528,-0.04157471410788122,0.003450604393924292,0.002665018792095531,0.1888234578352786,"(0.1821417330305733, -2.5533796567073117e-05, -0.0005872031310300702, -4.090645469430941e-09, -8.049741216239188e-09, -1.1767974439667857e-07, -2.553379656707535e-05, 0.18209219279559313, -0.0012498590777904747, 7.72203173689641e-09, -4.4698167077550895e-09, -6.928733466139504e-07, -0.0005872031310300708, -0.0012498590777904757, 0.07890062037050702, 1.4997326172457754e-08, 2.3472638053955004e-08, 1.0269729744244998e-09, -4.090645469430967e-09, 7.72203173689646e-09, 1.4997326172457804e-08, 0.01750599269946974, 1.4146191671956433e-05, 0.0007559424987017601, -8.049741216239539e-09, -4.469816707755096e-09, 2.347263805395508e-08, 1.4146191671956432e-05, 0.017532080239754163, 0.00112103598301048, -1.1767974439667829e-07, -6.928733466139528e-07, 1.026972974424524e-09, 0.0007559424987017598, 0.0011210359830104797, 0.23217330506720849)"
2025/09/16/13:37:28.383341,138848,1758047848,383244514,odom,base_link,1.102241979057019,0.28890885345829437,-0.01887281903343088,-0.006129912346554299,-0.023041742462074143,-0.9948676342970911,0.09833561159134639,"(0.0021893132005259604, -1.1062777883488213e-08, -1.989879383766108e-07, 2.786031314078446e-08, 1.3758453479474981e-07, 9.689679797701272e-08, -1.1062777883489668e-08, 0.0021892411362692057, -1.5247346094679815e-06, -1.353277340438502e-07, 2.6488076922242895e-08, 5.617350076771706e-07, -1.9898793837661078e-07, -1.5247346094679803e-06, 0.0013005263357952397, 5.958600769882357e-08, 1.54059816777859e-07, -1.025060118873853e-09, 2.7860313140784456e-08, -1.3532773404385017e-07, 5.958600769882357e-08, 0.0006405424678342323, 5.2800759155104336e-08, -1.371757181361089e-06, 1.375845347947499e-07, 2.6488076922242895e-08, 1.5405981677785903e-07, 5.280075915510421e-08, 0.0006406784882511366, -3.6886573849439762e-06, 9.689679797701272e-08, 5.617350076771706e-07, -1.0250601188738532e-09, -1.3717571813610894e-06, -3.688657384943977e-06, 0.002210518448586829)",-0.04640072053278655,0.0157885766003954,-0.04171796410186235,0.003450604393924292,0.002665018792095531,0.1888234578352786,"(0.18530435706083906, -2.5618339081294616e-05, -0.0005899845308501413, -4.096792781432147e-09, -8.062549375417088e-09, -1.1788102512001752e-07, -2.5618339081296855e-05, 0.18525465833829521, -0.0012556192959047396, 7.734385140416727e-09, -4.4758496307719715e-09, -6.940219532703531e-07, -0.000589984530850142, -0.0012556192959047407, 0.07991733842236234, 1.503966131144897e-08, 2.35196652170357e-08, 1.023908648075761e-09, -4.096792781432173e-09, 7.734385140416778e-09, 1.503966131144902e-08, 0.017606381226386244, 1.4146191671956433e-05, 0.0007559424987017601, -8.06254937541744e-09, -4.475849630771978e-09, 2.3519665217035775e-08, 1.4146191671956432e-05, 0.017632468766670666, 0.00112103598301048, -1.1788102512001724e-07, -6.940219532703555e-07, 1.023908648075785e-09, 0.0007559424987017598, 0.0011210359830104797, 0.23719273141303368)"
2025/09/16/13:37:28.403397,138849,1758047848,403240919,odom,base_link,1.1032066089240695,0.2887397541263607,-0.019710270969504333,-0.0061434843686860845,-0.023061939063081637,-0.9946795793229123,0.10021446524557504,"(0.004416275775018924, -4.205962006019103e-08, -7.669883355374284e-07, 1.3811644198924584e-07, 6.697049940767224e-07, 4.840127214868027e-07, -4.205962006020354e-08, 0.004416000333319103, -5.878081701752438e-06, -6.609107379470233e-07, 1.273810956368706e-07, 2.8135233758053636e-06, -7.669883355374273e-07, -5.878081701752434e-06, 0.0025995043479708005, 2.9272406738850365e-07, 7.466391087838944e-07, -9.612239587036704e-09, 1.381164419892458e-07, -6.609107379470229e-07, 2.927240673885038e-07, 0.0012622542334761026, 2.0551331142677274e-07, -5.345336153288631e-06, 6.697049940767224e-07, 1.2738109563687062e-07, 7.466391087838945e-07, 2.055133114267723e-07, 0.0012627763120289849, -1.4215686292220717e-05, 4.840127214868026e-07, 2.8135233758053623e-06, -9.612239587036706e-09, -5.345336153288632e-06, -1.4215686292220717e-05, 0.004498082639396234)",-0.04630319255093423,0.01594494375465566,-0.042003303964238056,0.003450604393924292,0.002665018792095531,0.1888234578352786,"(0.19163775204530967, -2.5787144663950868e-05, -0.00059554155481796, -4.1090376207627216e-09, -8.088061965508993e-09, -1.1828195647296391e-07, -2.5787144663953118e-05, 0.19158773675931143, -0.0012671355473407825, 7.758991902081396e-09, -4.487866618525472e-09, -6.96309864467787e-07, -0.0005955415548179608, -0.0012671355473407836, 0.08196602576787221, 1.5123988733724473e-08, 2.3613338688625047e-08, 1.0178048121570065e-09, -4.109037620762748e-09, 7.758991902081445e-09, 1.5123988733724523e-08, 0.017806345272864517, 1.4146191671956433e-05, 0.0007559424987017601, -8.088061965509347e-09, -4.487866618525479e-09, 2.361333868862512e-08, 1.4146191671956432e-05, 0.01783243281314894, 0.00112103598301048, -1.1828195647296364e-07, -6.963098644677894e-07, 1.0178048121570305e-09, 0.0007559424987017598, 0.0011210359830104797, 0.24719093373694725)"
2025/09/16/13:37:28.413515,138850,1758047848,412156105,odom,base_link,1.1090346568965812,0.3040295561201723,0.01946380817409277,-0.009798758438937896,-0.026560074761226696,-0.9944616594346563,0.10121538754657441,"(9.999988959375675e-10, -4.945207080847027e-21, -1.6764160580736944e-19, 2.3738345243485747e-24, 2.9097250024155963e-24, 5.546942560622892e-25, -4.945207080847525e-21, 9.999988959182513e-10, -6.414684066670824e-19, -8.466525737283396e-24, -9.3904503701523e-24, 7.564406216843346e-23, -1.6764160580736927e-19, -6.414684066670825e-19, 9.999981520098443e-10, 9.505722074613969e-24, 1.4830978269507373e-23, -6.4424602112796666e-24, 2.3738345243485835e-24, -8.46652573728327e-24, 9.505722074614044e-24, 9.999962804051227e-10, 2.0740177689500165e-19, -1.4888560460060057e-18, 2.90972500241578e-24, -9.390450370152233e-24, 1.4830978269507456e-23, 2.074017768950017e-19, 9.999962807596432e-10, -2.9649426947075415e-18, 5.546942560622157e-25, 7.564406216843323e-23, -6.442460211279667e-24, -1.4888560460060057e-18, -2.9649426947075422e-18, 9.9999890051319e-10)",-0.058908907517015406,-0.003485709538519254,0.008126383043035684,0.0070099794413247,-0.0018490308365175464,0.19099885330697608,"(0.17868660206986928, -2.7486258423114766e-05, -0.0005901931809069973, -5.251886714167632e-09, -1.0487293404863563e-08, -1.5467881686572924e-07, -2.7486258423115705e-05, 0.17863195124298634, -0.0012865962032342208, 1.0163339214360542e-08, -5.840362635984535e-09, -7.408404784413993e-07, -0.0005901931809069981, -0.0012865962032342212, 0.07779304407271882, 1.6062949371213536e-08, 2.3753325233975738e-08, 1.6614003559773995e-10, -5.2518867141677e-09, 1.0163339214360241e-08, 1.606294937121369e-08, 0.017395700806819105, 1.4581329713920982e-05, 0.000764649288422571, -1.0487293404864089e-08, -5.840362635984529e-09, 2.375332523397591e-08, 1.4581329713920979e-05, 0.01742194990335324, 0.0011649593099430343, -1.5467881686572802e-07, -7.408404784413971e-07, 1.6614003559759354e-10, 0.0007646492884225707, 0.0011649593099430338, 0.22664702623738786)"
2025/09/16/13:37:28.423301,138851,1758047848,422139406,odom,base_link,1.1094213725944295,0.3033849902898754,0.01706690001931773,-0.009977013316757686,-0.026892873350066918,-0.9943593702071832,0.10211109366483347,"(9.999990159151346e-10, -5.4331513584349886e-21, -1.7840034352336687e-19, 2.3435788932020935e-24, 2.8286194502865146e-24, 8.42286334885714e-26, -5.4331513584349525e-21, 9.999990158943612e-10, -6.699586478052699e-19, -8.352868681216702e-24, -9.362893258531187e-24, 7.318192492237731e-23, -1.7840034352336656e-19, -6.699586478052696e-19, 9.9999835200903e-10, 9.288644690240062e-24, 1.698764714173949e-23, -6.394744227797192e-24, 2.343578893202101e-24, -8.352868681216575e-24, 9.288644690240138e-24, 9.99996680439957e-10, 2.269648076968272e-19, -1.576119605209849e-18, 2.8286194502866945e-24, -9.362893258531112e-24, 1.6987647141739564e-23, 2.2696480769682717e-19, 9.999966808140944e-10, -3.0689006125690653e-18, 8.422863348850393e-26, 7.318192492237704e-23, -6.394744227797195e-24, -1.5761196052098487e-18, -3.0689006125690657e-18, 9.999990204618677e-10)",-0.05843863966277945,-0.002442124768457875,0.004967205105992254,0.007344154731264934,-0.0020549292419867553,0.19076036622486692,"(0.1786700504540827, -2.86253189714418e-05, -0.0005975445441467975, -5.1511416596921395e-09, -1.027823643336213e-08, -1.488531690071028e-07, -2.862531897144244e-05, 0.1786140453203402, -0.0012994806345368167, 9.88995694771267e-09, -5.7845681510314246e-09, -7.127681238230092e-07, -0.0005975445441467982, -0.0012994806345368172, 0.07779184417469673, 1.581045291635019e-08, 2.336342473121224e-08, 3.363906735508718e-10, -5.151141659692206e-09, 9.889956947712376e-09, 1.5810452916350344e-08, 0.017395572300858954, 1.4774261691562984e-05, 0.0007750221303035138, -1.0278236433362643e-08, -5.784568151031419e-09, 2.336342473121241e-08, 1.477426169156298e-05, 0.017421881147295253, 0.0011778247167941096, -1.4885316900710162e-07, -7.12768123823007e-07, 3.3639067355072975e-10, 0.0007750221303035135, 0.0011778247167941092, 0.22658935529615856)"
