time,.header.seq,.header.stamp.secs,.header.stamp.nsecs,.header.frame_id,.child_frame_id,.pose.pose.position.x,.pose.pose.position.y,.pose.pose.position.z,.pose.pose.orientation.x,.pose.pose.orientation.y,.pose.pose.orientation.z,.pose.pose.orientation.w,.pose.covariance,.twist.twist.linear.x,.twist.twist.linear.y,.twist.twist.linear.z,.twist.twist.angular.x,.twist.twist.angular.y,.twist.twist.angular.z,.twist.covariance
2025/09/16/13:27:14.793320,86590,1758047234,793213606,odom,base_link,-2.8848580045128793,0.3393651310285058,0.07784817612851369,-0.02104384271207443,0.011882784131942594,-0.013594550646863652,0.9996154982381441,"(0.004137625270853172, -9.817605981069814e-08, -1.9150886345043473e-06, 2.3203719662456097e-08, -5.048249301218111e-07, -1.8103794237846412e-06, -9.817605981069823e-08, 0.004137460542412496, -5.0579181624213e-06, 4.82372430613238e-07, 2.3229258035823464e-08, 3.2634085378512113e-06, -1.915088634504347e-06, -5.057918162421299e-06, 0.0024385692096844675, 5.340808214412347e-07, -9.04978693705983e-07, -6.673375548293738e-09, 2.3203719662456107e-08, 4.823724306132381e-07, 5.340808214412347e-07, 0.001186215639989884, 2.1188886261228163e-07, 5.63285431815008e-06, -5.04824930121811e-07, 2.3229258035823454e-08, -9.049786937059832e-07, 2.1188886261228145e-07, 0.00118655554610327, 1.2061442459782505e-05, -1.8103794237846412e-06, 3.263408537851211e-06, -6.6733755482937375e-09, 5.632854318150079e-06, 1.2061442459782504e-05, 0.00420888691941507)",0.08020153623168476,0.04836022013696784,-0.03989698711714253,-0.014058534693355844,-0.0074749056181763985,-0.055506789452982055,"(0.1909120977622509, -3.119047877279806e-05, 0.0012102012738907336, 1.5914503070218417e-09, -1.0453365745257715e-08, -4.0986991698059825e-07, -3.119047877279776e-05, 0.1909003689200661, 0.0008726089345693772, 9.637996826338656e-09, -2.062463730048489e-09, 1.5706560512588043e-06, 0.001210201273890734, 0.0008726089345693773, 0.08173381443776101, 1.656533393277764e-08, -5.064940703282805e-08, -9.458795385729326e-09, 1.5914503070218738e-09, 9.637996826338657e-09, 1.6565333932777285e-08, 0.017812744096882334, 1.6548786027221367e-05, -0.0015244290290224477, -1.0453365745257973e-08, -2.0624637300484854e-09, -5.064940703282955e-08, 1.654878602722136e-05, 0.01778538013073721, -0.0008014540154782751, -4.098699169805985e-07, 1.5706560512588022e-06, -9.458795385729606e-09, -0.0015244290290224477, -0.0008014540154782751, 0.24588549704830875)"
2025/09/16/13:27:14.813349,86591,1758047234,807871819,odom,base_link,-2.8738412848434316,0.3138392257895939,0.0968938933348383,-0.010519936164655087,0.014615231610625437,-0.012622621118524429,0.9997581684508297,"(9.999985162398831e-10, -4.4292510371590726e-21, -2.9367928795441364e-19, -3.309124285193165e-24, -8.326297966797423e-24, -4.292849937090618e-23, -4.429251037159129e-21, 9.999985162394462e-10, -2.0707174374647577e-19, 1.8949724532108434e-23, 1.0128139626230347e-23, 1.5192527182679285e-22, -2.936792879544136e-19, -2.0707174374647587e-19, 9.999975190858233e-10, 9.145130582235844e-24, -3.563051319516043e-23, -4.7347132910808635e-24, -3.309124285193143e-24, 1.8949724532108457e-23, 9.145130582235707e-24, 9.99995014613081e-10, 1.0188731101221181e-19, 1.6616558723299812e-18, -8.32629796679746e-24, 1.0128139626230325e-23, -3.563051319516122e-23, 1.0188731101221182e-19, 9.999950145422648e-10, 1.2354154455504558e-18, -4.292849937090606e-23, 1.5192527182679252e-22, -4.734713291080916e-24, 1.6616558723299808e-18, 1.2354154455504552e-18, 9.999985208998448e-10)",0.09760243484486499,0.0020668524745211915,-0.015586197724376936,-0.0019966366961750403,-0.004174303003186463,-0.045276835157110985,"(0.17876074789438837, -3.235074547381156e-05, 0.0011467295547852715, 1.6412165889457047e-09, -1.1360221902868606e-08, -4.6697397419965654e-07, -3.2350745473811465e-05, 0.17874318016421933, 0.0009188814630775536, 1.0880999242529127e-08, -2.235638176460983e-09, 1.4944368265609823e-06, 0.0011467295547852722, 0.0009188814630775535, 0.07781244844226749, 1.754262415803958e-08, -4.9351541878023554e-08, -9.911243427683141e-09, 1.6412165889457413e-09, 1.0880999242529282e-08, 1.7542624158039334e-08, 0.017425600853050383, 1.7187277122167556e-05, -0.0014687704229178198, -1.1360221902868696e-08, -2.2356381764609633e-09, -4.9351541878025016e-08, 1.718727712216755e-05, 0.01740033776895029, -0.0008579547056499746, -4.6697397419965516e-07, 1.4944368265609796e-06, -9.911243427683508e-09, -0.00146877042291782, -0.0008579547056499746, 0.22667306239901952)"
2025/09/16/13:27:14.823365,86592,1758047234,823277473,odom,base_link,-2.872342901167452,0.31382746543985307,0.09660934847723329,-0.010540828303091658,0.014579618805756383,-0.012970733716938961,0.9997540126056047,"(0.0015831042005225217, -1.0392360928355434e-08, -4.282341892214499e-07, -2.3711569094298852e-12, -5.529407957820586e-12, -1.0204998133880117e-10, -1.0392360928355151e-08, 0.0015831037449062558, -2.8316843243317767e-07, 1.3266141816615e-11, 6.9638564523384615e-12, 3.593638598883991e-10, -4.282341892214494e-07, -2.831684324331777e-07, 0.0009429240863771241, 3.9426788102832695e-12, -1.3295765189296443e-11, -6.499813275005401e-12, -2.371156909429869e-12, 1.3266141816615015e-11, 3.942678810283208e-12, 0.0004663312965955204, 2.1523545993179852e-08, 1.2100116934907355e-06, -5.529407957820611e-12, 6.963856452338445e-12, -1.3295765189296793e-11, 2.1523545993179852e-08, 0.0004663144149991477, 8.602023928758383e-07, -1.0204998133880087e-10, 3.593638598883983e-10, -6.4998132750054775e-12, 1.2100116934907358e-06, 8.602023928758383e-07, 0.0015943949136251738)",0.09788504283774258,0.0020476732660652756,-0.015625400867972587,-0.0019966366961750403,-0.004174303003186463,-0.045276835157110985,"(0.18359990101337598, -3.252589140410235e-05, 0.0011548783167505195, 1.6447257973443762e-09, -1.1386546454220464e-08, -4.6820403690806273e-07, -3.2525891404102263e-05, 0.18358222567538396, 0.0009261539744539157, 1.090690755887364e-08, -2.2412941851142437e-09, 1.498264441307138e-06, 0.0011548783167505204, 0.0009261539744539155, 0.07936284193481964, 1.7617971586194786e-08, -4.9577012106179086e-08, -9.968313699157539e-09, 1.6447257973444132e-09, 1.0906907558873796e-08, 1.7617971586194538e-08, 0.01757965740212265, 1.7187277122167556e-05, -0.0014687704229178198, -1.1386546454220553e-08, -2.241294185114224e-09, -4.9577012106180555e-08, 1.718727712216755e-05, 0.017554394318022557, -0.0008579547056499746, -4.6820403690806135e-07, 1.4982644413071352e-06, -9.96831369915791e-09, -0.00146877042291782, -0.0008579547056499746, 0.2343758898526328)"
2025/09/16/13:27:14.843364,86593,1758047234,843229055,odom,base_link,-2.870395926441899,0.31381023978887596,0.09623991719464717,-0.010567888642884896,0.014533498095708551,-0.013421566022677831,0.9997484477248427,"(0.003762126767917871, -5.5338954825533724e-08, -2.2828500359900963e-06, 4.510939339510207e-09, -1.741831996565434e-07, 2.7428158015889077e-08, -5.533895482553206e-08, 0.003762130547265718, -1.5163172764473253e-06, 1.5307178390727678e-07, 8.611374465689392e-09, 3.242736449064423e-06, -2.282850035990096e-06, -1.5163172764473253e-06, 0.0022203324705390177, 1.6725893885682064e-08, -9.182956147205961e-07, -3.761081103753346e-09, 4.510939339510207e-09, 1.5307178390727678e-07, 1.6725893885682067e-08, 0.001082694662974763, 1.1487617919305223e-07, 6.399268616753282e-06, -1.7418319965654336e-07, 8.611374465689392e-09, -9.182956147205958e-07, 1.1487617919305219e-07, 0.0010826083729816298, 4.5932086289191975e-06, 2.7428158015889087e-08, 3.2427364490644235e-06, -3.761081103753346e-09, 6.399268616753282e-06, 4.5932086289191975e-06, 0.003822326062486718)",0.09825104328140939,0.0020228346239144707,-0.015676172142355324,-0.0019966366961750403,-0.004174303003186463,-0.045276835157110985,"(0.1899065886637563, -3.2753460290453155e-05, 0.0011654774415966206, 1.6492705089703827e-09, -1.1420638899292545e-08, -4.6979706862818705e-07, -3.275346029045307e-05, 0.18988877352465908, 0.0009356127732369743, 1.0940460945599187e-08, -2.2486191784925213e-09, 1.5032215151712356e-06, 0.0011654774415966215, 0.0009356127732369742, 0.08139821716211859, 1.7715552662558413e-08, -4.986901447560368e-08, -1.004222436412894e-08, 1.6492705089704201e-09, 1.0940460945599342e-08, 1.7715552662558165e-08, 0.01777917322167221, 1.7187277122167556e-05, -0.0014687704229178198, -1.1420638899292634e-08, -2.2486191784925015e-09, -4.9869014475605154e-08, 1.718727712216755e-05, 0.017753910137572118, -0.0008579547056499746, -4.6979706862818567e-07, 1.5032215151712329e-06, -1.0042224364129315e-08, -0.00146877042291782, -0.0008579547056499746, 0.24435168083011083)"
2025/09/16/13:27:14.853393,86594,1758047234,851233006,odom,base_link,-2.8732919687370098,0.3188889592676456,0.09178042893008065,-0.007753928922551211,0.01518500020965122,-0.013385984277200945,0.9997650262835901,"(9.999987682708097e-10, -3.8400647529822235e-21, -3.028767411860317e-19, -2.744873518610842e-24, -6.714926600607e-24, -3.614226633909572e-23, -3.840064752982222e-21, 9.999987682717614e-10, -1.5168973525897198e-19, 1.836938373577613e-23, 8.396801346138419e-24, 1.4867166460164122e-22, -3.028767411860315e-19, -1.5168973525897176e-19, 9.999979391659103e-10, 8.918311940920199e-24, -2.9499128845867575e-23, -3.9579105187994394e-24, -2.74487351861082e-24, 1.836938373577618e-23, 8.918311940920067e-24, 9.999958548051207e-10, 8.735536644097755e-20, 1.7036101784928658e-18, -6.714926600607027e-24, 8.396801346138419e-24, -2.949912884586837e-23, 8.735536644097751e-20, 9.999958547030964e-10, 1.0030116248544737e-18, -3.614226633909561e-23, 1.4867166460164143e-22, -3.9579105187994886e-24, 1.703610178492865e-18, 1.0030116248544745e-18, 9.999987729127477e-10)",0.09218331324116774,0.01082753151563535,-0.021197537157843057,0.0012232516520745036,-0.0033713259387552377,-0.04318105147141183,"(0.17879346391744672, -3.159214149943717e-05, 0.0011330711267247115, 1.6068131503260733e-09, -1.1020275036047972e-08, -3.9971596589726106e-07, -3.159214149943725e-05, 0.1787805303101289, 0.0009010242322069326, 1.0454286865011227e-08, -1.977670461793273e-09, 1.4739271078418544e-06, 0.0011330711267247121, 0.0009010242322069324, 0.07781460095596773, 1.6771085391095036e-08, -4.933588208970896e-08, -8.890607019642862e-09, 1.6068131503261086e-09, 1.0454286865011335e-08, 1.677108539109481e-08, 0.017425585170926006, 1.7202814875153813e-05, -0.0014526670514979274, -1.102027503604804e-08, -1.9776704617932736e-09, -4.933588208971037e-08, 1.7202814875153806e-05, 0.01740082040312403, -0.0008362466320388423, -3.997159658972599e-07, 1.4739271078418558e-06, -8.890607019643106e-09, -0.0014526670514979276, -0.0008362466320388423, 0.22678754717460986)"
2025/09/16/13:27:14.863350,86595,1758047234,861212492,odom,base_link,-2.8731610767257547,0.3200504769169196,0.09058231273128178,-0.007052827904880837,0.015369860954966117,-0.013558230577011634,0.9997650720926341,"(9.999990155404317e-10, -3.3385294782297297e-21, -3.117369398926458e-19, -2.668093787739302e-24, -6.736372240421485e-24, -3.473554470188956e-23, -3.3385294782297485e-21, 9.999990155421541e-10, -1.0535563705823182e-19, 1.850623857345226e-23, 6.80833785041395e-24, 1.4361420702945777e-22, -3.1173693989264586e-19, -1.0535563705823186e-19, 9.999983513385922e-10, 9.298696747126068e-24, -3.1930790773826953e-23, -3.136809434225897e-24, -2.6680937877392817e-24, 1.850623857345231e-23, 9.298696747125938e-24, 9.999966792144143e-10, 7.478055537333201e-20, 1.7469301238659424e-18, -6.736372240421516e-24, 6.808337850413945e-24, -3.1930790773827723e-23, 7.478055537333196e-20, 9.999966790882906e-10, 8.094586149991086e-19, -3.4735544701889456e-23, 1.4361420702945798e-22, -3.1368094342259412e-24, 1.746930123865942e-18, 8.094586149991086e-19, 9.999990201393272e-10)",0.09098781445442566,0.012728545816408468,-0.02248056600096458,0.0020241164408380885,-0.003127392956029496,-0.042668148076343324,"(0.17877303206182502, -3.123118415665284e-05, 0.0011312205027589257, 1.5855837981778133e-09, -1.0795869880058778e-08, -3.846187712063473e-07, -3.1231184156652905e-05, 0.1787614691723768, 0.000892678537263298, 1.0186564984231293e-08, -1.9094978926272646e-09, 1.4182062584862281e-06, 0.0011312205027589263, 0.0008926785372632979, 0.07781178377536109, 1.650562980100204e-08, -4.8565693023793894e-08, -8.64279589032077e-09, 1.585583798177848e-09, 1.0186564984231397e-08, 1.650562980100182e-08, 0.017425246236571185, 1.7169928538790248e-05, -0.0014507765334137062, -1.0795869880058844e-08, -1.909497892627266e-09, -4.856569302379527e-08, 1.716992853879024e-05, 0.017400527595377743, -0.0008271947568876459, -3.846187712063462e-07, 1.4182062584862296e-06, -8.642795890321005e-09, -0.0014507765334137064, -0.0008271947568876459, 0.22674275176620382)"
2025/09/16/13:27:14.873383,86596,1758047234,873249292,odom,base_link,-2.872069822154947,0.32016999388516654,0.09027578977334022,-0.007044856468607629,0.015349065639968983,-0.013815018271483372,0.9997619323876435,"(0.001229634117806372, -4.5960355995545765e-09, -2.847129308523884e-07, -1.1785251996495003e-12, -2.8278560108127367e-12, -5.0357612157530744e-11, -4.596035599554666e-09, 0.0012296372376784338, -7.494035335784268e-08, 8.105887724892339e-12, 2.686625462540264e-12, 2.0829292315794825e-10, -2.847129308523881e-07, -7.494035335784284e-08, 0.0007335382637468832, 2.4418660989411827e-12, -8.124106552644959e-12, -2.4369766573405608e-12, -1.1785251996494904e-12, 8.105887724892362e-12, 2.4418660989411488e-12, 0.0003636474973698495, 9.234344347513659e-09, 7.938697497242312e-07, -2.8278560108127496e-12, 2.6866254625402645e-12, -8.124106552645158e-12, 9.234344347513655e-09, 0.00036362901162956816, 3.2088426924576007e-07, -5.0357612157530576e-11, 2.0829292315794846e-10, -2.4369766573405995e-12, 7.938697497242313e-07, 3.208842692457602e-07, 0.0012365603668825274)",0.09119238668419184,0.012736527963623307,-0.02254241265909227,0.0020241164408380885,-0.003127392956029496,-0.042668148076343324,"(0.18255170222725225, -3.136246222677133e-05, 0.0011374995568071116, 1.5882026298428747e-09, -1.0815153803746371e-08, -3.853997803134551e-07, -3.136246222677141e-05, 0.18254008295945445, 0.0008981373846065375, 1.020525559915358e-08, -1.9131936296571807e-09, 1.4210323003337747e-06, 0.0011374995568071123, 0.0008981373846065373, 0.07902153890573389, 1.655921485770204e-08, -4.87362633121311e-08, -8.681279635976652e-09, 1.5882026298429096e-09, 1.0205255599153687e-08, 1.6559214857701815e-08, 0.0175456142404164, 1.7169928538790248e-05, -0.0014507765334137062, -1.0815153803746437e-08, -1.913193629657182e-09, -4.8736263312132476e-08, 1.716992853879024e-05, 0.017520895599222958, -0.0008271947568876459, -3.85399780313454e-07, 1.4210323003337762e-06, -8.681279635976887e-09, -0.0014507765334137064, -0.0008271947568876459, 0.23276115195846456)"
2025/09/16/13:27:14.893338,86597,1758047234,893206596,odom,base_link,-2.8702549948487945,0.3203672687050949,0.08976584282986252,-0.007031644930739731,0.01531458312735448,-0.014240776399158366,0.9997565802737947,"(0.003384628926170425, -3.3222472551706046e-08, -2.0351936138731995e-06, 7.156750589926647e-09, -1.8767246859963246e-07, -2.5543961410795297e-07, -3.3222472551706456e-08, 0.003384655460143919, -5.380677772605926e-07, 1.7094686238798077e-07, 6.943054995101796e-09, 2.3455033409988713e-06, -2.0351936138732004e-06, -5.380677772605936e-07, 0.00200050482410525, 9.162595114326426e-08, -6.652068975745139e-07, -1.0270674146560292e-09, 7.156750589926645e-09, 1.7094686238798083e-07, 9.162595114326422e-08, 0.0009778353659805404, 6.594019941189677e-08, 5.647122274479197e-06, -1.8767246859963246e-07, 6.943054995101795e-09, -6.65206897574514e-07, 6.594019941189677e-08, 0.000977705079412113, 2.2922434256738513e-06, -2.55439614107953e-07, 2.345503340998871e-06, -1.02706741465603e-09, 5.647122274479195e-06, 2.2922434256738513e-06, 0.0034341047671051276)",0.09153157235223917,0.012749762555330169,-0.02264495590299939,0.0020241164408380885,-0.003127392956029496,-0.042668148076343324,"(0.18885265394026374, -3.158076505616262e-05, 0.0011479513915749846, 1.5925447156129354e-09, -1.084712701216291e-08, -3.866947121624564e-07, -3.15807650561627e-05, 0.18884094093725032, 0.0009072231302374291, 1.0236245087393885e-08, -1.9193212503750664e-09, 1.4257179455608194e-06, 0.0011479513915749852, 0.000907223130237429, 0.08105221180407746, 1.6648060168108624e-08, -4.90190729450163e-08, -8.74508661014012e-09, 1.5925447156129708e-09, 1.0236245087393991e-08, 1.66480601681084e-08, 0.017745187280424946, 1.7169928538790248e-05, -0.0014507765334137062, -1.0847127012162976e-08, -1.919321250375068e-09, -4.901907294501768e-08, 1.716992853879024e-05, 0.017720468639231504, -0.0008271947568876459, -3.866947121624553e-07, 1.4257179455608209e-06, -8.745086610140357e-09, -0.0014507765334137064, -0.0008271947568876459, 0.2427398039588918)"
2025/09/16/13:27:14.913439,86598,1758047234,911197901,odom,base_link,-2.872500180479472,0.32586210868772214,0.0844645590006519,-0.0034573868894568847,0.01637389278452288,-0.014453006030205134,0.9997554964728468,"(9.999992666681623e-10, -1.993246401621827e-21, -3.386611815520522e-19, -2.3743131845108818e-24, -5.6444205234153804e-24, -2.9923336841036265e-23, -1.9932464016219274e-21, 9.999992666715817e-10, -3.146222023991395e-21, 1.7855767077406328e-23, 3.564937367110839e-24, 1.311357832426756e-22, -3.386611815520522e-19, -3.1462220239914443e-21, 9.99998769976135e-10, 9.30265288932075e-24, -2.934430621573563e-23, -1.3779534573329306e-24, -2.3743131845108682e-24, 1.7855767077406378e-23, 9.302652889320612e-24, 9.999975165977912e-10, 4.373947387480516e-20, 1.8767022647320335e-18, -5.644420523415417e-24, 3.564937367110837e-24, -2.934430621573636e-23, 4.3739473874805137e-20, 9.999975164246936e-10, 3.731738074989292e-19, -2.99233368410362e-23, 1.3113578324267576e-22, -1.3779534573329787e-24, 1.8767022647320327e-18, 3.731738074989292e-19, 9.999992712037495e-10)",0.08532860043600453,0.02179512259573694,-0.028923138863661043,0.006068060455095033,-0.001832433563558462,-0.04040139889387617,"(0.17878055400040144, -2.8930025681357742e-05, 0.0011262637856256285, 1.567730530634107e-09, -1.040310618040931e-08, -3.3504098533356336e-07, -2.893002568135776e-05, 0.17877614861443883, 0.0008403262421032649, 9.565670872109775e-09, -1.4356071470937424e-09, 1.2968867458299817e-06, 0.0011262637856256292, 0.0008403262421032649, 0.07781048544930116, 1.576384529152637e-08, -4.685800206065408e-08, -7.3956667849744645e-09, 1.567730530634132e-09, 9.565670872109864e-09, 1.5763845291526134e-08, 0.01742504753765703, 1.6896661505699917e-05, -0.0014470416179522, -1.0403106180409382e-08, -1.435607147093756e-09, -4.685800206065544e-08, 1.689666150569991e-05, 0.017400363268940813, -0.0007723123250909985, -3.3504098533356273e-07, 1.2968867458299838e-06, -7.395666784974725e-09, -0.0014470416179522, -0.0007723123250909984, 0.2267929502885081)"
2025/09/16/13:27:14.923333,86599,1758047234,921200752,odom,base_link,-2.8723666660895524,0.3270400752868292,0.08320810800030917,-0.0027083628048842202,0.016607067893030684,-0.014639514128790358,0.9997512464073183,"(9.9999901787821e-10, -1.5775817836384183e-21, -3.4981042913513025e-19, -2.287440148345842e-24, -5.660667056726567e-24, -2.880617342849634e-23, -1.5775817836384423e-21, 9.999990178819919e-10, 2.5792249015609635e-20, 1.77332842807142e-23, 2.6760021979764866e-24, 1.2644278194796347e-22, -3.498104291351301e-19, 2.5792249015609677e-20, 9.99998355239884e-10, 9.618853179727847e-24, -3.00329896695742e-23, -9.347205648718712e-25, -2.2874401483458274e-24, 1.7733284280714242e-23, 9.618853179727714e-24, 9.999966870463105e-10, 3.411854459427634e-20, 1.9320307454255815e-18, -5.660667056726603e-24, 2.676002197976484e-24, -3.003298966957494e-23, 3.411854459427633e-20, 9.999966868611438e-10, 2.5132081751468893e-19, -2.880617342849628e-23, 1.2644278194796368e-22, -9.347205648719173e-25, 1.9320307454255796e-18, 2.513208175146891e-19, 9.999990224852092e-10)",0.08424737995227456,0.02352559632791962,-0.03021768364156607,0.006895544539480464,-0.001540464821691218,-0.03998928007743916,"(0.1787603252001857, -2.825619949778893e-05, 0.00112684859309915, 1.5506345447121417e-09, -1.0200207869051721e-08, -3.223507647056878e-07, -2.8256199497788943e-05, 0.17875752587055938, 0.0008257052591877677, 9.301442689643701e-09, -1.3431004578003647e-09, 1.2477186794474812e-06, 0.0011268485930991507, 0.0008257052591877677, 0.0778076863693454, 1.5512244241652927e-08, -4.6121105221674786e-08, -7.262687982549987e-09, 1.550634544712166e-09, 9.30144268964379e-09, 1.5512244241652698e-08, 0.017424756471078693, 1.6802768737892207e-05, -0.0014484774006620262, -1.020020786905179e-08, -1.3431004578003779e-09, -4.6121105221676136e-08, 1.68027687378922e-05, 0.01740001213722897, -0.0007573962914282405, -3.223507647056872e-07, 1.2477186794474833e-06, -7.2626879825502396e-09, -0.0014484774006620262, -0.0007573962914282405, 0.22674679329069888)"
2025/09/16/13:27:14.933299,86600,1758047234,933208704,odom,base_link,-2.8713587419596105,0.32729110185832383,0.0828096681250718,-0.002671097682597938,0.016596556448149575,-0.014880210845217824,0.999747967678072,"(0.0012266215739041202, -1.840670228904161e-09, -3.1834791323022386e-07, -1.0097668261636598e-12, -2.342654737355788e-12, -4.153033236078081e-11, -1.8406702289041348e-09, 0.0012266274857952702, 4.289678307305367e-08, 7.725533558672807e-12, 8.996037285251761e-13, 1.8250123104344733e-10, -3.183479132302238e-07, 4.289678307305367e-08, 0.0007317537554449215, 2.4888128740717667e-12, -7.618055790016724e-12, -5.313396938969148e-13, -1.009766826163654e-12, 7.72553355867283e-12, 2.488812874071732e-12, 0.0003627741297154475, 3.477771483388561e-09, 8.752856725727677e-07, -2.3426547373558046e-12, 8.996037285251757e-13, -7.61805579001692e-12, 3.477771483388561e-09, 0.000362748252223802, 6.907656856307001e-08, -4.153033236078071e-11, 1.8250123104344767e-10, -5.313396938969547e-13, 8.752856725727679e-07, 6.907656856307002e-08, 0.0012335272074710593)",0.08443493091689158,0.023556498305163136,-0.03031353597662622,0.006895544539480464,-0.001540464821691218,-0.03998928007743916,"(0.18252986554949935, -2.8373615967899e-05, 0.0011331049735361814, 1.5531648113684932e-09, -1.0218103116706726e-08, -3.229949875960907e-07, -2.8373615967899013e-05, 0.182527049348038, 0.0008306581445176121, 9.318160042938951e-09, -1.3455978914122454e-09, 1.2501738246878264e-06, 0.001133104973536182, 0.0008306581445176121, 0.07901449009614159, 1.5560701632132662e-08, -4.627802380096264e-08, -7.294099042747604e-09, 1.5531648113685178e-09, 9.31816004293904e-09, 1.556070163213243e-08, 0.017544835988443194, 1.6802768737892207e-05, -0.0014484774006620262, -1.0218103116706796e-08, -1.3455978914122588e-09, -4.627802380096399e-08, 1.68027687378922e-05, 0.01752009165459347, -0.0007573962914282405, -3.229949875960901e-07, 1.2501738246878285e-06, -7.294099042747857e-09, -0.0014484774006620262, -0.0007573962914282405, 0.23275076915892398)"
2025/09/16/13:27:14.953362,86601,1758047234,953216553,odom,base_link,-2.86967416799271,0.32770926217431146,0.08214312217636363,-0.002609008526109715,0.016579031042005758,-0.015281261421510536,0.9997423727408908,"(0.0033870287321183354, -1.3957176111518307e-08, -2.2903578888814668e-06, 1.1585015917389346e-08, -2.445454124742633e-07, -5.389492441578279e-07, -1.3957176111518775e-08, 0.0033870747504710563, 3.089999103981517e-07, 2.2788675917502084e-07, 7.796728863783707e-09, 2.1725519494276257e-06, -2.2903578888814668e-06, 3.0899991039815167e-07, 0.002001922717323984, 1.7224607280315496e-07, -6.131690195648843e-07, 7.902159139030881e-10, 1.1585015917389346e-08, 2.2788675917502078e-07, 1.7224607280315496e-07, 0.0009785424275496981, 2.4668954906294515e-08, 6.285511682878739e-06, -2.445454124742633e-07, 7.796728863783707e-09, -6.131690195648842e-07, 2.4668954906294416e-08, 0.0009783569330522263, 4.87955518250096e-07, -5.38949244157828e-07, 2.172551949427626e-06, 7.90215913903088e-10, 6.285511682878739e-06, 4.879555182500958e-07, 0.0034366619652443594)",0.0847474314509866,0.023607987693196462,-0.03047324673024307,0.006895544539480464,-0.001540464821691218,-0.03998928007743916,"(0.18884667708481784, -2.8569831632411926e-05, 0.001143570654424638, 1.557380783721007e-09, -1.0247920475744955e-08, -3.240684024822164e-07, -2.856983163241194e-05, 0.18884383270757055, 0.0008389422985769315, 9.346014774819904e-09, -1.34975915680042e-09, 1.2542646284885714e-06, 0.0011435706544246386, 0.0008389422985769314, 0.08105023599153836, 1.5641442141448036e-08, -4.653948414555229e-08, -7.346436673259344e-09, 1.557380783721032e-09, 9.346014774819993e-09, 1.56414421414478e-08, 0.017744914475839434, 1.6802768737892207e-05, -0.0014484774006620262, -1.0247920475745024e-08, -1.3497591568004336e-09, -4.6539484145553645e-08, 1.68027687378922e-05, 0.017720170141989712, -0.0007573962914282405, -3.240684024822158e-07, 1.2542646284885735e-06, -7.346436673259599e-09, -0.0014484774006620262, -0.0007573962914282405, 0.242754693528736)"
2025/09/16/13:27:14.974446,86602,1758047234,971207380,odom,base_link,-2.871683835318848,0.33318853282519245,0.07677491163152096,0.0008253328107483029,0.01786301343873128,-0.015432505719246389,0.9997209957502466,"(9.999991808179478e-10, 2.1470405118387657e-22, -3.858777073667944e-19, -2.2440188378078736e-24, -4.984342473706015e-24, -2.65628783679373e-23, 2.147040511838755e-22, 9.999991808227642e-10, 1.2760521597082825e-19, 1.7478704494792077e-23, 8.179992838964877e-26, 1.161165677562741e-22, -3.8587770736679424e-19, 1.2760521597082823e-19, 9.999986268647433e-10, 9.769368103857956e-24, -2.8035627559355886e-23, 6.615272905714344e-25, -2.2440188378078637e-24, 1.747870449479211e-23, 9.769368103857845e-24, 9.999972303712024e-10, -5.362712994949309e-21, 2.1088890003394686e-18, -4.984342473706055e-24, 8.179992838964388e-26, -2.8035627559356526e-23, -5.362712994949321e-21, 9.999972301520889e-10, -1.9241048706604157e-19, -2.656287836793729e-23, 1.161165677562744e-22, 6.615272905713998e-25, 2.1088890003394686e-18, -1.9241048706604162e-19, 9.999991853889995e-10)",0.07915571769502643,0.032239284899549366,-0.03675829485654871,0.01072732494144993,-4.174576782608733e-06,-0.03759402435010872,"(0.1787600213826913, -2.4399867265869852e-05, 0.0011342554528019565, 1.5707156050655585e-09, -1.0141168861654218e-08, -2.985077404334132e-07, -2.4399867265869876e-05, 0.17876513536435576, 0.0007441419429993596, 8.93976555615821e-09, -7.469982889052932e-10, 1.1464524624231701e-06, 0.0011342554528019572, 0.0007441419429993595, 0.07780566189745519, 1.5047357371826543e-08, -4.4402774873747835e-08, -6.020512737286022e-09, 1.570715605065587e-09, 8.939765556158187e-09, 1.504735737182634e-08, 0.017424701156290613, 1.622025311977123e-05, -0.001461483454750194, -1.0141168861654303e-08, -7.469982889053126e-10, -4.440277487374897e-08, 1.6220253119771224e-05, 0.01739949585889821, -0.000675489580825812, -2.9850774043341305e-07, 1.1464524624231737e-06, -6.020512737286223e-09, -0.001461483454750194, -0.000675489580825812, 0.22676503877208898)"
2025/09/16/13:27:14.983303,86603,1758047234,981212378,odom,base_link,-2.855533138115962,0.30450337991556314,0.11531586501677256,0.003793432933604167,0.022533952919212293,-0.01515774928551224,0.9996239660337335,"(9.999990180893464e-10, 6.656797050765739e-22, -3.9516296546857716e-19, -2.1549063390422985e-24, -5.039680682767591e-24, -2.5591785698005277e-23, 6.65679705076672e-22, 9.999990180942936e-10, 1.5083365882923508e-19, 1.7300557420364887e-23, -4.469218338586051e-25, 1.1188216423460894e-22, -3.951629654685772e-19, 1.5083365882923508e-19, 9.999983556019212e-10, 1.0063272972948045e-23, -2.8303192616811414e-23, 9.085918665188852e-25, -2.1549063390422896e-24, 1.730055742036492e-23, 1.0063272972947926e-23, 9.999966878015605e-10, -1.534759513165433e-20, 2.155685686030876e-18, -5.0396806827676334e-24, -4.469218338586111e-25, -2.830319261681204e-23, -1.5347595131654335e-20, 9.999966875767157e-10, -2.9366665668904734e-19, -2.5591785698005262e-23, 1.118821642346094e-22, 9.08591866518852e-25, 2.1556856860308763e-18, -2.936666566890474e-19, 9.999990227010012e-10)",0.1045603513024703,-0.017301587703436226,0.01366462996643314,0.014007394772280348,0.005426708382596297,-0.0342957626574464,"(0.17874010773569626, -2.3393367421650008e-05, 0.0011374680226727857, 1.5571329289355447e-09, -9.95025837560022e-09, -2.8719254583229906e-07, -2.3393367421650065e-05, 0.17874685626753478, 0.0007241863616373768, 8.676118013555762e-09, -6.455802038265581e-10, 1.102943003290923e-06, 0.0011374680226727864, 0.0007241863616373767, 0.07780300140691435, 1.4806042958333853e-08, -4.370087609561245e-08, -5.983184899582516e-09, 1.5571329289355726e-09, 8.676118013555739e-09, 1.4806042958333656e-08, 0.01742446762997168, 1.606304455003694e-05, -0.0014664623870078504, -9.950258375600304e-09, -6.455802038265768e-10, -4.370087609561357e-08, 1.6063044550036933e-05, 0.01739911380932759, -0.0006556761939315799, -2.871925458322989e-07, 1.1029430032909267e-06, -5.983184899582711e-09, -0.0014664623870078504, -0.0006556761939315798, 0.22671632776921885)"
2025/09/16/13:27:14.999039,86604,1758047234,997600079,odom,base_link,-2.8538181491679286,0.30416577803091216,0.11546132371670283,0.0039025182226441303,0.022577698204997113,-0.01544107924512957,0.9996182226065267,"(0.0016868861174100687, 9.6207004450948e-09, -9.059407984536163e-07, -2.43346343414857e-12, -2.5877954904968145e-12, -6.789187960246447e-11, 9.62070044509508e-09, 0.0016869104654879175, 4.1006134323024215e-07, 1.5572469746581427e-11, -2.0648242834822522e-12, 3.0086748500822944e-10, -9.059407984536162e-07, 4.1006134323024204e-07, 0.0010043220550826942, 3.864189218962426e-12, -1.3398372741927513e-11, 3.8485641499826695e-12, -2.4334634341485622e-12, 1.557246974658147e-11, 3.864189218962371e-12, 0.0004964003495553615, -1.8482552834176268e-08, 2.361186962786821e-06, -2.587795490496852e-12, -2.06482428348226e-12, -1.339837274192781e-11, -1.8482552834176268e-08, 0.0004963098145263307, -5.649570577390089e-07, -6.789187960246441e-11, 3.008674850082304e-10, 3.84856414998262e-12, 2.3611869627868215e-06, -5.64957057739009e-07, 0.0016997767091751553)",0.10487261712237843,-0.017379158326693598,0.013814815347206463,0.014007394772280348,0.005426708382596297,-0.0342957626574464,"(0.18388847217189128, -2.3524283808801673e-05, 0.0011461361353168056, 1.560588339253677e-09, -9.973867704551776e-09, -2.87968625235322e-07, -2.3524283808801734e-05, 0.18389525556843087, 0.0007299750648602499, 8.697112042838737e-09, -6.470444032510364e-10, 1.105876395605606e-06, 0.0011461361353168062, 0.0007299750648602497, 0.07945271139895627, 1.4867314660408707e-08, -4.389760666607796e-08, -6.0171118542995304e-09, 1.5605883392537052e-09, 8.697112042838714e-09, 1.4867314660408508e-08, 0.017588344640317142, 1.606304455003694e-05, -0.0014664623870078504, -9.97386770455186e-09, -6.470444032510553e-10, -4.3897606666079076e-08, 1.6063044550036933e-05, 0.01756299081967305, -0.0006556761939315799, -2.8796862523532184e-07, 1.1058763956056096e-06, -6.017111854299726e-09, -0.0014664623870078504, -0.0006556761939315798, 0.2349101782864918)"
2025/09/16/13:27:15.013385,86605,1758047235,13216972,odom,base_link,-2.8521791768236717,0.303841745427333,0.11560179654993549,0.0040064717200672395,0.022619385222531055,-0.01571108102737278,0.999612661749271,"(0.0033854887593842056, 3.8393535683138756e-08, -3.4940977758745465e-06, -8.062044554724477e-09, 6.99354674898342e-08, 5.691164305090072e-07, 3.839353568313934e-08, 0.0033855872457020193, 1.5854816829141232e-06, -9.97945417553015e-08, -4.044149323813217e-09, 2.881321736962605e-06, -3.4940977758745465e-06, 1.5854816829141228e-06, 0.0020012480721804497, -1.3636547633961354e-07, -8.254514288993797e-07, 5.796147336344583e-10, -8.062044554724483e-09, -9.979454175530152e-08, -1.3636547633961354e-07, 0.0009783745929560722, -7.24934727592644e-08, 9.15192052379452e-06, 6.993546748983417e-08, -4.044149323813217e-09, -8.2545142889938e-07, -7.249347275926448e-08, 0.0009780208005972179, -2.1997708094528306e-06, 5.691164305090071e-07, 2.881321736962605e-06, 5.796147336344582e-10, 9.151920523794522e-06, -2.1997708094528306e-06, 0.0034351437383047913)",0.10517019529558891,-0.017453080360076943,0.013957936650929663,0.014007394772280348,0.005426708382596297,-0.0342957626574464,"(0.18882272526166216, -2.3649408228001564e-05, 0.001154429212893203, 1.5638812218703687e-09, -9.996366551790954e-09, -2.887082011872651e-07, -2.3649408228001624e-05, 0.18882954199597082, 0.0007355124260347398, 8.71711860290411e-09, -6.484397330059236e-10, 1.1086718137098668e-06, 0.0011544292128932037, 0.0007355124260347397, 0.08104429685119545, 1.4925704404051788e-08, -4.408508387312868e-08, -6.04944303037975e-09, 1.563881221870397e-09, 8.717118602904087e-09, 1.4925704404051586e-08, 0.01774451357800025, 1.606304455003694e-05, -0.0014664623870078504, -9.996366551791039e-09, -6.484397330059427e-10, -4.4085083873129805e-08, 1.6063044550036933e-05, 0.017719159757356155, -0.0006556761939315799, -2.8870820118726494e-07, 1.1086718137098704e-06, -6.049443030379945e-09, -0.0014664623870078504, -0.0006556761939315798, 0.24271862517064707)"
2025/09/16/13:27:15.033394,86606,1758047235,31294107,odom,base_link,-2.8546826831236816,0.31010937564609653,0.10891612836977739,0.006535788609693711,0.023526871455427086,-0.01592058874481478,0.9995750620342565,"(9.999985375245013e-10, 5.620298117540473e-21, -5.706342649886522e-19, -1.9816646992285464e-24, -2.7502657727850334e-24, -1.7328245026356854e-23, 5.620298117540313e-21, 9.999985375337682e-10, 3.118555900766434e-19, 1.8798776031042508e-23, -3.947288819110417e-24, 1.0967914918212667e-22, -5.706342649886515e-19, 3.1185559007664335e-19, 9.999975546115405e-10, 7.203376465489129e-24, -3.184739799447226e-23, 2.891045533214895e-24, -1.981664699228536e-24, 1.8798776031042543e-23, 7.20337646548902e-24, 9.999950858849195e-10, -1.168949390351932e-19, 2.986926480400618e-18, -2.7502657727850834e-24, -3.947288819110426e-24, -3.184739799447309e-23, -1.1689493903519333e-19, 9.99995085513127e-10, -9.815809747058043e-19, -1.7328245026356828e-23, 1.0967914918212695e-22, 2.891045533214867e-24, 2.986926480400619e-18, -9.815809747058045e-19, 9.99998542222138e-10)",0.0984502010522196,-0.006608807042433757,0.005226663500425839,0.01674019229861335,0.006449004787533794,-0.03246500431241454,"(0.17871831597221752, -1.5776109057231835e-05, 0.001194762746544636, 1.5271956632623048e-09, -8.53754430359264e-09, -2.0919435882571648e-07, -1.5776109057231747e-05, 0.1787378716631856, 0.0006013495132076403, 6.690505062387054e-09, -3.2538933642233473e-11, 1.0757567826623811e-06, 0.001194762746544637, 0.0006013495132076402, 0.07780166660063761, 1.3358636946518994e-08, -4.301055570423145e-08, -4.55977999180269e-09, 1.5271956632623254e-09, 6.690505062387019e-09, 1.3358636946518807e-08, 0.017425236216392026, 1.5063263362685172e-05, -0.0015483148243655579, -8.537544303592717e-09, -3.253893364225394e-11, -4.30105557042329e-08, 1.5063263362685165e-05, 0.017398209054622277, -0.0005349742678156705, -2.0919435882571621e-07, 1.0757567826623832e-06, -4.5597799918028644e-09, -0.0015483148243655577, -0.0005349742678156704, 0.22661344050692434)"
2025/09/16/13:27:15.043332,86607,1758047235,43191910,odom,base_link,-2.8535115768317953,0.30999276946229787,0.10892227962166855,0.006631406389701336,0.02356487830555131,-0.016115732984914383,0.9995704097811711,"(0.0012151184083257316, 8.469173744410371e-09, -4.967466116358646e-07, -8.406428439616176e-13, -1.1821686846457968e-12, -2.464995917737945e-11, 8.469173744410497e-09, 0.0012151317387173156, 2.7726923657315927e-07, 8.1026436565118e-12, -1.772945880621046e-12, 1.546450312089368e-10, -4.967466116358646e-07, 2.7726923657315943e-07, 0.000724953498402269, 1.9342716532039134e-12, -7.248260976422297e-12, 2.5611385737519187e-12, -8.406428439616137e-13, 8.102643656511806e-12, 1.934271653203886e-12, 0.00035945277267652775, -1.6015870272531786e-08, 1.299180676483758e-06, -1.1821686846458184e-12, -1.772945880621049e-12, -7.248260976422503e-12, -1.601587027253179e-08, 0.00035940430526784216, -4.413586282189178e-07, -2.4649959177379404e-11, 1.546450312089371e-10, 2.5611385737518936e-12, 1.299180676483758e-06, -4.413586282189177e-07, 0.0012219255350003559)",0.09866200248872901,-0.006641981979154795,0.005295052846126741,0.01674019229861335,0.006449004787533794,-0.03246500431241454,"(0.18245306384275622, -1.5838381004585598e-05, 0.0012014495519996526, 1.5296205323659847e-09, -8.551638352477931e-09, -2.0959299403099568e-07, -1.583838100458551e-05, 0.18247270051983497, 0.0006047167465349127, 6.701621800128876e-09, -3.2400543169770215e-11, 1.0778337879182542e-06, 0.0012014495519996535, 0.0006047167465349125, 0.07899731035416178, 1.3396348626258159e-08, -4.3149154815076195e-08, -4.577844789370262e-09, 1.5296205323660056e-09, 6.701621800128841e-09, 1.3396348626257972e-08, 0.01754421423992108, 1.5063263362685172e-05, -0.0015483148243655579, -8.551638352478009e-09, -3.240054316979084e-11, -4.3149154815077644e-08, 1.5063263362685165e-05, 0.01751718707815133, -0.0005349742678156705, -2.0959299403099542e-07, 1.0778337879182563e-06, -4.577844789370436e-09, -0.0015483148243655577, -0.0005349742678156704, 0.23256234168337697)"
2025/09/16/13:27:15.056075,86608,1758047235,53215742,odom,base_link,-2.8525229923869855,0.3098937620379574,0.10892790367816359,0.006711962598102155,0.023596900308337856,-0.01628013986148034,0.9995664524682742,"(0.002278631586926015, 2.9222348754225824e-08, -1.6986351201968888e-06, -1.5254198098445025e-09, 1.9465675432655296e-09, 1.235606656770685e-07, 2.9222348754225735e-08, 0.0022786783524955893, 9.499024690636909e-07, -1.6549333857400427e-08, -8.838899010554522e-10, 1.2351449280593482e-06, -1.698635120196889e-06, 9.49902469063691e-07, 0.0013531231762201374, -2.4183947831076017e-08, -3.5834660728926435e-07, 6.571606994580832e-10, -1.5254198098445031e-09, -1.6549333857400424e-08, -2.4183947831076017e-08, 0.0006662131136213334, -5.5339466275838066e-08, 4.467992386315273e-06, 1.9465675432655284e-09, -8.838899010554524e-10, -3.5834660728926445e-07, -5.5339466275838046e-08, 0.0006660448547209309, -1.518761401304836e-06, 1.235606656770684e-07, 1.2351449280593482e-06, 6.571606994580832e-10, 4.467992386315274e-06, -1.5187614013048362e-06, 0.0023018868656450274)",0.09884044402120531,-0.006669931678863482,0.005352670489581103,0.01674019229861335,0.006449004787533794,-0.03246500431241454,"(0.1856118925272404, -1.5890951097696804e-05, 0.0012070984241492125, 1.5316634711016524e-09, -8.563512510289773e-09, -2.0992884197471756e-07, -1.5890951097696716e-05, 0.1856315975779774, 0.0006075609421926322, 6.71098758985854e-09, -3.228394996627999e-11, 1.0795836532965415e-06, 0.0012070984241492133, 0.0006075609421926319, 0.08001318534748814, 1.3428120506731751e-08, -4.326592379524263e-08, -4.593064280866432e-09, 1.5316634711016733e-09, 6.710987589858505e-09, 1.3428120506731564e-08, 0.017644452563132747, 1.5063263362685172e-05, -0.0015483148243655579, -8.56351251028985e-09, -3.2283949966300755e-11, -4.326592379524408e-08, 1.5063263362685165e-05, 0.017617425401362997, -0.0005349742678156705, -2.099288419747173e-07, 1.0795836532965436e-06, -4.593064280866607e-09, -0.0015483148243655577, -0.0005349742678156704, 0.23757425784396047)"
2025/09/16/13:27:15.073272,86609,1758047235,73202372,odom,base_link,-2.8505465244689825,0.30969466134378276,0.10894041948583073,0.006872594366041995,0.02366072219316403,-0.016607955631935047,0.999558459261741,"(0.004510564387972203, 1.1032523330585456e-07, -6.311009742356425e-06, -6.27203335749439e-09, 9.724398846246435e-09, 6.069010164982566e-07, 1.1032523330585343e-07, 0.004510749113654143, 3.5310884563313487e-06, -6.916669732615361e-08, -7.756965127793406e-09, 6.0374895240827305e-06, -6.311009742356425e-06, 3.531088456331348e-06, 0.0026542316116032294, -1.141720465543918e-07, -1.6977756361418507e-06, 5.9045902754201336e-09, -6.272033357494389e-09, -6.916669732615362e-08, -1.1417204655439179e-07, 0.0012886641936109564, -2.0747888281282877e-07, 1.6624774466397103e-05, 9.724398846246437e-09, -7.756965127793404e-09, -1.6977756361418507e-06, -2.0747888281282877e-07, 0.0012880352443069986, -5.660749452764262e-06, 6.069010164982568e-07, 6.0374895240827305e-06, 5.904590275420131e-09, 1.6624774466397106e-05, -5.660749452764261e-06, 0.004597020064450912)",0.09919624055493241,-0.006725660892444321,0.005467554942421748,0.01674019229861335,0.006449004787533794,-0.03246500431241454,"(0.19194403565793752, -1.599606141004979e-05, 0.0012184034697201762, 1.5357369091106197e-09, -8.58718852411768e-09, -2.1059849288265005e-07, -1.59960614100497e-05, 0.1919638774308496, 0.0006132519969898341, 6.729662140985665e-09, -3.205147349579535e-11, 1.0830727291156271e-06, 0.0012184034697201773, 0.0006132519969898339, 0.08206221111544817, 1.3491470808567997e-08, -4.3498750748774774e-08, -4.623410592312428e-09, 1.5357369091106408e-09, 6.72966214098563e-09, 1.3491470808567809e-08, 0.017844318857993587, 1.5063263362685172e-05, -0.0015483148243655579, -8.587188524117758e-09, -3.205147349581639e-11, -4.349875074877623e-08, 1.5063263362685165e-05, 0.017817291696223838, -0.0005349742678156705, -2.1059849288264978e-07, 1.0830727291156292e-06, -4.623410592312603e-09, -0.0015483148243655577, -0.0005349742678156704, 0.24756757258700246)"
2025/09/16/13:27:15.083380,86610,1758047235,77903986,odom,base_link,-2.854077815635705,0.315824860335432,0.10265810370454953,0.008226344411210706,0.02410580973599867,-0.016512877361398257,0.9995391748580179,"(9.999978908051137e-10, 6.886846273222084e-21, -5.809906260208687e-19, -9.619970501151554e-25, -2.6814965381975328e-24, -1.0558586283394257e-23, 6.886846273221988e-21, 9.99997890814914e-10, 3.3593730054507584e-19, 2.2342993337701064e-23, -5.623842509229414e-24, 1.3039918715897563e-22, -5.809906260208685e-19, 3.3593730054507603e-19, 9.999964766945847e-10, 7.525355758301384e-24, -2.825628125090207e-23, 4.115132919916247e-24, -9.619970501151369e-25, 2.234299333770107e-23, 7.525355758301276e-24, 9.999929300115863e-10, -1.385254186668037e-19, 3.0540431354314625e-18, -2.6814965381975864e-24, -5.623842509229408e-24, -2.825628125090283e-23, -1.3852541866680372e-19, 9.99992929637474e-10, -1.122333560180947e-18, -1.0558586283394144e-23, 1.3039918715897565e-22, 4.115132919916211e-24, 3.054043135431463e-18, -1.122333560180947e-18, 9.99997895544151e-10)",0.09288027266386152,0.0034438481368213253,-0.00274947597623536,0.0182385615308043,0.006964639378349954,-0.030980167100052032,"(0.17871547774414787, -8.100805436323389e-06, 0.0012489596656410338, 1.4487774148357707e-09, -7.213262542736747e-09, -1.4828892991824925e-07, -8.100805436323077e-06, 0.17874545329730357, 0.0004818178069434671, 4.949148002535662e-09, 6.355607231269749e-10, 1.294410304712698e-06, 0.0012489596656410347, 0.0004818178069434669, 0.07780293139808657, 1.244965416984334e-08, -4.612858318941732e-08, -1.960181389890956e-10, 1.4487774148357813e-09, 4.949148002535663e-09, 1.2449654169843152e-08, 0.017426299746436582, 1.387823962915831e-05, -0.00162428470728105, -7.213262542736823e-09, 6.35560723126967e-10, -4.612858318941874e-08, 1.3878239629158305e-05, 0.017397619069151108, -0.0004192307882522301, -1.482889299182481e-07, 1.294410304712698e-06, -1.9601813898923226e-10, -0.0016242847072810498, -0.00041923078825223007, 0.22656264567943712)"
2025/09/16/13:27:15.093327,86611,1758047235,91197491,odom,base_link,-2.8539588443183805,0.31754299872420744,0.10083437179048406,0.008482446623369713,0.024224720620828775,-0.016674753741068072,0.9995314720396749,"(9.999992652403456e-10, 7.378172457645799e-21, -5.708801082040714e-19, -8.816606779512695e-25, -2.7110894650043005e-24, -9.973745284663588e-24, 7.378172457645747e-21, 9.99999265249683e-10, 3.490316990707076e-19, 2.1438140077959395e-23, -5.824481209816843e-24, 1.24021187347042e-22, -5.708801082040711e-19, 3.490316990707076e-19, 9.99998767652382e-10, 7.563147134707372e-24, -2.884514623353539e-23, 4.140236923340819e-24, -8.816606779512517e-25, 2.1438140077959392e-23, 7.563147134707265e-24, 9.999975121349022e-10, -1.4823732628140128e-19, 3.0100937671344427e-18, -2.7110894650043526e-24, -5.824481209816837e-24, -2.8845146233536167e-23, -1.4823732628140124e-19, 9.999975117736487e-10, -1.1878399263703775e-18, -9.973745284663477e-24, 1.2402118734704199e-22, 4.140236923340783e-24, 3.0100937671344443e-18, -1.1878399263703773e-18, 9.99999269787835e-10)",0.09126142723020164,0.006271281114110491,-0.005001986165043068,0.018396821270511406,0.007050831604137648,-0.03069347057279731,"(0.17870786775434833, -5.779899102296893e-06, 0.001264586288615881, 1.4345331485390609e-09, -7.044730126440698e-09, -1.408484481602402e-07, -5.779899102296612e-06, 0.17874052394674447, 0.00044666191323636365, 4.610300142329557e-09, 8.042219991845538e-10, 1.2296529578792884e-06, 0.0012645862886158817, 0.00044666191323636343, 0.07780262507753795, 1.2181235897144262e-08, -4.516344424504536e-08, -5.231094904422638e-10, 1.434533148539071e-09, 4.610300142329558e-09, 1.2181235897144077e-08, 0.01742655614657118, 1.3491609334442383e-05, -0.0016459893461321983, -7.044730126440772e-09, 8.042219991845467e-10, -4.516344424504676e-08, 1.3491609334442378e-05, 0.017397392939720875, -0.00038542665627691076, -1.4084844816023913e-07, 1.2296529578792884e-06, -5.231094904423953e-10, -0.001645989346132198, -0.0003854266562769107, 0.2265291922094731)"
2025/09/16/13:27:15.103874,86612,1758047235,103218555,odom,base_link,-2.852862850197431,0.3175832082163688,0.10072216613569149,0.008589214812425206,0.024266781667947643,-0.01686147442099705,0.9995264075434607,"(0.0012279710605550592, 1.1333452536493486e-08, -5.167229165413261e-07, -3.800508341911596e-13, -1.2087422769278842e-12, -1.4416176175872114e-11, 1.1333452536493852e-08, 0.0012279851812611224, 3.175636912827712e-07, 9.388329971411531e-12, -2.6155162980304365e-12, 1.797340390216011e-10, -5.167229165413259e-07, 3.175636912827713e-07, 0.0007325828728714677, 2.0178503896191117e-12, -7.639105280172561e-12, 3.6902461706508796e-12, -3.8005083419115175e-13, 9.388329971411533e-12, 2.0178503896190834e-12, 0.00036320583487129717, -2.0745348258005468e-08, 1.3597491912909013e-06, -1.2087422769279072e-12, -2.615516298030434e-12, -7.639105280172761e-12, -2.074534825800547e-08, 0.0003631566851481787, -5.448696924874033e-07, -1.4416176175871956e-11, 1.7973403902160107e-10, 3.690246170650849e-12, 1.3597491912909015e-06, -5.448696924874033e-07, 0.0012349104840979792)",0.0914578257384186,0.006265626473646448,-0.0049816131161418515,0.018396821270511406,0.007050831604137648,-0.03069347057279731,"(0.18248134455710985, -5.799803782075978e-06, 0.0012718220061336213, 1.4367604190067423e-09, -7.055733346940347e-09, -1.4110704738591462e-07, -5.799803782075698e-06, 0.18251413975739805, 0.0004490220420462115, 4.6172191222977805e-09, 8.0602393927874e-10, 1.232085298930022e-06, 0.001271822006133622, 0.0004490220420462113, 0.07901072317059793, 1.2213866485913857e-08, -4.531216430919162e-08, -5.232542086580354e-10, 1.4367604190067527e-09, 4.617219122297781e-09, 1.221386648591367e-08, 0.01754676679415419, 1.3491609334442383e-05, -0.0016459893461321983, -7.055733346940422e-09, 8.060239392787328e-10, -4.5312164309193014e-08, 1.3491609334442378e-05, 0.017517603587303882, -0.00038542665627691076, -1.4110704738591354e-07, 1.232085298930022e-06, -5.232542086581672e-10, -0.001645989346132198, -0.0003854266562769107, 0.2325397245886235)"
2025/09/16/13:27:15.113336,86613,1758047235,113242149,odom,base_link,-2.851947157167575,0.3176162948556159,0.10062863326795497,0.008678240540578279,0.024301855394610095,-0.017017167594161723,0.9995221478149304,"(0.002291902530071839, 3.850697740433922e-08, -1.7505112297453778e-06, 1.6576248078299852e-09, -3.411516633914131e-08, -4.170655883157815e-08, 3.850697740434058e-08, 0.002291951350259189, 1.0779714286264738e-06, 2.010341747013396e-08, 2.137114347292849e-10, 1.1565672713114498e-06, -1.750511229745376e-06, 1.077971428626474e-06, 0.0013609396780468398, 2.334780303797871e-08, -3.3389694899448993e-07, 1.0905335765001188e-09, 1.6576248078299852e-09, 2.0103417470133963e-08, 2.3347803037978712e-08, 0.0006700099117564282, -7.093792754055445e-08, 4.6348579647648986e-06, -3.411516633914132e-08, 2.1371143472928507e-10, -3.3389694899448993e-07, -7.09379275405545e-08, 0.0006698405535007315, -1.856173742396517e-06, -4.170655883157816e-08, 1.15656727131145e-06, 1.0905335765001184e-09, 4.6348579647648986e-06, -1.8561737423965172e-06, 0.0023153874706661835)",0.091621589841601,0.006260911432107589,-0.00496462533903148,0.018396821270511406,0.007050831604137648,-0.03069347057279731,"(0.18564019777371943, -5.816437326990641e-06, 0.0012778718457291428, 1.4386175968132133e-09, -7.064908225882162e-09, -1.4132267667282068e-07, -5.816437326990361e-06, 0.1856731091229464, 0.0004509950497587776, 4.622988415352601e-09, 8.075264614017027e-10, 1.2341134719259548e-06, 0.0012778718457291433, 0.0004509950497587774, 0.08002667832621643, 1.2241075038334548e-08, -4.543617241979925e-08, -5.233748798842843e-10, 1.4386175968132238e-09, 4.622988415352602e-09, 1.2241075038334361e-08, 0.017647002733180067, 1.3491609334442383e-05, -0.0016459893461321983, -7.064908225882236e-09, 8.075264614016953e-10, -4.5436172419800645e-08, 1.3491609334442378e-05, 0.01761783952632976, -0.00038542665627691076, -1.413226766728196e-07, 1.2341134719259548e-06, -5.233748798844163e-10, -0.001645989346132198, -0.0003854266562769107, 0.23755152153991743)"
2025/09/16/13:27:15.133352,86614,1758047235,133205891,odom,base_link,-2.8501184851793244,0.3176813357865741,0.10044249508185384,0.008855560882970194,0.024371682577643494,-0.01732726194017467,0.9995135647520943,"(0.004522093833087829, 1.4252850205898193e-07, -6.463206178381393e-06, 7.543021719977959e-09, -1.6029745862164197e-07, -1.9996377612359024e-07, 1.4252850205898643e-07, 0.004522283400956008, 3.984081287949996e-06, 1.0402586217027944e-07, -2.891337116604338e-09, 5.627964789587765e-06, -6.4632061783813905e-06, 3.984081287949995e-06, 0.0026609421247387856, 1.1052446518184071e-07, -1.5745766729153417e-06, 9.735802055943361e-09, 7.54302171997796e-09, 1.040258621702794e-07, 1.105244651818407e-07, 0.001291855346184452, -2.6428593531799244e-07, 1.7141244899359686e-05, -1.6029745862164197e-07, -2.8913371166043393e-09, -1.5745766729153417e-06, -2.6428593531799254e-07, 0.0012912259015046153, -6.875982389973587e-06, -1.999637761235903e-07, 5.627964789587767e-06, 9.735802055943363e-09, 1.7141244899359686e-05, -6.875982389973586e-06, 0.004608853199635981)",0.09194775471044349,0.006251520601789935,-0.004930791208196605,0.018396821270511406,0.007050831604137648,-0.03069347057279731,"(0.19196526262048663, -5.849664318162206e-06, 0.0012899656989041983, 1.4423164914054553e-09, -7.083181602822218e-09, -1.417521401310242e-07, -5.849664318161928e-06, 0.1919984059486673, 0.00045493831593370455, 4.6344789720495315e-09, 8.105189971384458e-10, 1.238152933360745e-06, 0.0012899656989041985, 0.00045493831593370433, 0.08207354864594574, 1.2295265631750518e-08, -4.568315627246133e-08, -5.23615217747819e-10, 1.442316491405466e-09, 4.634478972049532e-09, 1.229526563175033e-08, 0.01784664014620497, 1.3491609334442383e-05, -0.0016459893461321983, -7.083181602822293e-09, 8.105189971384383e-10, -4.5683156272462735e-08, 1.3491609334442378e-05, 0.017817476939354662, -0.00038542665627691076, -1.4175214013102312e-07, 1.238152933360745e-06, -5.236152177479516e-10, -0.001645989346132198, -0.0003854266562769107, 0.24753339219116255)"
2025/09/16/13:27:15.143351,86615,1758047235,137894392,odom,base_link,-2.8537626259555453,0.3238499994090869,0.09442785712162692,0.008837244721459903,0.024074048080073962,-0.017299145415048834,0.9995214269252461,"(9.99997884856183e-10, 8.055076908517969e-21, -5.788594517988717e-19, -8.162510017522218e-25, -2.694345434734907e-24, -9.501193208804049e-24, 8.055076908518136e-21, 9.99997884866206e-10, 3.5235331745169297e-19, 2.408699162508054e-23, -6.911931479013072e-24, 1.4064070666083772e-22, -5.788594517988721e-19, 3.5235331745169297e-19, 9.99996466781629e-10, 7.933494226186021e-24, -2.900055825034554e-23, 5.5263899946147125e-24, -8.162510017522082e-25, 2.4086991625080604e-23, 7.933494226185894e-24, 9.999929101870718e-10, -1.5629361225077067e-19, 3.067804108410013e-18, -2.694345434734946e-24, -6.911931479013087e-24, -2.900055825034634e-23, -1.5629361225077067e-19, 9.999929098226617e-10, -1.2435674336196628e-18, -9.501193208803966e-24, 1.406407066608382e-22, 5.526389994614685e-24, 3.0678041084100133e-18, -1.243567433619663e-18, 9.999978895880986e-10)",0.08544487442733238,0.01636692982279854,-0.012806951740338222,0.018333919756580337,0.006689042640419517,-0.030296376754094138,"(0.1787059310968014, 1.8001117364600737e-06, 0.0013167376323546416, 1.39376431548842e-09, -6.768197872243611e-09, -1.4285135392321474e-07, 1.8001117364600307e-06, 0.17874720980664063, 0.00032910429715198936, 3.9027065527535356e-09, 1.530533365666336e-09, 1.397336851356706e-06, 0.0013167376323546416, 0.0003291042971519893, 0.0778045262229401, 1.2100621153789372e-08, -4.765296327237979e-08, 3.6785484041127463e-09, 1.393764315488432e-09, 3.9027065527535165e-09, 1.2100621153789148e-08, 0.01742777314799066, 1.2080547059365862e-05, -0.001717683156746484, -6.7681978722436435e-09, 1.530533365666331e-09, -4.765296327238124e-08, 1.2080547059365857e-05, 0.017396960916939604, -0.0002734217570490061, -1.4285135392321405e-07, 1.3973368513567098e-06, 3.678548404112561e-09, -0.0017176831567464839, -0.00027342175704900604, 0.226481975160196)"
2025/09/16/13:27:15.153327,86616,1758047235,151185036,odom,base_link,-2.8537440291777965,0.32576042286615325,0.09256755017702174,0.008756490391656891,0.023972190609961554,-0.01745977072507703,0.9995217928387595,"(9.999992650783013e-10, 7.934274917699206e-21, -5.591099430826838e-19, -7.171758965306051e-25, -2.83113195483579e-24, -8.998077340707286e-24, 7.934274917699134e-21, 9.999992650879529e-10, 3.44106641793584e-19, 2.2901506721521742e-23, -6.536350692955108e-24, 1.3372801812868692e-22, -5.591099430826836e-19, 3.441066417935839e-19, 9.999987673811333e-10, 8.08021344825004e-24, -2.9427682788952646e-23, 5.2194665026689204e-24, -7.1717589653059255e-25, 2.2901506721521798e-23, 8.080213448249915e-24, 9.999975115863082e-10, -1.5152154628785132e-19, 2.9766102613503822e-18, -2.831131954835828e-24, -6.53635069295512e-24, -2.942768278895341e-23, -1.5152154628785122e-19, 9.999975112375903e-10, -1.2202470876726623e-18, -8.998077340707202e-24, 1.3372801812868732e-22, 5.21946650266889e-24, 2.97661026135038e-18, -1.2202470876726621e-18, 9.9999926961802e-10)",0.08378636809598604,0.01925362667835361,-0.015001800148504227,0.018108354951839465,0.006516533652499198,-0.030208920388829975,"(0.17869876913079977, 3.748413394285939e-06, 0.0013301034317797613, 1.378184583933227e-09, -6.609881345465296e-09, -1.3568566710013224e-07, 3.7484133942859287e-06, 0.17874217284935726, 0.00029755629559774125, 3.595778794997252e-09, 1.669626911693988e-09, 1.3274824903317328e-06, 0.0013301034317797615, 0.00029755629559774114, 0.07780426245728676, 1.1838873717188226e-08, -4.665635640462561e-08, 3.192542397644611e-09, 1.3781845839332387e-09, 3.5957787949972334e-09, 1.183887371718801e-08, 0.01742803285017319, 1.1670248617125705e-05, -0.001735878654069048, -6.609881345465328e-09, 1.6696269116939838e-09, -4.665635640462703e-08, 1.16702486171257e-05, 0.01739678145229954, -0.00024362136577474113, -1.356856671001316e-07, 1.3274824903317364e-06, 3.192542397644432e-09, -0.0017358786540690478, -0.00024362136577474108, 0.22645369398638476)"
2025/09/16/13:27:15.163295,86617,1758047235,161199570,odom,base_link,-2.8537566653483193,0.32722535602000263,0.09114837848924241,0.008642221244035669,0.023834303662327243,-0.017581310781797036,0.9995239544363581,"(9.999990190297317e-10, 7.913544534246958e-21, -5.594869837303097e-19, -6.43332436373518e-25, -3.0059506379712413e-24, -8.683530084394056e-24, 7.913544534247139e-21, 9.999990190395693e-10, 3.3968023871563477e-19, 2.2106335567379296e-23, -6.1532512379447816e-24, 1.2889813775977388e-22, -5.594869837303099e-19, 3.396802387156351e-19, 9.999983572130846e-10, 8.311975256305482e-24, -3.007748236946823e-23, 4.944927239030894e-24, -6.433324363735061e-25, 2.210633556737935e-23, 8.311975256305358e-24, 9.999966911652272e-10, -1.495319347080237e-19, 2.9827184383400017e-18, -3.0059506379712773e-24, -6.153251237944793e-24, -3.007748236946896e-23, -1.495319347080237e-19, 9.999966908158354e-10, -1.210421754332809e-18, -8.683530084393986e-24, 1.2889813775977425e-22, 4.944927239030869e-24, 2.9827184383400014e-18, -1.2104217543328098e-18, 9.999990236374244e-10)",0.08250756898021779,0.02143727835352429,-0.016664379060829473,0.01787898727079091,0.006315695261698736,-0.030168932759167752,"(0.1786791580675912, 5.13600888672066e-06, 0.0013397688041518541, 1.3655829638185634e-09, -6.491852163739898e-09, -1.3050901864901428e-07, 5.136008886720594e-06, 0.17872410037812972, 0.0002745606499973591, 3.3797575841451674e-09, 1.7615398421100422e-09, 1.2770062312685963e-06, 0.0013397688041518546, 0.000274560649997359, 0.07780237850160102, 1.164491179997319e-08, -4.5917322847955846e-08, 2.8540567663035274e-09, 1.3655829638185748e-09, 3.3797575841451488e-09, 1.1644911799972977e-08, 0.017428036558295296, 1.1362796211306361e-05, -0.0017490189357568708, -6.49185216373993e-09, 1.7615398421100385e-09, -4.5917322847957236e-08, 1.1362796211306356e-05, 0.0173964635409537, -0.00022195564480601343, -1.3050901864901367e-07, 1.2770062312686e-06, 2.8540567663033533e-09, -0.0017490189357568706, -0.0002219556448060134, 0.2263973849414346)"
2025/09/16/13:27:15.173311,86618,1758047235,173212290,odom,base_link,-2.8527665375048787,0.3274520060293686,0.09090490909155792,0.008745912574960362,0.02387187942446533,-0.0177646649794429,0.9995189138101105,"(0.0012270984087675498, 1.1485289206038195e-08, -4.940910672517306e-07, -2.752292011140606e-13, -1.2843629688422838e-12, -1.2503934938148488e-11, 1.1485289206038297e-08, 0.0012271129870869112, 2.965329059169027e-07, 9.526854946198501e-12, -2.62886778485578e-12, 1.8617953490495862e-10, -4.940910672517304e-07, 2.9653290591690266e-07, 0.0007320639241675244, 2.1454343584854948e-12, -7.638394152734119e-12, 4.246930483580042e-12, -2.7522920111405544e-13, 9.526854946198525e-12, 2.145434358485462e-12, 0.0003629486186002899, -1.956751489001356e-08, 1.3170870836777493e-06, -1.2843629688423002e-12, -2.6288677848557857e-12, -7.638394152734318e-12, -1.9567514890013567e-08, 0.00036290224399768313, -5.288997844820938e-07, -1.2503934938148384e-11, 1.8617953490495914e-10, 4.246930483580017e-12, 1.3170870836777493e-06, -5.288997844820938e-07, 0.0012340094839133496)",0.0826827735742143,0.02146402358669671,-0.01669814841524176,0.01787898727079091,0.006315695261698736,-0.030168932759167752,"(0.1824499272582734, 5.162524594149054e-06, 0.0013475045114276548, 1.3676370075398651e-09, -6.5016619049365004e-09, -1.3074866268430439e-07, 5.162524594148987e-06, 0.1824950614840829, 0.0002757838097394428, 3.3842351113712436e-09, 1.7652230168084047e-09, 1.2795389847485048e-06, 0.001347504511427655, 0.0002757838097394428, 0.07900964910096622, 1.167511572781174e-08, -4.606777254226044e-08, 2.869236784600605e-09, 1.3676370075398767e-09, 3.384235111371225e-09, 1.1675115727811525e-08, 0.01754816375937562, 1.1362796211306361e-05, -0.0017490189357568708, -6.501661904936533e-09, 1.765223016808401e-09, -4.606777254226183e-08, 1.1362796211306356e-05, 0.017516590742034023, -0.00022195564480601343, -1.3074866268430378e-07, 1.2795389847485084e-06, 2.8692367846004304e-09, -0.0017490189357568706, -0.0002219556448060134, 0.23240374499545072)"
