time,.header.seq,.header.stamp.secs,.header.stamp.nsecs,.header.frame_id,.child_frame_id,.pose.pose.position.x,.pose.pose.position.y,.pose.pose.position.z,.pose.pose.orientation.x,.pose.pose.orientation.y,.pose.pose.orientation.z,.pose.pose.orientation.w,.pose.covariance,.twist.twist.linear.x,.twist.twist.linear.y,.twist.twist.linear.z,.twist.twist.angular.x,.twist.twist.angular.y,.twist.twist.angular.z,.twist.covariance
2025/09/16/13:26:16.343391,81854,1758047176,343196154,odom,base_link,-2.8033276277090273,0.1823607817441858,0.13388124600692847,0.013557899903054333,0.016534059578100887,0.9995231951529114,0.02227533558448496,"(0.0011658423673371321, -8.008911620094914e-09, -2.3310781122463039e-07, -4.415748833925495e-13, -3.2002479319160474e-13, 1.6202599220066656e-11, -8.008911620095535e-09, 0.001165837363585687, -3.579198222900063e-07, -2.952807088366317e-12, -3.711649927708258e-12, 1.1277667375133073e-10, -2.3310781122463044e-07, -3.5791982229000625e-07, 0.0006956967624601713, 1.2913780310862424e-13, 4.508552409509584e-12, -3.65118058035536e-12, -4.4157488339255066e-13, -2.952807088366303e-12, 1.2913780310862917e-13, 0.00034502879452811836, 1.8916183640080995e-08, -6.126612845662069e-07, -3.200247931915495e-13, -3.711649927708261e-12, 4.5085524095097195e-12, 1.891618364008099e-08, 0.0003450418627655656, -8.514126759712813e-07, 1.620259922006672e-11, 1.1277667375133076e-10, -3.651180580355366e-12, -6.126612845662068e-07, -8.514126759712813e-07, 0.0011720588910125592)",-0.049649829939236514,-0.0004466749625929986,0.01125976989316766,0.00691969899031622,0.0016035747922534614,-0.018883830466634253,"(0.18224012716521923, -1.8594524614317925e-05, -0.0010025902858072728, 1.2001961737947636e-10, -1.791875177161221e-09, -8.614143446576284e-08, -1.8594524614317582e-05, 0.18224919185666819, -0.0005696042208332368, 9.381373676490264e-10, 4.676370009579329e-10, -8.656308173695782e-07, -0.0010025902858072726, -0.0005696042208332367, 0.07892464087692064, 2.8786127884960693e-10, 2.928656756660577e-08, 2.359526809906617e-09, 1.2001961737947872e-10, 9.381373676489162e-10, 2.8786127884964736e-10, 0.017525770304615326, 1.5997729507556098e-05, 0.0012868967859853133, -1.7918751771616326e-09, 4.67637000957964e-10, 2.9286567566606822e-08, 1.599772950755609e-05, 0.01751363568293674, 0.0005043740624824251, -8.614143446576329e-08, -8.656308173695783e-07, 2.3595268099065522e-09, 0.0012868967859853131, 0.000504374062482425, 0.23237778134435058)"
2025/09/16/13:26:16.353311,81855,1758047176,353205442,odom,base_link,-2.8028277891360016,0.1823467617833802,0.13398087714999665,0.013549090690864612,0.016570134676434346,0.9995206210350486,0.022369195425100512,"(0.00222607494057456, -2.839026188921174e-08, -8.259643477238077e-07, 1.6686572212883635e-09, -3.456522824049186e-08, 1.700587880526299e-08, -2.8390261889212146e-08, 0.0022260574305821724, -1.2690904662755807e-06, 3.8516470918443545e-08, 7.544161567124975e-10, 5.990535444391984e-07, -8.259643477238077e-07, -1.2690904662755809e-06, 0.0013221640288168528, -2.9573756233111365e-09, 1.735281847347547e-07, -8.008587379455436e-10, 1.6686572212883633e-09, 3.8516470918443525e-08, -2.957375623311135e-09, 0.0006510749606170238, 6.706895494180992e-08, -2.1621737339727353e-06, -3.456522824049186e-08, 7.544161567124977e-10, 1.735281847347547e-07, 6.706895494180992e-08, 0.0006511219213886695, -3.0179320593938795e-06, 1.7005878805262994e-08, 5.990535444391984e-07, -8.008587379455439e-10, -2.1621737339727353e-06, -3.01793205939388e-06, 0.002248093752324863)",-0.04969038913164086,-0.0004888215082640388,0.011319328994688582,0.00691969899031622,0.0016035747922534614,-0.018883830466634253,"(0.18539391211860795, -1.865482117077103e-05, -0.0010072921578006871, 1.2028138782640043e-10, -1.793253127002839e-09, -8.629167750156265e-08, -1.8654821170770686e-05, 0.18540301403277365, -0.0005721254068953667, 9.389419644449474e-10, 4.68665710806045e-10, -8.670676744884192e-07, -0.0010072921578006867, -0.0005721254068953666, 0.07993862163666456, 2.8741607693753246e-10, 2.9356445736899577e-08, 2.3643719705040116e-09, 1.2028138782640278e-10, 9.389419644448371e-10, 2.874160769375732e-10, 0.017625863192493745, 1.5997729507556098e-05, 0.0012868967859853133, -1.7932531270032504e-09, 4.686657108060763e-10, 2.9356445736900633e-08, 1.599772950755609e-05, 0.01761372857081516, 0.0005043740624824251, -8.62916775015631e-08, -8.670676744884193e-07, 2.3643719705039466e-09, 0.0012868967859853131, 0.000504374062482425, 0.23738242573827148)"
2025/09/16/13:26:16.363342,81856,1758047176,363265991,odom,base_link,-2.8023249512430564,0.182333009365256,0.13408160421947202,0.013540236243322448,0.016606394359559778,0.9995180234652856,0.022463535716762087,"(0.00332905386707764, -6.18515146164136e-08, -1.799101171826535e-06, 4.849042499929395e-09, -1.0073956678371172e-07, 4.9537258979708256e-08, -6.185151461641337e-08, 0.0033290164461283397, -2.764623876913867e-06, 1.1140567926203724e-07, 1.148034543886552e-09, 1.767375544936958e-06, -1.7991011718265351e-06, -2.764623876913868e-06, 0.001968092509458591, -8.889658607965012e-09, 5.039473757917602e-07, -3.390570205225486e-09, 4.849042499929395e-09, 1.1140567926203721e-07, -8.88965860796501e-09, 0.0009622560876170096, 1.4621593274745672e-07, -4.700606581945715e-06, -1.0073956678371169e-07, 1.1480345438865515e-09, 5.039473757917603e-07, 1.4621593274745666e-07, 0.0009623591051394157, -6.574919374976759e-06, 4.953725897970826e-08, 1.767375544936958e-06, -3.3905702052254863e-09, -4.700606581945715e-06, -6.574919374976759e-06, 0.0033770555438012466)",-0.04973115603750256,-0.0005311838966133523,0.011379193112807735,0.00691969899031622,0.0016035747922534614,-0.018883830466634253,"(0.1885751955889449, -1.871553787658419e-05, -0.001012029706763196, 1.2054449886324608e-10, -1.7946381336596622e-09, -8.64426899683733e-08, -1.871553787658384e-05, 0.1885843349558757, -0.0005746657104389437, 9.397506817761244e-10, 4.696996889266869e-10, -8.685118901009135e-07, -0.0010120297067631955, -0.0005746657104389436, 0.08096568640259325, 2.8696859503853275e-10, 2.942668177024453e-08, 2.3692419443434724e-09, 1.2054449886324846e-10, 9.397506817760142e-10, 2.869685950385738e-10, 0.017726468680317232, 1.5997729507556098e-05, 0.0012868967859853133, -1.7946381336600735e-09, 4.696996889267183e-10, 2.942668177024559e-08, 1.599772950755609e-05, 0.017714334058638648, 0.0005043740624824251, -8.644268996837375e-08, -8.685118901009136e-07, 2.3692419443434075e-09, 0.0012868967859853131, 0.000504374062482425, 0.2424127001294458)"
2025/09/16/13:26:16.393483,81857,1758047176,381792068,odom,base_link,-2.798466444561662,0.18495905353760414,0.11662073987144579,0.0141694973454332,0.019474860719116388,0.999465879624279,0.022088698735212204,"(9.99999266932609e-10, -7.157142275105659e-21, -3.013151722153029e-19, -9.898493073357813e-25, -4.987828192998364e-25, 1.0482467185226749e-23, -7.157142275105405e-21, 9.999992669266753e-10, -5.012004536817134e-19, -7.426194993299448e-24, -9.792628277387542e-24, 8.00011617524587e-23, -3.013151722153026e-19, -5.012004536817136e-19, 9.999987704602662e-10, 3.5073479288586016e-25, 1.852049028481047e-23, -4.8989476781150346e-24, -9.898493073357832e-25, -7.42619499329941e-24, 3.507347928858797e-25, 9.999975174756987e-10, 1.7922667363873535e-19, -1.5624361993079462e-18, -4.987828192996958e-25, -9.792628277387546e-24, 1.8520490284811006e-23, 1.792266736387354e-19, 9.999975176369183e-10, -2.375707572313563e-18, 1.0482467185226787e-23, 8.000116175245869e-23, -4.898947678115042e-24, -1.5624361993079464e-18, -2.375707572313563e-18, 9.99999271424673e-10)",-0.055728917562847056,-0.006984060937620815,-0.010695706786597635,0.010141480965318408,0.0009355157880207211,-0.017318748975752828,"(0.17859934488292, -2.2509732889327416e-05, -0.0009901101342719243, 8.377921644629795e-11, -1.2042185871113285e-09, -7.012409918844143e-08, -2.250973288932731e-05, 0.1786018527396217, -0.0006480318423485421, 3.015842373013787e-10, 1.983280716322551e-11, -8.015812405846351e-07, -0.000990110134271924, -0.0006480318423485419, 0.0777712616754623, 2.0065720885779234e-10, 2.8320271785052948e-08, 1.9063970380056667e-09, 8.377921644630019e-11, 3.015842373012645e-10, 2.0065720885783125e-10, 0.017410553592041987, 1.650581756910639e-05, 0.0012780112241434797, -1.2042185871117375e-09, 1.983280716325082e-11, 2.8320271785053937e-08, 1.6505817569106384e-05, 0.017399013299446733, 0.0005862011083661891, -7.012409918844178e-08, -8.015812405846352e-07, 1.9063970380056067e-09, 0.00127801122414348, 0.000586201108366189, 0.22649453303635333)"
2025/09/16/13:26:16.403285,81858,1758047176,403188229,odom,base_link,-2.7972746610956354,0.18504730152122592,0.11635283275381042,0.014158303470999181,0.01958614580164636,0.9994597925120693,0.02227214599429116,"(0.0022216788114738416, -3.584175670379102e-08, -8.789428842338538e-07, -1.3797290522670404e-12, -7.061203237505388e-13, 4.8095016079150586e-11, -3.584175670379194e-08, 0.0022216472942317034, -1.4903860076783236e-06, -1.0407575619610464e-11, -1.4015954462601791e-11, 3.666856027941813e-10, -8.789428842338535e-07, -1.4903860076783249e-06, 0.0013197285285634441, 3.3980418774120243e-13, 1.4734556291992895e-11, -1.40370624798507e-11, -1.3797290522670432e-12, -1.040757561961041e-11, 3.398041877412189e-13, 0.0006499023333113233, 8.103221487353719e-08, -2.261130496671897e-06, -7.061203237503454e-13, -1.4015954462601791e-11, 1.473455629199334e-11, 8.103221487353717e-08, 0.0006499796806425809, -3.5185896386224455e-06, 4.809501607915074e-11, 3.6668560279418126e-10, -1.403706247985072e-11, -2.261130496671896e-06, -3.518589638622445e-06, 0.0022432548318942896)",-0.05583824340919027,-0.007098465344452584,-0.010750656202176422,0.010141480965318408,0.0009355157880207211,-0.017318748975752828,"(0.18532702803406634, -2.2669791387997902e-05, -0.0010000716501052736, 8.419521911592222e-11, -1.2050242115795752e-09, -7.038307408806924e-08, -2.2669791387997797e-05, 0.18532956356329094, -0.0006544283892985764, 3.0095771596370927e-10, 2.039894662978852e-11, -8.044130426048891e-07, -0.0010000716501052734, -0.0006544283892985762, 0.07992922583023908, 1.9909109508494535e-10, 2.8462115779766015e-08, 1.913066850800079e-09, 8.419521911592448e-11, 3.0095771596359533e-10, 1.990910950849849e-10, 0.01762451519329931, 1.650581756910639e-05, 0.0012780112241434797, -1.2050242115799842e-09, 2.0398946629814056e-11, 2.8462115779767014e-08, 1.6505817569106384e-05, 0.017612974900704056, 0.0005862011083661891, -7.038307408806958e-08, -8.044130426048892e-07, 1.913066850800019e-09, 0.00127801122414348, 0.000586201108366189, 0.23719261309921955)"
2025/09/16/13:26:16.413338,81859,1758047176,413240433,odom,base_link,-2.796713895249624,0.18508932102984296,0.11622650938525261,0.01415303896074835,0.01963842803730889,0.9994569168587193,0.022358331236071324,"(0.003322981662868052, -7.804065892114486e-08, -1.909755278006378e-06, -4.33801840994799e-09, 8.271837540814796e-08, -9.683166084373999e-08, -7.804065892114619e-08, 0.0033229134900644546, -3.243593749434338e-06, -7.428899288175536e-08, -6.686618901123631e-09, 1.2864321196347991e-06, -1.909755278006378e-06, -3.2435937494343397e-06, 0.0019649760367838323, -4.394664809107521e-08, 3.6502221655129543e-07, -2.692789414278406e-09, -4.338018409947992e-09, -7.428899288175538e-08, -4.394664809107523e-08, 0.0009607921496954024, 1.7634373226581187e-07, -4.900375157908986e-06, 8.271837540814794e-08, -6.686618901123631e-09, 3.650222165512954e-07, 1.7634373226581184e-07, 0.0009609619937391331, -7.655963737189965e-06, -9.683166084374e-08, 1.2864321196347993e-06, -2.6927894142784054e-09, -4.900375157908984e-06, -7.655963737189965e-06, 0.00336981023198568)",-0.05588960616390403,-0.007152214075268044,-0.010776472177523894,0.010141480965318408,0.0009355157880207211,-0.017318748975752828,"(0.18850551956514106, -2.2745205623050992e-05, -0.0010047697384937037, 8.439066277169877e-11, -1.2054027048027062e-09, -7.050474398308058e-08, -2.2745205623050884e-05, 0.18850806808699458, -0.0006574451549804576, 3.0066336780299505e-10, 2.0664926574398954e-11, -8.05743461324975e-07, -0.0010047697384937032, -0.0006574451549804574, 0.08095537576058069, 1.9835531374632156e-10, 2.8528755998449488e-08, 1.9162004186617048e-09, 8.439066277170104e-11, 3.006633678028812e-10, 1.9835531374636142e-10, 0.01772503723462011, 1.650581756910639e-05, 0.0012780112241434797, -1.2054027048031152e-09, 2.0664926574424597e-11, 2.852875599845049e-08, 1.6505817569106384e-05, 0.017713496942024856, 0.0005862011083661891, -7.050474398308092e-08, -8.057434613249751e-07, 1.916200418661645e-09, 0.00127801122414348, 0.000586201108366189, 0.24221871516525958)"
2025/09/16/13:26:16.433400,81860,1758047176,428434849,odom,base_link,-2.7932245736527648,0.18712051178212352,0.10049105960175807,0.014961053465277931,0.021628968289754885,0.9994122967112573,0.021986718542328795,"(9.999985188534345e-10, -9.122277734236018e-21, -3.3765108213878025e-19, -8.93186703249249e-25, 1.0264995850480403e-24, 8.096757925626282e-24, -9.122277734236023e-21, 9.999985188446976e-10, -5.813542841442065e-19, -8.527725739262307e-24, -1.0154895799837116e-23, 7.39748752750927e-23, -3.3765108213878016e-19, -5.813542841442068e-19, 9.999975234915246e-10, -3.505739311761767e-25, 2.0761761478574997e-23, -5.081522589830371e-24, -8.931867032492506e-25, -8.527725739262285e-24, -3.5057393117616923e-25, 9.999950233701464e-10, 2.211513006661347e-19, -1.7115894897106558e-18, 1.0264995850481637e-24, -1.0154895799837127e-23, 2.076176147857548e-23, 2.211513006661346e-19, 9.999950236003934e-10, -2.7508076759216805e-18, 8.096757925626313e-24, 7.397487527509278e-23, -5.081522589830377e-24, -1.7115894897106556e-18, -2.7508076759216817e-18, 9.99998523485048e-10)",-0.0613944497376678,-0.012454935130107246,-0.030383543176126158,0.012352761868549104,5.0601672001778034e-05,-0.015557263236633073,"(0.1786234055586923, -2.702048441464805e-05, -0.0009886238649012215, 7.002404684134648e-11, -1.373772162076816e-09, -5.027606348754154e-08, -2.702048441464802e-05, 0.17861810421966565, -0.0007366131215023214, 4.1779593550924897e-10, -3.624026597064856e-10, -7.351182357698723e-07, -0.000988623864901221, -0.0007366131215023214, 0.0777760849301232, 3.9137147894457197e-11, 2.7249995338761805e-08, 1.6164159890637633e-09, 7.00240468413496e-11, 4.1779593550914536e-10, 3.9137147894473876e-11, 0.017410740554805248, 1.719177012031287e-05, 0.0012767796331381444, -1.3737721620771705e-09, -3.624026597064617e-10, 2.7249995338762705e-08, 1.7191770120312863e-05, 0.01739996854529984, 0.0006734919748226886, -5.0276063487541745e-08, -7.351182357698728e-07, 1.616415989063726e-09, 0.0012767796331381446, 0.0006734919748226886, 0.22650860890135066)"
2025/09/16/13:26:16.443347,81861,1758047176,441813946,odom,base_link,-2.79171896031073,0.18766739933046217,0.09583963969588566,0.0151253794407902,0.022120359368609573,0.999400224035353,0.02193410121846889,"(9.99999270049049e-10, -9.195019480716194e-21, -3.340054739377301e-19, -8.206053854281219e-25, 3.8403265700387004e-25, 7.731684102581536e-24, -9.195019480715929e-21, 9.999992700401533e-10, -5.755685857227821e-19, -7.568748329848643e-24, -9.679625827526792e-24, 6.981574313232592e-23, -3.3400547393773015e-19, -5.755685857227822e-19, 9.999987756645524e-10, 4.2443647318149716e-26, 1.7927785312885655e-23, -4.841399065064585e-24, -8.206053854281233e-25, -7.568748329848616e-24, 4.2443647318156575e-26, 9.999975278825936e-10, 2.204620849266217e-19, -1.6937738746878212e-18, 3.8403265700398984e-25, -9.679625827526804e-24, 1.792778531288613e-23, 2.204620849266216e-19, 9.999975281141645e-10, -2.7300846485972797e-18, 7.73168410258156e-24, 6.981574313232597e-23, -4.841399065064588e-24, -1.6937738746878209e-18, -2.73008464859728e-18, 9.999992745323917e-10)",-0.06293531613107334,-0.013835737003077551,-0.035876080435180535,0.012826864037308714,-0.00012878295040667881,-0.014960360157394981,"(0.17862385060341085, -2.851691144328239e-05, -0.0009896822783206688, 6.553944975783796e-11, -1.3454656812312022e-09, -4.774800650592033e-08, -2.8516911443282467e-05, 0.17861602378061925, -0.0007642317278836514, 3.6825311873889573e-10, -4.676300674044028e-10, -6.981638916204811e-07, -0.0009896822783206684, -0.0007642317278836516, 0.0777769434887406, 3.698311760541768e-11, 2.6659046005783646e-08, 1.761908920186189e-09, 6.553944975784097e-11, 3.682531187387954e-10, 3.698311760543426e-11, 0.017410734412277196, 1.7433352625160863e-05, 0.0012784747880130157, -1.3454656812315457e-09, -4.676300674043802e-10, 2.665904600578453e-08, 1.7433352625160856e-05, 0.017400217497094077, 0.000700459033308397, -4.774800650592053e-08, -6.981638916204816e-07, 1.7619089201861559e-09, 0.0012784747880130159, 0.000700459033308397, 0.22649351912911175)"
2025/09/16/13:26:16.455404,81862,1758047176,451779604,odom,base_link,-2.7905879025704823,0.188053846073168,0.09236658129730582,0.015279120688173064,0.0224531312145861,0.9993913584430957,0.02189333320717901,"(9.99999014132868e-10, -9.655911550899763e-21, -3.428850803357981e-19, -8.215130285971717e-25, 8.594749385247858e-25, 7.399492556323126e-24, -9.65591155089952e-21, 9.999990141233601e-10, -5.930268930121113e-19, -7.81989868129279e-24, -9.510957597079779e-24, 6.737744050339234e-23, -3.42885080335798e-19, -5.930268930121112e-19, 9.999983490494948e-10, -1.8328924473597418e-25, 1.8626712904485273e-23, -4.735630532901751e-24, -8.215130285971736e-25, -7.819898681292759e-24, -1.8328924473596694e-25, 9.999966745638124e-10, 2.3019715117838433e-19, -1.7318737068224943e-18, 8.594749385249033e-25, -9.510957597079788e-24, 1.8626712904485746e-23, 2.3019715117838423e-19, 9.999966748104493e-10, -2.8141754137464652e-18, 7.399492556323151e-24, 6.73774405033924e-23, -4.7356305329017555e-24, -1.7318737068224954e-18, -2.8141754137464663e-18, 9.999990186863092e-10)",-0.06408563706759589,-0.014818676471086945,-0.03993717297904118,0.013140587896930279,-0.000298447286126364,-0.014488650213701049,"(0.1786091634385752, -2.96677994727454e-05, -0.0009907588233427024, 6.228091578884067e-11, -1.324730213531829e-09, -4.594151525933419e-08, -2.9667799472745495e-05, 0.17859939985671364, -0.0007851882127757106, 3.3229089039599497e-10, -5.418707345467007e-10, -6.717571945638838e-07, -0.0009907588233427022, -0.0007851882127757109, 0.07777587900163785, 3.5438307330290796e-11, 2.622604499837391e-08, 1.8637429277570676e-09, 6.228091578884362e-11, 3.3229089039589705e-10, 3.543830733030731e-11, 0.017410538651201894, 1.76228721687418e-05, 0.0012801434674435375, -1.3247302135321648e-09, -5.418707345466788e-10, 2.6226044998374783e-08, 1.7622872168741794e-05, 0.017400221492951395, 0.0007208882594951317, -4.594151525933438e-08, -6.717571945638844e-07, 1.863742927757038e-09, 0.0012801434674435377, 0.0007208882594951317, 0.2264437627463812)"
2025/09/16/13:26:16.463313,81863,1758047176,463230371,odom,base_link,-2.789861807165775,0.18817074209508478,0.09187959777895942,0.015280619311414438,0.022529550260112875,0.9993878205885978,0.021975124520912055,"(0.0011685397554972257, -1.3348483700205106e-08, -2.8199930742645e-07, -3.2577795017425605e-13, 3.2692715649299887e-13, 9.712019427959255e-12, -1.3348483700205002e-08, 0.001168526573072847, -4.868715623741734e-07, -3.1030601414961903e-12, -3.805183045534234e-12, 8.843497925264833e-11, -2.819993074264499e-07, -4.868715623741735e-07, 0.0006973121857454186, -3.123936529511537e-14, 4.331099846708311e-12, -3.792911246651498e-12, -3.257779501742568e-13, -3.1030601414961794e-12, -3.123936529511363e-14, 0.0003458229058357769, 2.8770428277331295e-08, -7.090554530773414e-07, 3.2692715649304507e-13, -3.8051830455342376e-12, 4.331099846708425e-12, 2.87704282773313e-08, 0.00034585386643538717, -1.1540867854292017e-06, 9.712019427959287e-12, 8.843497925264838e-11, -3.792911246651503e-12, -7.090554530773415e-07, -1.1540867854292019e-06, 0.001174746735238183)",-0.06416048695380194,-0.014895130989611611,-0.04009390079435585,0.013140587896930279,-0.000298447286126364,-0.014488650213701049,"(0.18220330968247456, -2.978313520304251e-05, -0.0009960960106431263, 6.245604722238898e-11, -1.3254814633347718e-09, -4.603002793903843e-08, -2.9783135203042605e-05, 0.182193509671066, -0.000789501836649774, 3.320879435623212e-10, -5.426402117104537e-10, -6.730092105963033e-07, -0.000996096010643126, -0.0007895018366497744, 0.07892638671793595, 3.396590972533304e-11, 2.6292709945728517e-08, 1.867259249734157e-09, 6.245604722239194e-11, 3.3208794356222344e-10, 3.39659097253498e-11, 0.017525046326372792, 1.76228721687418e-05, 0.0012801434674435375, -1.3254814633351076e-09, -5.426402117104318e-10, 2.6292709945729394e-08, 1.7622872168741794e-05, 0.017514729168122294, 0.0007208882594951317, -4.603002793903862e-08, -6.730092105963038e-07, 1.867259249734128e-09, 0.0012801434674435377, 0.0007208882594951317, 0.23216914650492612)"
2025/09/16/13:26:16.483366,81864,1758047176,483244419,odom,base_link,-2.788590671672208,0.18837653514813785,0.09102393573657834,0.015283246623919892,0.02266311747202732,0.9993816067683847,0.022118081565166578,"(0.003325419088415366, -1.024981518851747e-07, -2.1561025828488865e-06, -1.510167762938209e-08, 2.997659590684037e-07, -2.549736469642699e-07, -1.0249815188517415e-07, 0.0033253197271938244, -3.7264503063572914e-06, -2.882703637738331e-07, -1.758037201575395e-08, 1.5615528119432049e-06, -2.156102582848887e-06, -3.726450306357293e-06, 0.001966187756914336, -9.175650546243247e-08, 4.4112751453988553e-07, -3.5119193590730284e-09, -1.510167762938208e-08, -2.882703637738332e-07, -9.175650546243246e-08, 0.0009613509754002368, 2.206090550580888e-07, -5.417362046918577e-06, 2.9976595906840373e-07, -1.7580372015753955e-08, 4.4112751453988553e-07, 2.2060905505808886e-07, 0.0009615894393240072, -8.834674438186292e-06, -2.549736469642698e-07, 1.561552811943205e-06, -3.5119193590730275e-09, -5.4173620469185765e-06, -8.834674438186292e-06, 0.0033727895778858097)",-0.06429131217445587,-0.015028760842146655,-0.040367835092194396,0.013140587896930279,-0.000298447286126364,-0.014488650213701049,"(0.1885206154518403, -2.9985302555728394e-05, -0.0010054605761830703, 6.27621480008768e-11, -1.326794523730958e-09, -4.6184733462853124e-08, -2.9985302555728492e-05, 0.18851075149721716, -0.0007970704409785652, 3.31733226065179e-10, -5.439851305184666e-10, -6.751975275331204e-07, -0.0010054605761830701, -0.0007970704409785656, 0.08096180925506007, 3.139240225160566e-11, 2.6409229247087778e-08, 1.8734051989380963e-09, 6.276214800087978e-11, 3.317332260650815e-10, 3.139240225162284e-11, 0.0177251868025996, 1.76228721687418e-05, 0.0012801434674435375, -1.3267945237312937e-09, -5.439851305184446e-10, 2.640922924708866e-08, 1.7622872168741794e-05, 0.0177148696443491, 0.0007208882594951317, -4.6184733462853316e-08, -6.751975275331209e-07, 1.873405198938067e-09, 0.0012801434674435377, 0.0007208882594951317, 0.24217617031626645)"
2025/09/16/13:26:16.503586,81865,1758047176,501772165,odom,base_link,-2.8006918436950357,0.17790658733737572,0.1512414278846585,0.017415368800595705,0.019954431219018517,0.9994183646869724,0.021481571885749288,"(9.999992670144948e-10, -1.0032687924674946e-20, -4.031486625309818e-19, -5.084367428960988e-25, -5.272166094463066e-25, 4.634788875877145e-24, -1.0032687924675047e-20, 9.999992670099951e-10, -4.954874305645897e-19, -6.479270995267596e-24, -7.912013971651437e-24, 6.365197355548819e-23, -4.03148662530982e-19, -4.954874305645895e-19, 9.999987706034371e-10, 7.236899379898131e-25, 1.6144672624955458e-23, -3.994119803103037e-24, -5.084367428961015e-25, -6.4792709952676195e-24, 7.236899379898337e-25, 9.999975178201692e-10, 2.367748981477541e-19, -2.0256741007582112e-18, -5.272166094461644e-25, -7.912013971651455e-24, 1.6144672624955852e-23, 2.367748981477542e-19, 9.999975179247972e-10, -2.4521342180539453e-18, 4.634788875877197e-24, 6.365197355548826e-23, -3.994119803103035e-24, -2.025674100758211e-18, -2.4521342180539453e-18, 9.999992715093214e-10)",-0.03870689881419996,0.010607452295856945,0.03501020772493218,0.009993568002085961,-0.0027760142566104562,-0.009095800501644002,"(0.17863988129442376, -3.513666725059171e-05, -0.0010027440758979295, 9.703940395611597e-11, -2.2873885490643068e-09, -1.8500558685269102e-08, -3.513666725059171e-05, 0.17862320719769534, -0.0008773487105740306, 1.2222488160177095e-09, -8.048141441117527e-10, -6.363823426748657e-07, -0.0010027440758979293, -0.000877348710574031, 0.07778285367579851, -3.274086786227148e-10, 2.54431941905449e-08, 1.246486152946493e-09, 9.703940395610588e-11, 1.22224881601774e-09, -3.2740867862267885e-10, 0.017411051811080325, 1.858025443674643e-05, 0.0012975378359095864, -2.28738854906473e-09, -8.04814144111746e-10, 2.544319419054562e-08, 1.8580254436746423e-05, 0.017401574212554873, 0.0008094953390009542, -1.850055868526957e-08, -6.363823426748669e-07, 1.2464861529465347e-09, 0.0012975378359095866, 0.0008094953390009542, 0.22646527438157812)"
2025/09/16/13:26:16.513412,81866,1758047176,511779547,odom,base_link,-2.7996199137642845,0.17815019155880818,0.14784683901352574,0.01761401199866208,0.02002114498658975,0.9994131438300952,0.02150042498144021,"(9.999990183148631e-10, -1.0361848402882227e-20, -4.128961143513462e-19, -4.85419938394669e-25, -6.526869911727907e-25, 4.482758579474139e-24, -1.0361848402881718e-20, 9.999990183104013e-10, -5.027227879394937e-19, -6.129200517966744e-24, -7.642104181468402e-24, 6.137229924197511e-23, -4.128961143513463e-19, -5.027227879394935e-19, 9.999983560176731e-10, 7.872667602861513e-25, 1.6527385045542634e-23, -3.853065576102794e-24, -4.854199383946717e-25, -6.1292005179667656e-24, 7.872667602861714e-25, 9.999966885667874e-10, 2.4392104226699956e-19, -2.0706623588019063e-18, -6.52686991172651e-25, -7.642104181468411e-24, 1.652738504554301e-23, 2.4392104226699956e-19, 9.999966886718104e-10, -2.491855455732801e-18, 4.4827585794741916e-24, 6.137229924197523e-23, -3.853065576102792e-24, -2.0706623588019055e-18, -2.491855455732802e-18, 9.999990228792443e-10)",-0.0401984460083389,0.0095270264104214,0.03040413796892684,0.01001755496324087,-0.002987855665649987,-0.008906523959803082,"(0.17862428258932597, -3.61977172542184e-05, -0.0010077510492684434, 9.384846788563469e-11, -2.243817007076999e-09, -1.7794221875240906e-08, -3.619771725421847e-05, 0.1786071860768125, -0.0008917500402372714, 1.1549462102938678e-09, -8.460629496819569e-10, -6.122062564427567e-07, -0.0010077510492684431, -0.0008917500402372718, 0.07778170517257045, -3.2362978321079037e-10, 2.5026395619823137e-08, 1.3246973719328461e-09, 9.384846788562478e-11, 1.1549462102938978e-09, -3.2362978321075485e-10, 0.017410926041504234, 1.877029069437503e-05, 0.0013046766475316041, -2.2438170070774124e-09, -8.460629496819507e-10, 2.502639561982385e-08, 1.8770290694375023e-05, 0.01740153377868281, 0.0008231645115714925, -1.7794221875241353e-08, -6.122062564427579e-07, 1.3246973719328883e-09, 0.0013046766475316043, 0.0008231645115714925, 0.22641591126125937)"
2025/09/16/13:26:16.523332,81867,1758047176,523231745,odom,base_link,-2.7991521348219623,0.17803501317164164,0.14818404397443644,0.017631325904088276,0.020079002377701546,0.9994105944138119,0.021550725830263427,"(0.0011686879462502599, -1.415579378809252e-08, -3.3949102220303854e-07, -1.9905192780628717e-13, -1.5636785679050325e-13, 5.870256472180063e-12, -1.4155793788092704e-08, 0.0011686821819106023, -4.076096069598091e-07, -2.549626594057567e-12, -3.028126610300132e-12, 8.060169994865426e-11, -3.3949102220303844e-07, -4.0760960695980885e-07, 0.000697398395006139, 1.6395760972105654e-13, 3.869744833419842e-12, -3.0511515256850995e-12, -1.990519278062882e-13, -2.549626594057576e-12, 1.6395760972106129e-13, 0.00034587371685299446, 3.01860568277793e-08, -8.486903592709065e-07, -1.5636785679044847e-13, -3.028126610300138e-12, 3.8697448334199344e-12, 3.01860568277793e-08, 0.00034588604567011293, -1.0105188218687092e-06, 5.870256472180132e-12, 8.060169994865439e-11, -3.051151525685099e-12, -8.486903592709064e-07, -1.010518821868709e-06, 0.0011749141409309858)",-0.04022376041551678,0.009500996299753947,0.030558011990112738,0.01001755496324087,-0.002987855665649987,-0.008906523959803082,"(0.18221890162094945, -3.6339900189976345e-05, -0.0010132045931125402, 9.40851738104273e-11, -2.246495904510415e-09, -1.7825240112709042e-08, -3.633990018997642e-05, 0.18220173841628434, -0.0008967443097020084, 1.1564849847106745e-09, -8.473879694891924e-10, -6.133400099713167e-07, -0.0010132045931125397, -0.0008967443097020089, 0.07893239448573292, -3.265829255891869e-10, 2.508793676562503e-08, 1.3258680543830188e-09, 9.408517381041739e-11, 1.1564849847107046e-09, -3.2658292558915115e-10, 0.017525448021789878, 1.877029069437503e-05, 0.0013046766475316041, -2.2464959045108284e-09, -8.47387969489186e-10, 2.5087936765625744e-08, 1.8770290694375023e-05, 0.017516055758968453, 0.0008231645115714925, -1.7825240112709492e-08, -6.133400099713179e-07, 1.3258680543830612e-09, 0.0013046766475316043, 0.0008231645115714925, 0.2321420102755416)"
2025/09/16/13:26:16.543372,81868,1758047176,543202877,odom,base_link,-2.798335513963612,0.17783499241895323,0.14877623697043155,0.017661522738943426,0.02017989667412859,0.999406133760199,0.02163844234815417,"(0.0033207900416815984, -1.0784205958977891e-07, -2.5895296631370542e-06, 1.0998446211658183e-08, -2.0757746711964892e-07, 2.469699212147672e-07, -1.0784205958978148e-07, 0.0033207467637051766, -3.1110016810700848e-06, 2.1478400147170048e-07, 6.87622008041202e-09, 1.0008242855866564e-06, -2.589529663137056e-06, -3.111001681070085e-06, 0.0019634736696979016, 5.738508182813161e-08, 2.886024767583261e-07, -2.692048703740632e-09, 1.0998446211658188e-08, 2.1478400147170048e-07, 5.73850818281316e-08, 0.0009601179974739012, 2.3091197306035473e-07, -6.490158632095365e-06, -2.0757746711964897e-07, 6.8762200804120195e-09, 2.886024767583262e-07, 2.3091197306035475e-07, 0.0009602115694145161, -7.713295977860299e-06, 2.469699212147672e-07, 1.0008242855866564e-06, -2.6920487037406315e-09, -6.490158632095364e-06, -7.713295977860297e-06, 0.0033681716273669757)",-0.04026790542357889,0.009455603198616021,0.030826348114204774,0.01001755496324087,-0.002987855665649987,-0.008906523959803082,"(0.18852265636033483, -3.6588557715557604e-05, -0.0010227515749485386, 9.44979579173152e-11, -2.2511675505009652e-09, -1.7879331853174516e-08, -3.658855771555768e-05, 0.18850537643687787, -0.0009054871590578152, 1.1591684056005402e-09, -8.496986303575998e-10, -6.153171275197164e-07, -0.0010227515749485381, -0.0009054871590578157, 0.08096348663229973, -3.3173281881745003e-10, 2.5195256457470296e-08, 1.3279095711302962e-09, 9.449795791730529e-11, 1.1591684056005706e-09, -3.317328188174138e-10, 0.0177251593445743, 1.877029069437503e-05, 0.0013046766475316041, -2.251167550501379e-09, -8.496986303575932e-10, 2.5195256457471017e-08, 1.8770290694375023e-05, 0.017715767081752876, 0.0008231645115714925, -1.7879331853174966e-08, -6.153171275197175e-07, 1.3279095711303388e-09, 0.0013046766475316043, 0.0008231645115714925, 0.2421275764147628)"
2025/09/16/13:26:16.563386,81869,1758047176,561770678,odom,base_link,-2.794357300384027,0.17906634487668927,0.13081679329166068,0.018108069145447027,0.019717446107842256,0.999406591466519,0.02167452615589297,"(9.999992669612663e-10, -1.072385277333554e-20, -4.2287868046953866e-19, -5.92081095844717e-25, -2.8088650006858915e-25, 5.115004530493984e-24, -1.0723852773335452e-20, 9.999992669577173e-10, -4.85230856259199e-19, -6.137675708400876e-24, -6.836203813889646e-24, 5.568916541080773e-23, -4.2287868046953885e-19, -4.852308562591991e-19, 9.999987705154505e-10, 5.6402166439704245e-25, 1.555094198910449e-23, -3.575393724599304e-24, -5.920810958447181e-25, -6.1376757084009214e-24, 5.640216643970573e-25, 9.999975176597904e-10, 2.47328483380915e-19, -2.1237396061919835e-18, -2.8088650006846214e-25, -6.836203813889662e-24, 1.5550941989104896e-23, 2.4732848338091495e-19, 9.999975177443008e-10, -2.4438554017373297e-18, 5.11500453049403e-24, 5.56891654108078e-23, -3.5753937245993145e-24, -2.123739606191984e-18, -2.4438554017373297e-18, 9.999992714553272e-10)",-0.04726619473830192,0.004902871863182304,0.007826689432970891,0.0093942832816218,-0.00347638022812737,-0.008277837928131356,"(0.1786502802953009, -4.115463022373431e-05, -0.0010334989481244124, 5.43977807154754e-11, -1.1978635476847483e-09, -2.6964705248972135e-08, -4.115463022373405e-05, 0.17863166450077983, -0.0009585475354081739, 1.1392830652746714e-11, -1.0384313083346312e-09, -5.562787441179025e-07, -0.0010334989481244122, -0.0009585475354081745, 0.07778819628918579, -1.4160710803106107e-10, 2.3864095458099024e-08, 1.0584991457200649e-09, 5.4397780715459084e-11, 1.1392830652845118e-11, -1.4160710803103964e-10, 0.017411701931411915, 1.9739282737639696e-05, 0.0013408409314291999, -1.1978635476851207e-09, -1.038431308334618e-09, 2.3864095458099772e-08, 1.973928273763969e-05, 0.017402696414012934, 0.0008857956737709807, -2.6964705248972526e-08, -5.562787441179036e-07, 1.0584991457200314e-09, 0.0013408409314292, 0.0008857956737709807, 0.22643639421009965)"
2025/09/16/13:26:16.573420,81870,1758047176,571772337,odom,base_link,-2.793302774999041,0.1792042998467284,0.127378767528022,0.018199611070650525,0.019537163041466195,0.9994070748627387,0.021738724237455882,"(9.999990177438256e-10, -1.0818610958844183e-20, -4.2985169370782655e-19, -5.7607065338652515e-25, -1.6432022999144178e-25, 4.94298340103811e-24, -1.0818610958844326e-20, 9.999990177406553e-10, -4.815711367146236e-19, -6.004411200963199e-24, -6.494739783714943e-24, 5.373247748647421e-23, -4.2985169370782665e-19, -4.815711367146233e-19, 9.999983550651883e-10, 5.726670099346517e-25, 1.6032031051910724e-23, -3.39033467932717e-24, -5.760706533865262e-25, -6.004411200963245e-24, 5.726670099346667e-25, 9.999966866781684e-10, 2.4899685653018866e-19, -2.1584385587389432e-18, -1.6432022999131748e-25, -6.4947397837149584e-24, 1.6032031051911118e-23, 2.4899685653018847e-19, 9.999966867536792e-10, -2.437480066036645e-18, 4.942983401038152e-24, 5.373247748647433e-23, -3.3903346793271816e-24, -2.158438558738942e-18, -2.4374800660366465e-18, 9.99999022308358e-10)",-0.048609219527469515,0.004112898370164055,0.003405887324587001,0.009134250828624403,-0.003566791071652696,-0.00823087386048997,"(0.17863415779252126, -4.2071993010976904e-05, -0.0010389988541053563, 5.1479249525319116e-11, -1.1781101563917789e-09, -2.5937787354760505e-08, -4.2071993010976545e-05, 0.1786154462868969, -0.0009705227762229999, -2.6704007050962767e-11, -1.0622440976250533e-09, -5.351492758426107e-07, -0.001038998854105356, -0.0009705227762230005, 0.07778699540453628, -1.40358975959384e-10, 2.347094327655072e-08, 1.124772076564477e-09, 5.147924952530313e-11, -2.670400705086669e-11, -1.4035897595936286e-10, 0.017411595385338336, 1.993283979619418e-05, 0.001348533404600015, -1.1781101563921426e-09, -1.0622440976250407e-09, 2.3470943276551457e-08, 1.9932839796194172e-05, 0.01740264884812977, 0.0008969299648434192, -2.5937787354760882e-08, -5.351492758426117e-07, 1.1247720765644461e-09, 0.0013485334046000152, 0.0008969299648434192, 0.22638730890613692)"
2025/09/16/13:26:16.583316,81871,1758047176,583194256,odom,base_link,-2.7927487607724637,0.17913457737421135,0.12739992400982447,0.01822018691566874,0.019589709117830444,0.9994046604476106,0.021785150011716138,"(0.0011655367324540956, -1.4423079856435015e-08, -3.483872537223437e-07, -2.3066461271758085e-13, -2.118370674796034e-15, 6.4550883543904675e-12, -1.4423079856435445e-08, 0.0011655329603600638, -3.822609878890391e-07, -2.4295072158765054e-12, -2.526189363482203e-12, 7.018269880946365e-11, -3.483872537223439e-07, -3.8226098788903913e-07, 0.0006955268983041439, 1.2076499111617356e-13, 3.71806526304826e-12, -2.6374853194943113e-12, -2.3066461271758115e-13, -2.429507215876523e-12, 1.2076499111617697e-13, 0.00034495487808391473, 3.0049289862468934e-08, -8.734240943512304e-07, -2.1183706747473184e-15, -2.526189363482209e-12, 3.7180652630483555e-12, 3.004928986246893e-08, 0.00034496294472231213, -9.700678540672454e-07, 6.455088354390522e-12, 7.018269880946376e-11, -2.637485319494319e-12, -8.734240943512302e-07, -9.700678540672452e-07, 0.001171730750535571)",-0.04865133537797594,0.004076165457337147,0.003437632868873171,0.009134250828624403,-0.003566791071652696,-0.00823087386048997,"(0.18221925944028478, -4.2237587565727974e-05, -0.001044641965644484, 5.162809216359298e-11, -1.178655999409273e-09, -2.5985596518858918e-08, -4.2237587565727615e-05, 0.18220047499019998, -0.0009759927807415975, -2.750976802311992e-11, -1.0639536512366188e-09, -5.361271510050921e-07, -0.0010446419656444839, -0.0009759927807415983, 0.07893466203653474, -1.4239832427240824e-10, 2.352577655930416e-08, 1.1250940246725772e-09, 5.162809216357698e-11, -2.7509768023023786e-11, -1.4239832427238694e-10, 0.017525814574028523, 1.993283979619418e-05, 0.001348533404600015, -1.1786559994096366e-09, -1.063953651236606e-09, 2.35257765593049e-08, 1.9932839796194172e-05, 0.017516868036819958, 0.0008969299648434192, -2.59855965188593e-08, -5.361271510050932e-07, 1.1250940246725462e-09, 0.0013485334046000152, 0.0008969299648434192, 0.2320982683406462)"
2025/09/16/13:26:16.593364,81872,1758047176,593240976,odom,base_link,-2.792261031643063,0.1790735468548106,0.12741879074777918,0.018238285081559513,0.019635928664754006,0.9994025323120311,0.02182598614166326,"(0.0022297727208472236, -5.131505902797138e-08, -1.2399029125527794e-06, 9.412680984004848e-10, -6.651298188981602e-09, 7.314902719823969e-08, -5.1315059027971307e-08, 0.0022297595547006374, -1.3612614705224808e-06, 1.1744615193007654e-08, -6.066217830349197e-10, 5.84344518811263e-07, -1.2399029125527796e-06, -1.3612614705224808e-06, 0.0013243802979109568, 1.3665870818959183e-08, 1.700240191544403e-07, -9.671094054369248e-10, 9.412680984004848e-10, 1.1744615193007657e-08, 1.3665870818959188e-08, 0.0006521859514162187, 1.0712590632312928e-07, -3.1191352732600216e-06, -6.651298188981601e-09, -6.066217830349196e-10, 1.7002401915444024e-07, 1.0712590632312928e-07, 0.0006522140792552973, -3.4536731883542493e-06, 7.31490271982397e-08, 5.843445188112629e-07, -9.67109405436925e-10, -3.119135273260021e-06, -3.4536731883542493e-06, 0.0022517952145236332)",-0.04868838048254291,0.004043855185067686,0.003465556251482704,0.009134250828624403,-0.003566791071652696,-0.00823087386048997,"(0.1853848124856469, -4.238352797792569e-05, -0.0010496187375520296, 5.1759014156918014e-11, -1.1791361229593636e-09, -2.6027649462394165e-08, -4.238352797792533e-05, 0.185365963720635, -0.0009808168021196223, -2.821851542132332e-11, -1.0654573746932694e-09, -5.369872900551642e-07, -0.0010496187375520294, -0.000980816802119623, 0.07995254372887846, -1.4419213516773728e-10, 2.3574007918018903e-08, 1.125377210247279e-09, 5.1759014156902e-11, -2.8218515421227135e-11, -1.4419213516771585e-10, 0.01762628177907613, 1.993283979619418e-05, 0.001348533404600015, -1.1791361229597269e-09, -1.0654573746932566e-09, 2.3574007918019647e-08, 1.9932839796194172e-05, 0.017617335241867565, 0.0008969299648434192, -2.6027649462394545e-08, -5.369872900551653e-07, 1.1253772102472479e-09, 0.0013485334046000152, 0.0008969299648434192, 0.23712162859302657)"
2025/09/16/13:26:16.613336,81873,1758047176,613208771,odom,base_link,-2.7912905058802626,0.17895311938521474,0.12745701777888632,0.018274258694642068,0.019727788030629988,0.9993982903781944,0.021907145814141066,"(0.004456108486193487, -1.9405548447866902e-07, -4.69602048537033e-06, 4.0737514346581405e-09, -3.283437124555757e-08, 3.5961293739978784e-07, -1.940554844786689e-07, 0.004456061169207089, -5.1584988673971204e-06, 5.3234936801420454e-08, -6.822261664963071e-09, 2.8904263110939628e-06, -4.6960204853703254e-06, -5.158498867397121e-06, 0.0026227248781132747, 6.485002451104744e-08, 8.153164265794344e-07, -8.869969356562549e-09, 4.073751434658141e-09, 5.323493680142047e-08, 6.485002451104744e-08, 0.001273472248226771, 4.0710037374927784e-07, -1.1818417831029725e-05, -3.283437124555756e-08, -6.82226166496307e-09, 8.153164265794344e-07, 4.071003737492778e-07, 0.0012735791124798695, -1.3088074922737716e-05, 3.596129373997878e-07, 2.8904263110939628e-06, -8.86996935656255e-09, -1.1818417831029723e-05, -1.308807492273772e-05, 0.0045395340974952025)",-0.048762007397101605,0.003979638720205215,0.0035210538004736866,0.009134250828624403,-0.003566791071652696,-0.00823087386048997,"(0.19171002033733708, -4.2674371194533164e-05, -0.0010595464149947313, 5.201922080308819e-11, -1.1800903655242945e-09, -2.6111229425706548e-08, -4.26743711945328e-05, 0.19169104332174405, -0.000990439539571979, -2.9627146460193086e-11, -1.068446015696092e-09, -5.386968110590463e-07, -0.0010595464149947308, -0.0009904395395719798, 0.08199901604262126, -1.4775732314786738e-10, 2.3669867443012816e-08, 1.125940039812927e-09, 5.201922080307215e-11, -2.96271464600968e-11, -1.477573231478457e-10, 0.01782595972325948, 1.993283979619418e-05, 0.001348533404600015, -1.1800903655246576e-09, -1.068446015696079e-09, 2.3669867443013567e-08, 1.9932839796194172e-05, 0.017817013186050914, 0.0008969299648434192, -2.611122942570693e-08, -5.386968110590474e-07, 1.1259400398128958e-09, 0.0013485334046000152, 0.0008969299648434192, 0.24710552580219405)"
2025/09/16/13:26:16.623380,81874,1758047176,621768951,odom,base_link,-2.788072348143181,0.17972986388421355,0.11015259273279455,0.018258522022595054,0.017963515288672426,0.9994235474808763,0.022282532009735685,"(9.99998516062243e-10, -1.0286657507085164e-20, -4.3302769046234386e-19, -7.966569565812889e-25, 6.411903760762512e-25, 6.471535272820137e-24, -1.028665750708508e-20, 9.999985160611108e-10, -4.2738369673037715e-19, -8.003587638997218e-24, -7.09756366438315e-24, 6.309532121779908e-23, -4.330276904623437e-19, -4.273836967303766e-19, 9.999975188352157e-10, 6.201463752965222e-25, 1.8495170068571083e-23, -4.0026844100382415e-24, -7.966569565812869e-25, -8.00358763899724e-24, 6.2014637529654345e-25, 9.99995014153256e-10, 2.3197941047359604e-19, -2.1903820188549426e-18, 6.411903760763741e-25, -7.09756366438314e-24, 1.84951700685716e-23, 2.3197941047359604e-19, 9.999950141767897e-10, -2.238418067212246e-18, 6.4715352728201584e-24, 6.30953212177991e-23, -4.002684410038253e-24, -2.1903820188549434e-18, -2.238418067212246e-18, 9.999985207023122e-10)",-0.055142670493416826,0.0006562162075637554,-0.018365447836254604,0.007066575098490579,-0.003576143296499803,-0.008842326858009827,"(0.17863731643268477, -4.6024716811484625e-05, -0.0010653068453776561, 3.1661958575184456e-11, -7.613828427338189e-10, -3.681141490894967e-08, -4.602471681148459e-05, 0.17861882059660467, -0.001022835238258746, -5.035461751114528e-10, -1.1823618479435128e-09, -6.259977231126169e-07, -0.001065306845377656, -0.001022835238258747, 0.07779051375778011, 3.741782181467655e-11, 2.4498545758930685e-08, -3.373208369842649e-10, 3.1661958575168617e-11, -5.035461751113836e-10, 3.741782181471016e-11, 0.017412127893021528, 2.0865467256895035e-05, 0.0013848756346658735, -7.613828427341603e-10, -1.182361847943539e-09, 2.449854575893162e-08, 2.086546725689503e-05, 0.017403412214282966, 0.0009448279542109096, -3.681141490894986e-08, -6.259977231126169e-07, -3.3732083698437096e-10, 0.0013848756346658737, 0.0009448279542109097, 0.22636439172520814)"
2025/09/16/13:26:16.633360,81875,1758047176,633212090,odom,base_link,-2.787450245921528,0.17968669502248702,0.10992007227717646,0.018278965582232916,0.018004390628909017,0.9994213179670403,0.022332723263172153,"(0.0011677461593608365, -1.3527148745378305e-08, -3.467496941205976e-07, -3.1082424020576615e-13, 1.5053423922061705e-13, 8.467463251533453e-12, -1.3527148745378555e-08, 0.0011677450380510597, -3.353413160048401e-07, -3.0618501015001336e-12, -2.750094797549415e-12, 8.233923854752117e-11, -3.467496941205976e-07, -3.353413160048401e-07, 0.0006968355704253174, 1.2868479945436658e-13, 3.942533913617e-12, -3.1134979511842262e-12, -3.108242402057653e-13, -3.0618501015001425e-12, 1.286847994543716e-13, 0.00034560002300261554, 2.7546758331990227e-08, -8.769831823006549e-07, 1.5053423922066541e-13, -2.750094797549408e-12, 3.942533913617121e-12, 2.7546758331990223e-08, 0.0003456019098150017, -8.818909782554286e-07, 8.46746325153348e-12, 8.233923854752117e-11, -3.113497951184236e-12, -8.769831823006548e-07, -8.818909782554285e-07, 0.0011739661662671114)",-0.05519780118046922,0.0006126698695707579,-0.01843005476395843,0.007066575098490579,-0.003576143296499803,-0.008842326858009827,"(0.1822290964745043, -4.62064388654031e-05, -0.0010711293899711427, 3.177055284099658e-11, -7.611226637604199e-10, -3.6881596164727476e-08, -4.620643886540307e-05, 0.1822105286396213, -0.0010286322508833753, -5.052580926599965e-10, -1.1842766796359525e-09, -6.271663931142033e-07, -0.0010711293899711427, -0.0010286322508833762, 0.07894034932421903, 3.622653736148072e-11, 2.4558316560496156e-08, -3.4390437107152335e-10, 3.177055284098073e-11, -5.052580926599273e-10, 3.6226537361514574e-11, 0.017526559274247115, 2.0865467256895035e-05, 0.0013848756346658735, -7.611226637607611e-10, -1.1842766796359788e-09, 2.4558316560497095e-08, 2.086546725689503e-05, 0.017517843595508554, 0.0009448279542109096, -3.688159616472767e-08, -6.271663931142033e-07, -3.439043710716291e-10, 0.0013848756346658737, 0.0009448279542109097, 0.23208596078648744)"
2025/09/16/13:26:16.659275,81876,1758047176,659201622,odom,base_link,-2.786035046975284,0.1795901111583066,0.10938902996845888,0.018325402613705584,0.018097223017413358,0.9994162371884822,0.02244671428336892,"(0.0039971060707659845, -1.4674952802441059e-07, -3.7677895529679973e-06, -7.504074225493914e-09, 1.8583663737055765e-07, 1.1851202534182619e-07, -1.467495280244121e-07, 0.003997096335312211, -3.6467799604096845e-06, -1.7235121046473564e-07, -1.2647200938544246e-08, 1.7590364698513914e-06, -3.767789552967996e-06, -3.6467799604096833e-06, 0.0023570272941710593, 1.1352893210630535e-08, 4.975774076497738e-07, -4.213423748342238e-09, -7.504074225493916e-09, -1.723512104647356e-07, 1.1352893210630535e-08, 0.0011477295986538642, 3.003890010572717e-07, -9.559515554421165e-06, 1.8583663737055768e-07, -1.2647200938544246e-08, 4.975774076497738e-07, 3.003890010572717e-07, 0.0011477485817708885, -9.59120915628662e-06, 1.1851202534182619e-07, 1.759036469851391e-06, -4.213423748342236e-09, -9.559515554421163e-06, -9.59120915628662e-06, 0.004064421686425734)",-0.055323013405117256,0.000513767894157376,-0.018576789324653873,0.007066575098490579,-0.003576143296499803,-0.008842326858009827,"(0.19044129895585196, -4.6620559711238414e-05, -0.0010844142680957664, 3.201719097183349e-11, -7.605317480688565e-10, -3.7040991079508436e-08, -4.6620559711238373e-05, 0.19042256692031015, -0.0010418583365277615, -5.091461814201359e-10, -1.1886256248215818e-09, -6.298206638770363e-07, -0.0010844142680957664, -0.0010418583365277624, 0.08158974293138127, 3.35209048989011e-11, 2.469406736341825e-08, -3.5885682302134976e-10, 3.2017190971817605e-11, -5.091461814200667e-10, 3.3520904898935515e-11, 0.017786454598954147, 2.0865467256895035e-05, 0.0013848756346658735, -7.605317480691971e-10, -1.188625624821608e-09, 2.46940673634192e-08, 2.086546725689503e-05, 0.017777738920215586, 0.0009448279542109096, -3.704099107950863e-08, -6.298206638770363e-07, -3.5885682302145476e-10, 0.0013848756346658737, 0.0009448279542109097, 0.245080727021839)"
2025/09/16/13:26:16.673424,81877,1758047176,668441534,odom,base_link,-2.7965810107880733,0.17269227973019904,0.15848613689703392,0.015747230267551,0.012529552910481702,0.9995212044641418,0.023503124671318765,"(9.999985185941649e-10, -9.156465135551786e-21, -4.17786736613848e-19, -7.977025283320987e-25, 1.9612227871591078e-24, 6.027988464808151e-24, -9.156465135551686e-21, 9.999985185947993e-10, -3.58676802160238e-19, -9.044523455641445e-24, -6.365085259863119e-24, 6.310921291070635e-23, -4.1778673661384806e-19, -3.586768021602378e-19, 9.999975230356616e-10, 4.0746729174644214e-25, 1.8646028484802498e-23, -3.626996138351447e-24, -7.977025283320957e-25, -9.044523455641433e-24, 4.074672917464616e-25, 9.99995022552782e-10, 2.0145139198302791e-19, -2.1405414796880158e-18, 1.9612227871592305e-24, -6.3650852598630836e-24, 1.8646028484803004e-23, 2.014513919830279e-19, 9.999950225304106e-10, -1.96568480570708e-18, 6.027988464808152e-24, 6.310921291070608e-23, -3.626996138351452e-24, -2.1405414796880166e-18, -1.9656848057070803e-18, 9.999985232501027e-10)",-0.03213565288135825,0.017435260903000918,0.04444722961754195,0.0005505523459849159,-0.0007359582522734348,-0.011416000969496376,"(0.17873033893482593, -4.817844473028629e-05, -0.0010869057796388361, 4.4648501545662993e-11, -1.40718524537365e-09, -3.175824037453616e-08, -4.8178444730285935e-05, 0.178714034554038, -0.0010521204179235872, 7.220510433605442e-11, -1.208901604509062e-09, -6.251599971169212e-07, -0.001086905779638836, -0.0010521204179235882, 0.07780378222669028, -7.499281030510061e-12, 2.427825972071484e-08, -6.367727339132179e-10, 4.464850154565129e-11, 7.220510433613029e-11, -7.499281030477478e-12, 0.017413873540504277, 2.1566931917216396e-05, 0.0014141654692760896, -1.407185245373984e-09, -1.2089016045090551e-09, 2.4278259720715758e-08, 2.156693191721639e-05, 0.017405160851845094, 0.0009701557346195786, -3.175824037453629e-08, -6.251599971169182e-07, -6.367727339133537e-10, 0.0014141654692760898, 0.0009701557346195786, 0.22658171909935057)"
2025/09/16/13:26:16.683351,81878,1758047176,681772470,odom,base_link,-2.7953581815745223,0.1726676075100201,0.154019734511905,0.015527389078661018,0.011851202709108862,0.9995275265482582,0.023731263242161193,"(9.999992673603342e-10, -6.5195284752473556e-21, -3.3573700456561907e-19, -5.448135168237573e-25, -8.4129217330004e-25, 5.908175723955404e-24, -6.519528475247454e-21, 9.999992673615963e-10, -2.3196261605810183e-19, -5.001706795702646e-24, -4.466836077937255e-24, 5.934748560531063e-23, -3.3573700456561956e-19, -2.319626160581017e-19, 9.999987711420585e-10, 9.409967798782794e-25, 1.4732329633668366e-23, -2.6963406154527512e-24, -5.448135168237547e-25, -5.001706795702643e-24, 9.409967798782991e-25, 9.999975188996945e-10, 1.2981489020943276e-19, -1.7940277488489716e-18, -8.412921732999231e-25, -4.466836077937233e-24, 1.4732329633668863e-23, 1.2981489020943276e-19, 9.999975188483487e-10, -1.4215953680417709e-18, 5.908175723955405e-24, 5.934748560531036e-23, -2.6963406154527575e-24, -1.7940277488489716e-18, -1.4215953680417703e-18, 9.999992718699472e-10)",-0.033867651887339714,0.016695420060016515,0.038251570118056084,-0.00024221707954107325,-0.0004981397654897679,-0.01184577679799105,"(0.1787255371377137, -4.7657398876723746e-05, -0.0010870992436239173, 4.1930154133758e-11, -1.3711013124310085e-09, -3.016881312570207e-08, -4.765739887672347e-05, 0.17871052077985078, -0.0010475977443061605, 4.017503352033171e-11, -1.1835662566762354e-09, -5.938801358880254e-07, -0.0010870992436239168, -0.0010475977443061616, 0.07780310500263934, -8.688299934195474e-12, 2.3747830105843838e-08, -5.598757693045073e-10, 4.1930154133746635e-11, 4.017503352040537e-11, -8.688299934163426e-12, 0.017413870067075732, 2.158494426666177e-05, 0.0014141754279913285, -1.371101312431332e-09, -1.1835662566762288e-09, 2.3747830105844738e-08, 2.1584944266661765e-05, 0.017405092108236438, 0.00096483264739907, -3.01688131257022e-08, -5.938801358880225e-07, -5.598757693046352e-10, 0.0014141754279913287, 0.00096483264739907, 0.22657767024782535)"
2025/09/16/13:26:16.693455,81879,1758047176,693223476,odom,base_link,-2.7949660425978826,0.17246829180179624,0.15445133112328024,0.015529403145041493,0.011850801870896058,0.9995258868682447,0.02379910950486485,"(0.0011685804610742968, -8.366845181387887e-09, -2.6897532986979057e-07, -2.1146863345454132e-13, -3.349521007983538e-13, 7.833204076126524e-12, -8.366845181388034e-09, 0.001168582501514972, -1.7290821428017903e-07, -1.926427186173893e-12, -1.6589254905733636e-12, 7.806415452239194e-11, -2.68975329869791e-07, -1.729082142801789e-07, 0.0006973133534929303, 2.4213426749985937e-13, 3.5603011037046907e-12, -2.024015653985975e-12, -2.1146863345454013e-13, -1.9264271861738916e-12, 2.4213426749986397e-13, 0.0003458308985794848, 1.4877883613737478e-08, -7.204925202353829e-07, -3.349521007983078e-13, -1.658925490573355e-12, 3.560301103704807e-12, 1.4877883613737478e-08, 0.00034582364372025206, -5.440156687402816e-07, 7.83320407612652e-12, 7.806415452239158e-11, -2.0240156539859794e-12, -7.204925202353829e-07, -5.440156687402816e-07, 0.0011748291757340652)",-0.03387889927993572,0.016684974487149087,0.03843771471354663,-0.00024221707954107325,-0.0004981397654897679,-0.01184577679799105,"(0.1823199310589462, -4.784536795598219e-05, -0.00109306286084051, 4.2059044078075405e-11, -1.3721501157262864e-09, -3.0225436466467934e-08, -4.7845367955981914e-05, 0.18230485717029282, -0.001053530711485975, 3.965260288813214e-11, -1.1854556677504692e-09, -5.949869062573673e-07, -0.0010930628608405097, -0.001053530711485976, 0.07895375620885507, -1.0011474847445032e-11, 2.380461254017915e-08, -5.671977888759096e-10, 4.205904407806404e-11, 3.9652602888205813e-11, -1.0011474847412753e-11, 0.01752838012643242, 2.158494426666177e-05, 0.0014141754279913285, -1.3721501157266096e-09, -1.1854556677504624e-09, 2.3804612540180054e-08, 2.1584944266661765e-05, 0.017519602167593126, 0.00096483264739907, -3.022543646646806e-08, -5.949869062573645e-07, -5.671977888760371e-10, 0.0014141754279913287, 0.00096483264739907, 0.23230317321565983)"
2025/09/16/13:26:16.703329,81880,1758047176,703241110,odom,base_link,-2.794622846791129,0.1722940122179831,0.15483064334692836,0.015531165038367272,0.011850451171553502,0.9995244486553516,0.02385846306444137,"(0.002229827755445874, -2.9493254717191038e-08, -9.521971017330002e-07, 7.94227690651087e-09, -1.3196022811618278e-07, 2.0966238645782518e-07, -2.9493254717191e-08, 0.0022298351277754754, -6.122933978237442e-07, 1.3489483788158396e-07, 5.999306881014592e-09, 4.1185086536503397e-07, -9.521971017330007e-07, -6.122933978237434e-07, 0.0013243411405360716, 5.479630271439985e-08, 1.2216615602071903e-07, -5.777631238597798e-10, 7.942276906510872e-09, 1.348948378815839e-07, 5.4796302714399857e-08, 0.000652155684231119, 5.268152837508635e-08, -2.5507471321922094e-06, -1.3196022811618278e-07, 5.999306881014593e-09, 1.2216615602071903e-07, 5.268152837508635e-08, 0.0006521299517914709, -1.924922267289612e-06, 2.0966238645782516e-07, 4.118508653650339e-07, -5.777631238597798e-10, -2.550747132192209e-06, -1.924922267289612e-06, 0.002251931219590033)",-0.033888738787206454,0.016675836432324485,0.03860055877585745,-0.00024221707954107325,-0.0004981397654897679,-0.01184577679799105,"(0.18547646132855808, -4.8010125995281045e-05, -0.0010982937283519451, 4.2171800304321725e-11, -1.3730676357258218e-09, -3.027497201601007e-08, -4.801012599528077e-05, 0.18546133698609088, -0.0010587345377569006, 3.919556718318036e-11, -1.187108572976605e-09, -5.959551373387689e-07, -0.0010982937283519447, -0.0010587345377569015, 0.07996874526359854, -1.1169022169479775e-11, 2.3854287268852802e-08, -5.736032792323944e-10, 4.217180030431035e-11, 3.9195567183254037e-11, -1.1169022169447295e-11, 0.017628556460813523, 2.158494426666177e-05, 0.0014141754279913285, -1.3730676357261448e-09, -1.1871085729765982e-09, 2.385428726885371e-08, 2.1584944266661765e-05, 0.01761977850197423, 0.00096483264739907, -3.0274972016010196e-08, -5.95955137338766e-07, -5.736032792325216e-10, 0.0014141754279913287, 0.00096483264739907, 0.237311989934715)"
2025/09/16/13:26:16.723322,81881,1758047176,723218918,odom,base_link,-2.793938002609571,0.17194674277117009,0.15559194226352777,0.015534678622916392,0.011849751534926487,0.9995215699504806,0.023976829489523333,"(0.00445747167289019, -1.1066455282402712e-07, -3.608921514740036e-06, 3.728139383675737e-08, -6.365330655867581e-07, 1.0378965509819372e-06, -1.1066455282402648e-07, 0.004457500930327691, -2.3229217266362264e-06, 6.478022164354913e-07, 2.7563740598860404e-08, 2.0354898336918016e-06, -3.608921514740036e-06, -2.3229217266362243e-06, 0.0026232429780306383, 2.623814880742258e-07, 5.859497523189098e-07, -5.29148100468222e-09, 3.728139383675736e-08, 6.478022164354914e-07, 2.6238148807422565e-07, 0.001273671646451789, 1.999919045281233e-07, -9.660239852480009e-06, -6.365330655867582e-07, 2.7563740598860404e-08, 5.859497523189098e-07, 1.9999190452812325e-07, 0.00127357402557942, -7.294154986434377e-06, 1.0378965509819372e-06, 2.0354898336918007e-06, -5.291481004682219e-09, -9.660239852480009e-06, -7.294154986434376e-06, 0.0045412439302674225)",-0.03390836136456174,0.016657612736489042,0.03892531286380305,-0.00024221707954107325,-0.0004981397654897679,-0.01184577679799105,"(0.191805103081668, -4.833958275669374e-05, -0.0011087637510907983, 4.239666601262688e-11, -1.3748974130378877e-09, -3.037375899039625e-08, -4.833958275669345e-05, 0.19178987777433337, -0.0010691499983818426, 3.828411722661457e-11, -1.1904049027386917e-09, -5.978860459472819e-07, -0.0011087637510907979, -0.0010691499983818435, 0.08201633782950239, -1.3477477384160909e-11, 2.3953351803202022e-08, -5.863775195027833e-10, 4.23966660126155e-11, 3.8284117226688266e-11, -1.3477477384128027e-11, 0.017828334540800093, 2.158494426666177e-05, 0.0014141754279913285, -1.3748974130382103e-09, -1.1904049027386846e-09, 2.3953351803202935e-08, 2.1584944266661765e-05, 0.0178195565819608, 0.00096483264739907, -3.037375899039638e-08, -5.97886045947279e-07, -5.863775195029099e-10, 0.0014141754279913287, 0.00096483264739907, 0.24730089393404361)"
2025/09/16/13:26:16.733377,81882,1758047176,728444099,odom,base_link,-2.791126969979729,0.17253616450220968,0.13835259729729216,0.01470003172802139,0.009270646082485356,0.9995469857287861,0.024572088004605544,"(9.999981039183009e-10, -5.5250812676052516e-21, -3.223441151461186e-19, -1.07348434639237e-24, -1.6284451554486968e-24, 1.1988833278565804e-23, -5.525081267605171e-21, 9.999981039204189e-10, -1.7598371544846587e-19, -4.674829688223844e-24, -3.909738749180606e-24, 6.228533800102202e-23, -3.223441151461189e-19, -1.7598371544846585e-19, 9.99996831848407e-10, 1.1147189336088195e-24, 1.45114337579221e-23, -2.7387648306952424e-24, -1.0734843463923579e-24, -4.674829688223818e-24, 1.1147189336087763e-24, 9.99993640104383e-10, 1.0734186432433754e-19, -1.7485334254473957e-18, -1.628445155448633e-24, -3.909738749180572e-24, 1.451143375792254e-23, 1.0734186432433756e-19, 9.999936400312255e-10, -1.1873024434491368e-18, 1.1988833278565716e-23, 6.228533800102146e-23, -2.7387648306952347e-24, -1.748533425447395e-18, -1.1873024434491368e-18, 9.999981086100577e-10)",-0.039661799782691375,0.014404386769614409,0.016916569538027587,-0.003224493412111881,0.00038349246808643667,-0.0134433326461726,"(0.17872902246698658, -4.554460632896893e-05, -0.001085654775376016, -5.725043551368049e-11, 1.899532804921176e-09, -8.929806773685568e-08, -4.554460632896856e-05, 0.1787184428028006, -0.0010260888748483052, -3.1772071446719712e-09, -1.1621557977033996e-09, -6.265198912450654e-07, -0.0010856547753760157, -0.0010260888748483054, 0.0778027523529786, 9.205941493106026e-10, 2.404303066760958e-08, -6.689218830687089e-10, -5.725043551369715e-11, -3.1772071446718823e-09, 9.205941493105258e-10, 0.017414038455584972, 2.1558954780637493e-05, 0.0014113227197410899, 1.8995328049210253e-09, -1.1621557977033754e-09, 2.404303066761037e-08, 2.1558954780637486e-05, 0.017404991973874157, 0.0009410860756346869, -8.929806773685503e-08, -6.265198912450597e-07, -6.689218830688206e-10, 0.00141132271974109, 0.0009410860756346869, 0.22661846771870153)"
