time,.header.seq,.header.stamp.secs,.header.stamp.nsecs,.header.frame_id,.child_frame_id,.pose.pose.position.x,.pose.pose.position.y,.pose.pose.position.z,.pose.pose.orientation.x,.pose.pose.orientation.y,.pose.pose.orientation.z,.pose.pose.orientation.w,.pose.covariance,.twist.twist.linear.x,.twist.twist.linear.y,.twist.twist.linear.z,.twist.twist.angular.x,.twist.twist.angular.y,.twist.twist.angular.z,.twist.covariance
2025/09/16/14:08:48.908734,291458,1758049728,900940180,odom,base_link,-3.007772207001776,-0.41195118445274803,0.07165162773716527,0.011071174458605958,0.023692556021153024,0.4824092108647425,0.8755555066117441,"(9.999990211018493e-10, 1.60077675116244e-21, -7.055299065282236e-19, -1.798510821003687e-24, 2.6921833524701387e-25, -7.705626941117395e-24, 1.600776751162762e-21, 9.99999021121513e-10, 7.252376494120157e-20, 6.007101893266619e-25, -9.606969642560369e-25, -6.495622879757806e-25, -7.055299065282234e-19, 7.252376494120175e-20, 9.999983606947848e-10, -5.698870497937726e-25, -1.7503159762025923e-24, 6.365987426614742e-25, -1.7985108210036895e-24, 6.007101893266548e-25, -5.698870497937499e-25, 9.999966978610752e-10, -2.192568601009501e-19, 1.7748436203646773e-18, 2.6921833524699624e-25, -9.606969642560499e-25, -1.750315976202586e-24, -2.1925686010095007e-19, 9.999966980631449e-10, -2.721164390920245e-18, -7.705626941117285e-24, -6.495622879758324e-25, 6.365987426614652e-25, 1.7748436203646765e-18, -2.7211643909202435e-18, 9.99999025671164e-10)",0.0034735904089024106,-0.01581571187410406,0.005870935244251944,0.020299741260904596,-0.0017106282438521048,-0.01012796456702754,"(0.17861281060406256, 1.1555731695368674e-05, 0.0011416626589078561, 1.6323298892159972e-10, -4.224073204027321e-09, -4.822020500166264e-08, 1.155573169537298e-05, 0.17862302615600115, -0.00024665796927656267, 3.9854907255269474e-09, 1.9028360265728646e-10, 6.145892062735069e-08, 0.0011416626589078563, -0.00024665796927656267, 0.0777798112311697, 3.416903804800065e-10, -2.7747592179296673e-09, -7.671403932260623e-11, 1.6323298892157346e-10, 3.9854907255269805e-09, 3.416903804800471e-10, 0.017420553236112753, -7.212802854925729e-06, -0.001474868367459574, -4.224073204027376e-09, 1.90283602657261e-10, -2.774759217929659e-09, -7.212802854925733e-06, 0.01739427268916764, 0.00023299977539045785, -4.8220205001662494e-08, 6.145892062734946e-08, -7.671403932260687e-11, -0.0014748683674595741, 0.00023299977539045793, 0.22643837285592766)"
2025/09/16/14:08:48.918779,291459,1758049728,914246321,odom,base_link,-3.007949351984114,-0.4117590488950087,0.07360329992157022,0.011624469915646089,0.02403495775366371,0.48228195929664947,0.8756091047048019,"(9.999992659366747e-10, 1.8192366484697215e-21, -7.101160785283227e-19, -1.709071547550454e-24, 2.7188248027439024e-25, -7.332233217430644e-24, 1.819236648469824e-21, 9.999992659571201e-10, 7.764795820130312e-20, 5.766988582032797e-25, -9.125147758647628e-25, -6.537790694249788e-25, -7.101160785283236e-19, 7.764795820130334e-20, 9.999987688441832e-10, -3.2193861094799215e-25, -1.6646844444176328e-24, 6.107366462837801e-25, -1.709071547550456e-24, 5.7669885820327355e-25, -3.2193861094796974e-25, 9.999975142424956e-10, -2.228142211382231e-19, 1.764774794333246e-18, 2.718824802743734e-25, -9.125147758647747e-25, -1.6646844444176265e-24, -2.2281422113822326e-19, 9.999975144589973e-10, -2.760805674821542e-18, -7.332233217430542e-24, -6.537790694250299e-25, 6.107366462837711e-25, 1.764774794333247e-18, -2.7608056748215417e-18, 9.99999270432507e-10)",0.0033606939779124495,-0.014803287263313081,0.008315591238070595,0.0208938040038618,-0.0016602419639195531,-0.010230847572751419,"(0.17861303407432183, 1.3812239068204968e-05, 0.0011397485958735782, 1.6072084255880357e-10, -4.112455510566762e-09, -4.583025864886079e-08, 1.3812239068209708e-05, 0.17862008825946182, -0.00028878571528051923, 3.868720745443639e-09, 1.9768354533495178e-10, 5.837279669330682e-08, 0.0011397485958735785, -0.0002887857152805193, 0.07778037829372507, 3.3870949388518975e-10, -2.712760432298092e-09, -9.93669509626764e-11, 1.6072084255877823e-10, 3.868720745443671e-09, 3.3870949388522935e-10, 0.01742044821123397, -7.6168904118931335e-06, -0.0014723537141024625, -4.112455510566815e-09, 1.9768354533492663e-10, -2.712760432298084e-09, -7.616890411893137e-06, 0.01739443511063381, 0.00027408631538921154, -4.583025864886065e-08, 5.8372796693305656e-08, -9.936695096267689e-11, -0.0014723537141024627, 0.0002740863153892116, 0.2264243502810942)"
2025/09/16/14:08:48.929263,291460,1758049728,928639650,odom,base_link,-3.0077372012331653,-0.41183191129822916,0.07371249934294571,0.01176012882310646,0.024097860130911315,0.48221373166899717,0.8756431404956219,"(0.0014763897546112236, 4.426101525656128e-09, -9.357275622395048e-07, -1.0375381552569293e-12, 2.0560613555412704e-13, -1.5233115506680014e-11, 4.426101525658139e-09, 0.0014764355731896413, 1.0899112461681679e-07, 3.428912684673913e-13, -5.389322133578202e-13, -1.3745644246060305e-12, -9.357275622395049e-07, 1.0899112461681724e-07, 0.0008798440361458209, -9.132620758442517e-14, -6.201661895982574e-13, 7.761094363720963e-13, -1.0375381552569309e-12, 3.428912684673873e-13, -9.132620758441687e-14, 0.0004354357243209008, -4.4761922451780814e-08, 1.1424664338123823e-06, 2.0560613555411624e-13, -5.389322133578277e-13, -6.201661895982554e-13, -4.476192245178082e-08, 0.00043548170505788045, -1.828899069362499e-06, -1.523311550667979e-11, -1.3745644246061345e-12, 7.761094363720847e-13, 1.142466433812382e-06, -1.828899069362499e-06, 0.001486209353683506)",0.0033457589456043105,-0.014828923398770483,0.00837909871594223,0.0208938040038618,-0.0016602419639195531,-0.010230847572751419,"(0.18313307540919793, 1.3880212200183604e-05, 0.0011474596870608839, 1.612039540958761e-10, -4.121873339537699e-09, -4.5948463458113324e-08, 1.3880212200188344e-05, 0.1831401649784714, -0.0002908369632676664, 3.8777644629364185e-09, 1.9809483182682341e-10, 5.8506190817662334e-08, 0.001147459687060884, -0.00029083696326766647, 0.0792282744346434, 3.455714498693679e-10, -2.718917115563703e-09, -9.970350479716063e-11, 1.612039540958509e-10, 3.877764462936451e-09, 3.455714498694075e-10, 0.017564381507437582, -7.6168904118931335e-06, -0.0014723537141024625, -4.121873339537751e-09, 1.9809483182679798e-10, -2.718917115563695e-09, -7.616890411893137e-06, 0.017538368406837423, 0.00027408631538921154, -4.5948463458113185e-08, 5.850619081766117e-08, -9.970350479716127e-11, -0.0014723537141024627, 0.0002740863153892116, 0.23362101509127486)"
2025/09/16/14:08:48.948779,291461,1758049728,948620558,odom,base_link,-3.007442264559193,-0.41193375601911436,0.07386549943471818,0.0119484533443351,0.024185175143405117,0.4821189959081409,0.8756903479829425,"(0.003650967863015996, 2.597658028933883e-08, -5.415546813037651e-06, 5.582274209117766e-08, 3.555138476117063e-08, 1.5788830953699284e-07, 2.5976580289345763e-08, 0.00365123383956167, 6.352195997704192e-07, -3.920115882768401e-08, 5.5697528149540975e-08, 4.567089799885991e-07, -5.4155468130376535e-06, 6.3521959977042e-07, 0.0021560534455051864, -1.3371645625679436e-07, -3.1456097538527165e-08, -5.08763618079248e-10, 5.5822742091177664e-08, -3.9201158827683994e-08, -1.3371645625679436e-07, 0.0010520189114789948, -2.601216110205415e-07, 6.59209095410368e-06, 3.555138476117062e-08, 5.5697528149540975e-08, -3.145609753852717e-08, -2.6012161102054145e-07, 0.0010522881462343122, -1.0599208652600807e-05, 1.5788830953699284e-07, 4.5670897998859933e-07, -5.087636180792478e-10, 6.5920909541036785e-06, -1.0599208652600805e-05, 0.0037076462549386086)",0.003325026043208818,-0.014864511637434439,0.008467260181744953,0.0208938040038618,-0.0016602419639195531,-0.010230847572751419,"(0.18944637296914907, 1.397487545638602e-05, 0.001158209128783354, 1.618746124605589e-10, -4.134947226811813e-09, -4.611255609094781e-08, 1.397487545639076e-05, 0.18945351184909992, -0.0002936969682931829, 3.890319006388462e-09, 1.986657822283108e-10, 5.869136934980973e-08, 0.0011582091287833543, -0.00029369696829318297, 0.08126501848945811, 3.5509725876799357e-10, -2.7274638605986172e-09, -1.001707108705876e-10, 1.6187461246053387e-10, 3.890319006388495e-09, 3.550972587680332e-10, 0.017764190581839437, -7.6168904118931335e-06, -0.0014723537141024625, -4.134947226811865e-09, 1.9866578222828497e-10, -2.7274638605986098e-09, -7.616890411893137e-06, 0.01773817748123928, 0.00027408631538921154, -4.611255609094767e-08, 5.869136934980856e-08, -1.0017071087058844e-10, -0.0014723537141024627, 0.0002740863153892116, 0.24361146881136764)"
2025/09/16/14:08:48.968854,291462,1758049728,960909843,odom,base_link,-3.0087337490784978,-0.41085666443263374,0.08054727838314876,0.012969778416542887,0.025077340686648433,0.48196560109332137,0.8757351604193273,"(9.999990169422692e-10, 2.591778350407477e-21, -7.581108795708384e-19, -1.0047766089809674e-24, 3.490714389020132e-25, -5.170884791331214e-24, 2.591778350411574e-21, 9.9999901696657e-10, 9.413997242728819e-20, 5.482180041391201e-25, -8.302987866409164e-25, 2.1633739968191863e-24, -7.581108795708384e-19, 9.413997242728832e-20, 9.99998353772025e-10, -6.222736482166658e-25, -1.655070522529055e-24, 4.434947154313459e-25, -1.0047766089809752e-24, 5.482180041391255e-25, -6.222736482166517e-25, 9.999966840020092e-10, -2.4940025891071305e-19, 1.8191783059996454e-18, 3.4907143890200233e-25, -8.302987866409258e-25, -1.655070522529052e-24, -2.494002589107132e-19, 9.99996684281684e-10, -3.0197889684205898e-18, -5.170884791331145e-24, 2.1633739968191877e-24, 4.434947154313391e-25, 1.8191783059996454e-18, -3.019788968420589e-18, 9.999990215090662e-10)",0.003158015655929042,-0.010894731346244416,0.016832382231786222,0.02226765194634815,-0.0013170574554405966,-0.010295980572243072,"(0.17865109866919898, 2.1462533064859556e-05, 0.0011340908954825754, 1.4821425445334022e-10, -3.3719613572893125e-09, -1.0506409736667472e-08, 2.1462533064864066e-05, 0.17864692819893377, -0.0004342365556219525, 3.135308716618366e-09, 2.1295701007969704e-10, 5.502566662756736e-08, 0.0011340908954825754, -0.00043423655562195253, 0.07778733471008752, -1.1306824375859846e-10, -2.6156600140592254e-09, -1.0145703275653335e-10, 1.4821425445332913e-10, 3.1353087166184154e-09, -1.1306824375857462e-10, 0.017420612652772914, -9.085316735375329e-06, -0.0014649615234196822, -3.3719613572893377e-09, 2.1295701007968164e-10, -2.615660014059221e-09, -9.085316735375332e-06, 0.017395697990477174, 0.0004146028561576053, -1.0506409736667088e-08, 5.5025666627566775e-08, -1.0145703275653429e-10, -0.0014649615234196825, 0.00041460285615760534, 0.22646525472376172)"
2025/09/16/14:08:48.978826,291463,1758049728,974250317,odom,base_link,-3.009018420850468,-0.41055709148600394,0.0825512983313706,0.013162804339102378,0.025253596171344275,0.48190389662630717,0.8757611722831324,"(9.999992678694815e-10, 2.623736731428147e-21, -7.538204322875574e-19, -1.0164869578204862e-24, 2.9219467809708606e-25, -4.920423429012058e-24, 2.6237367314297453e-21, 9.999992678941337e-10, 9.285216712560571e-20, 5.6469161917488535e-25, -8.53139009804155e-25, 2.023001548157793e-24, -7.538204322875572e-19, 9.28521671256057e-20, 9.999987720755922e-10, -4.17275564692185e-25, -1.571110525945049e-24, 4.211003083633726e-25, -1.0164869578204947e-24, 5.6469161917489105e-25, -4.172755646921717e-25, 9.999975206969964e-10, -2.4993314046968814e-19, 1.8120410457409507e-18, 2.9219467809707587e-25, -8.531390098041643e-25, -1.5711105259450453e-24, -2.499331404696881e-19, 9.999975209788805e-10, -3.0138968586998426e-18, -4.920423429011993e-24, 2.023001548157794e-24, 4.211003083633667e-25, 1.8120410457409507e-18, -3.0138968586998434e-18, 9.999992723612612e-10)",0.0031047595818440013,-0.009704906159568507,0.019202883244574146,0.022390576617367156,-0.0012381378059276441,-0.010267472710905102,"(0.178649765113725, 2.3658820738702664e-05, 0.0011331552354545194, 1.4461834387177135e-10, -3.277296650169956e-09, -9.990585121931016e-09, 2.365882073870649e-05, 0.17864225994944083, -0.00047586676327835624, 3.0426347491266368e-09, 2.1854536290322393e-10, 5.225423975660902e-08, 0.0011331552354545197, -0.0004758667632783563, 0.07778808060583471, -1.0724268144427213e-10, -2.556763066510923e-09, -1.191077869736758e-10, 1.4461834387176076e-10, 3.0426347491266848e-09, -1.0724268144424891e-10, 0.017420521811547848, -9.528438027664712e-06, -0.0014637997261947922, -3.27729665016998e-09, 2.1854536290320865e-10, -2.5567630665109187e-09, -9.528438027664715e-06, 0.01739596669540879, 0.0004545361439660187, -9.990585121930654e-09, 5.2254239756608474e-08, -1.1910778697367672e-10, -0.0014637997261947925, 0.00045453614396601875, 0.22644422944249895)"
2025/09/16/14:08:48.988766,291464,1758049728,988620520,odom,base_link,-3.0088611905955682,-0.41059382693737406,0.08281965678710539,0.013306124712986703,0.02532429348624777,0.48183510289691633,0.8757948166213722,"(0.0014739581794640524, 5.6412985148604534e-09, -9.759553126196482e-07, -6.110904661983704e-13, 1.9937858011922925e-13, -1.0192312060260548e-11, 5.641298514868721e-09, 0.0014740117661511491, 1.186479439806516e-07, 3.388164005711789e-13, -5.111020931444419e-13, 4.168872821190683e-12, -9.759553126196477e-07, 1.1864794398065187e-07, 0.0008784095531882997, -1.2985633547483595e-13, -5.83256958511108e-13, 5.281110030357869e-13, -6.110904661983753e-13, 3.3881640057118236e-13, -1.2985633547483088e-13, 0.0004347319200086546, -4.921668485226866e-08, 1.1716316391009022e-06, 1.9937858011922302e-13, -5.111020931444479e-13, -5.832569585111067e-13, -4.921668485226866e-08, 0.0004347875953582436, -1.9522300657811006e-06, -1.0192312060260412e-11, 4.168872821190683e-12, 5.281110030357789e-13, 1.1716316391009022e-06, -1.9522300657811e-06, 0.001483741036963243)",0.0030893045891575432,-0.009717204788616061,0.01932480036816709,0.022390576617367156,-0.0012381378059276441,-0.010267472710905102,"(0.183162625615659, 2.3777795270313005e-05, 0.0011408099188994364, 1.4505406505974e-10, -3.2845056271849803e-09, -1.0015783119707431e-08, 2.3777795270316834e-05, 0.1831550813934909, -0.00047941782401520237, 3.0494913127752975e-09, 2.1899453050375586e-10, 5.2372560737691456e-08, 0.0011408099188994366, -0.00047941782401520237, 0.07923368750549183, -1.0315862932840063e-10, -2.5622160958800606e-09, -1.1971995016769767e-10, 1.4505406505972957e-10, 3.0494913127753455e-09, -1.0315862932837743e-10, 0.01756422384172973, -9.528438027664712e-06, -0.0014637997261947922, -3.2845056271850043e-09, 2.1899453050374035e-10, -2.562216095880057e-09, -9.528438027664715e-06, 0.017539668725590672, 0.0004545361439660187, -1.001578311970707e-08, 5.237256073769091e-08, -1.1971995016769876e-10, -0.0014637997261947925, 0.00045453614396601875, 0.2336293309515932)"
2025/09/16/14:08:49.008716,291465,1758049729,8617163,odom,base_link,-3.0086420922010566,-0.4106455132795088,0.08319592858630105,0.013505562261167073,0.02542266426872145,0.4817393494134453,0.8758415879348277,"(0.0036501379792697464, 3.311245483279437e-08, -5.665486894593555e-06, 1.3915057120832667e-07, 8.824792232405675e-08, 7.993518359773883e-08, 3.311245483278559e-08, 0.003650449701979897, 6.938511787122399e-07, -9.091583661062821e-08, 1.3885562412280074e-07, 3.372858851137466e-07, -5.665486894593557e-06, 6.938511787122398e-07, 0.002155601133865491, -9.351728660389306e-08, -3.2314117871085614e-08, -2.484386675936581e-10, 1.391505712083267e-07, -9.091583661062821e-08, -9.351728660389307e-08, 0.0010517982041448862, -2.8688759426272665e-07, 6.7841562466653e-06, 8.824792232405676e-08, 1.3885562412280074e-07, -3.231411787108562e-08, -2.868875942627266e-07, 0.0010521247273632562, -1.1347633043933024e-05, 7.993518359773881e-08, 3.372858851137466e-07, -2.4843866759365823e-10, 6.7841562466652996e-06, -1.1347633043933026e-05, 0.0037067613931969882)",0.0030677984231031142,-0.009734318763621064,0.01949445233488498,0.022390576617367156,-0.0012381378059276441,-0.010267472710905102,"(0.18948100062086518, 2.394387516503587e-05, 0.0011515063554249478, 1.4566038642216279e-10, -3.294537172324664e-09, -1.0050847020118951e-08, 2.39438751650397e-05, 0.1894734019227904, -0.00048438038442850755, 3.0590324623172225e-09, 2.196195630223266e-10, 5.253720854558795e-08, 0.0011515063554249478, -0.0004843803844285075, 0.08127208173491836, -9.74755271257166e-11, -2.5698041780934616e-09, -1.2057179678905387e-10, 1.4566038642215255e-10, 3.059032462317271e-09, -9.747552712569342e-11, 0.017764190272393794, -9.528438027664712e-06, -0.0014637997261947922, -3.2945371723246874e-09, 2.1961956302231077e-10, -2.5698041780934583e-09, -9.528438027664715e-06, 0.017739635156254735, 0.0004545361439660187, -1.0050847020118592e-08, 5.2537208545587404e-08, -1.205717967890552e-10, -0.0014637997261947925, 0.00045453614396601875, 0.24362765248479631)"
2025/09/16/14:08:49.018766,291466,1758049729,10907412,odom,base_link,-3.009891507985022,-0.4096317609915683,0.08811157512065353,0.013206644611157432,0.025800304488291924,0.48173476761145173,0.8758376233644948,"(9.999956514686264e-10, 2.5242081988117106e-21, -7.790684118389321e-19, -7.969545216596742e-26, 6.596191673029627e-25, -3.783901967411787e-24, 2.5242081988104723e-21, 9.99995651495378e-10, 8.380326429576081e-20, 2.0343259882715394e-25, -2.8318086408098867e-25, 3.7159787607474655e-24, -7.790684118389321e-19, 8.380326429576069e-20, 9.999927444632172e-10, -8.34235672406831e-25, -1.6871015806061168e-24, 3.2259645003685017e-25, -7.96954521659649e-26, 2.0343259882715492e-25, -8.342356724068221e-25, 9.999854653059453e-10, -2.6796886832496887e-19, 1.9124032572990837e-18, 6.596191673029514e-25, -2.831808640809937e-25, -1.6871015806061194e-24, -2.6796886832496887e-19, 9.999854655985803e-10, -3.1327374504392594e-18, -3.783901967411736e-24, 3.715978760747474e-24, 3.225964500368454e-25, 1.912403257299082e-18, -3.1327374504392594e-18, 9.999956562060953e-10)",0.00302404956428327,-0.006287142022721659,0.02568483877253794,0.022273240747026368,-0.0006920128668922926,-0.010550237351975024,"(0.17869964469511512, 2.9327910475752214e-05, 0.0011310934028827167, 1.2144735359631315e-10, -2.221122042953751e-09, 9.958721524483129e-09, 2.9327910475758604e-05, 0.17868356884392667, -0.0005852068319403935, 2.002877307016407e-09, 2.1257749650353928e-10, 5.140398089320902e-08, 0.0011310934028827165, -0.0005852068319403934, 0.07779658965794002, -3.9051145789614533e-10, -2.5030344298215696e-09, -8.924768085138697e-11, 1.2144735359630842e-10, 2.002877307016415e-09, -3.9051145789612853e-10, 0.01742098973651943, -1.0744606670803675e-05, -0.0014612562031309972, -2.221122042953767e-09, 2.1257749650354186e-10, -2.5030344298215766e-09, -1.0744606670803679e-05, 0.01739748664665881, 0.0005584970803962677, 9.95872152448346e-09, 5.140398089320864e-08, -8.924768085138734e-11, -0.0014612562031309975, 0.0005584970803962677, 0.22652442955909)"
2025/09/16/14:08:49.028769,291467,1758049729,20912170,odom,base_link,-3.010177611942121,-0.40934154420536895,0.08962391854906361,0.013070124366619468,0.02587382486179191,0.481705243571225,0.8758537408449251,"(9.999990180399945e-10, 2.336043836320565e-21, -7.657725832528236e-19, -2.3389860167532184e-25, 5.335741879399721e-25, -3.652009126615448e-24, 2.336043836323246e-21, 9.999990180666798e-10, 7.574580584663949e-20, 3.0335019418000293e-25, -4.26421341857764e-25, 3.525923408581455e-24, -7.657725832528236e-19, 7.574580584663922e-20, 9.999983556025242e-10, -5.401991267187871e-25, -1.5798426856526413e-24, 3.0754599235695974e-25, -2.3389860167531954e-25, 3.033501941800041e-25, -5.40199126718778e-25, 9.99996687673239e-10, -2.667192487050354e-19, 1.9078169710957267e-18, 5.3357418793996065e-25, -4.264213418577691e-25, -1.579842685652644e-24, -2.667192487050354e-19, 9.99996687954291e-10, -3.0713231650411795e-18, -3.6520091266154006e-24, 3.525923408581462e-24, 3.075459923569549e-25, 1.907816971095726e-18, -3.0713231650411787e-18, 9.999990226059407e-10)",0.0030114567270173778,-0.005294772720360044,0.027392148750333144,0.022049349484375275,-0.0005401272176711106,-0.010619757147980474,"(0.17868221730111974, 3.087706395116964e-05, 0.0011314482502796114, 1.1848157135159213e-10, -2.1716663695528154e-09, 9.577514087532102e-09, 3.087706395117565e-05, 0.1786640325896265, -0.0006139194479387239, 1.9572428718270363e-09, 2.1580110860002075e-10, 4.944426665600694e-08, 0.0011314482502796112, -0.0006139194479387238, 0.077795371780958, -3.819503782566041e-10, -2.460425184996759e-09, -1.0019282100961146e-10, 1.184815713515876e-10, 1.957242871827044e-09, -3.819503782565877e-10, 0.017420742404414512, -1.1081735100332122e-05, -0.0014618775476813374, -2.171666369552831e-09, 2.1580110860002303e-10, -2.460425184996766e-09, -1.1081735100332125e-05, 0.017397526325523556, 0.0005857070367508433, 9.57751408753242e-09, 4.944426665600657e-08, -1.0019282100961185e-10, -0.0014618775476813377, 0.0005857070367508433, 0.22646693554637345)"
2025/09/16/14:08:49.038718,291468,1758049729,34249544,odom,base_link,-3.000626570904875,-0.40767830732668675,0.03634704903643961,0.005397210652120193,0.01973382260579922,0.48133602232503647,0.8762973696039783,"(9.999992676968745e-10, 2.1277186928605667e-21, -7.538226282451655e-19, -3.412269545417299e-25, 4.242108613996429e-25, -3.4729814682208864e-24, 2.127718692858832e-21, 9.9999926772345e-10, 6.76562833214155e-20, 3.677801808378405e-25, -5.193735811072566e-25, 3.325279360523331e-24, -7.538226282451657e-19, 6.765628332141529e-20, 9.999987717865777e-10, -3.9620998666693407e-25, -1.494666690956196e-24, 2.8683253377217103e-25, -3.412269545417275e-25, 3.6778018083784123e-25, -3.962099866669256e-25, 9.999975201328818e-10, -2.647214167560158e-19, 1.9084366766103425e-18, 4.242108613996325e-25, -5.1937358110726155e-25, -1.4946666909562e-24, -2.647214167560158e-19, 9.999975204017353e-10, -3.0219487897682938e-18, -3.472981468220842e-24, 3.32527936052334e-24, 2.8683253377216666e-25, 1.9084366766103413e-18, -3.021948789768292e-18, 9.99999272188872e-10)",0.018426751846891014,-0.02459075617203286,-0.04062584804440104,0.010751012846202826,-0.0025007445650160717,-0.016126214486427915,"(0.17867931307795248, 3.2863051200861774e-05, 0.001132173465704548, 1.1463938958112184e-10, -2.1076431268379214e-09, 9.093435760142435e-09, 3.2863051200867426e-05, 0.17865855311251164, -0.0006507364340098724, 1.898084192761423e-09, 2.1929332849123186e-10, 4.6955269420588435e-08, 0.0011321734657045476, -0.0006507364340098723, 0.07779609852864212, -3.707567892153532e-10, -2.404683727349705e-09, -1.1322818019598217e-10, 1.1463938958111756e-10, 1.8980841927614308e-09, -3.707567892153372e-10, 0.017420678512377892, -1.1527049603784088e-05, -0.0014630326522107734, -2.107643126837936e-09, 2.192933284912338e-10, -2.4046837273497115e-09, -1.1527049603784091e-05, 0.0173978420600359, 0.0006203962066852385, 9.093435760142733e-09, 4.695526942058808e-08, -1.1322818019598263e-10, -0.0014630326522107736, 0.0006203962066852385, 0.226443515202668)"
2025/09/16/14:08:49.048764,291469,1758049729,48635483,odom,base_link,-3.0002090816679257,-0.4076500829544026,0.035743687969210784,0.005471347956811725,0.019755900010907428,0.48123274911057473,0.8763531308495298,"(0.0014756450966267784, -1.5711919586151519e-09, -5.903282605029186e-07, -1.046121694538524e-12, -4.1334898365889693e-13, -7.233563049277583e-12, -1.5711919586117662e-09, 0.0014756737124289399, -7.339383716817653e-08, 7.442789923060406e-13, -1.0563679433129e-12, 7.2340103873338046e-12, -5.903282605029188e-07, -7.33938371681768e-08, 0.0008793609015078378, -4.0039654084751235e-13, -7.388279051914637e-13, 1.8441326046742236e-13, -1.0461216945385228e-12, 7.442789923060411e-13, -4.0039654084750907e-13, 0.00043520716433094453, -2.6194467565155615e-08, 1.0748262545970689e-06, -4.1334898365890173e-13, -1.0563679433129028e-12, -7.388279051914649e-13, -2.6194467565155612e-08, 0.00043520750617855226, -1.103437156204522e-06, -7.233563049277488e-12, 7.234010387333817e-12, 1.8441326046741827e-13, 1.074826254597069e-06, -1.103437156204522e-06, 0.0014854713314887435)",0.018451052251159398,-0.0246412839057734,-0.04083961636739866,0.010751012846202826,-0.0025007445650160717,-0.016126214486427915,"(0.18319719841272195, 3.302947225495282e-05, 0.001139837892557416, 1.1499319694883607e-10, -2.111832953285739e-09, 9.117236157546119e-09, 3.3029472254958465e-05, 0.183176332300732, -0.0006556714878376202, 1.901983906538865e-09, 2.1973155449816956e-10, 4.706098459994819e-08, 0.0011398378925574157, -0.0006556714878376202, 0.07924335165519096, -3.683650305503396e-10, -2.4094820681925477e-09, -1.138605518331671e-10, 1.1499319694883194e-10, 1.9019839065388728e-09, -3.683650305503236e-10, 0.017564537898821984, -1.1527049603784088e-05, -0.0014630326522107734, -2.111832953285753e-09, 2.1973155449817126e-10, -2.4094820681925547e-09, -1.1527049603784091e-05, 0.01754170144647999, 0.0006203962066852385, 9.117236157546417e-09, 4.7060984599947833e-08, -1.1386055183316766e-10, -0.0014630326522107736, 0.0006203962066852385, 0.2336364845248726)"
2025/09/16/14:08:49.068697,291470,1758049729,68608761,odom,base_link,-2.9996284026639817,-0.4076111529557839,0.03490078304665892,0.005574280624934109,0.019786546890393338,0.48108935055559837,0.8764305202009235,"(0.0036494666342358818, -9.088877456472645e-09, -3.4178047678098704e-06, -3.1258255579611045e-07, -1.9895888434337803e-07, -6.102144406612145e-08, -9.088877456449335e-09, 0.0036496325233689245, -4.1961121221513153e-07, 1.9305068803900196e-07, -3.147158415345654e-07, 9.033991359821845e-07, -3.417804767809871e-06, -4.1961121221513137e-07, 0.0021549362705342535, -2.0642100349112869e-07, -1.5160082542460542e-07, -2.862344218075284e-10, -3.125825557961103e-07, 1.93050688039002e-07, -2.0642100349112866e-07, 0.0010515317302466215, -1.5227574860906128e-07, 6.193808184600599e-06, -1.9895888434337803e-07, -3.147158415345655e-07, -1.5160082542460545e-07, -1.5227574860906128e-07, 0.0010515357738232276, -6.399446782148739e-06, -6.102144406612145e-08, 9.033991359821844e-07, -2.862344218075286e-10, 6.1938081846006e-06, -6.399446782148739e-06, 0.0037061928215864504)",0.018484790663582204,-0.02471143605225213,-0.041136409941882876,0.010751012846202826,-0.0025007445650160717,-0.016126214486427915,"(0.18950829761258553, 3.3261252243585617e-05, 0.0011505237640391122, 1.1548441918359123e-10, -2.117650061969003e-09, 9.150280365970126e-09, 3.3261252243591254e-05, 0.18948728372172852, -0.0006625521970963355, 1.907398226000431e-09, 2.2033998263760174e-10, 4.720775838532223e-08, 0.0011505237640391118, -0.0006625521970963354, 0.08127944634043728, -3.650443392826213e-10, -2.4161440315291677e-09, -1.1473852961757733e-10, 1.154844191835873e-10, 1.9073982260004387e-09, -3.650443392826054e-10, 0.017764270679278528, -1.1527049603784088e-05, -0.0014630326522107734, -2.117650061969017e-09, 2.203399826376031e-10, -2.416144031529175e-09, -1.1527049603784091e-05, 0.017741434226936536, 0.0006203962066852385, 9.150280365970424e-09, 4.7207758385321876e-08, -1.1473852961757808e-10, -0.0014630326522107736, 0.0006203962066852385, 0.24362312354769974)"
2025/09/16/14:08:49.078843,291471,1758049729,70903301,odom,base_link,-3.0018279521589952,-0.40646982462482334,0.04154902935194044,0.0043187603062657095,0.019795104622445863,0.481325674564896,0.8763076498279877,"(9.999956596512015e-10, -1.1915481982377097e-21, -4.649142671678959e-19, -2.7712289686698018e-24, -1.3853293168003867e-24, -3.488702551665516e-24, -1.1915481982351424e-21, 9.999956596645677e-10, -7.782825475958059e-20, 2.4519348098883125e-24, -3.2799944762809592e-24, 9.260926703907663e-24, -4.649142671678959e-19, -7.782825475958024e-20, 9.999927580355375e-10, -2.173492270842768e-24, -2.8265466639951362e-24, 8.029696770638687e-26, -2.7712289686697283e-24, 2.45193480988831e-24, -2.1734922708427653e-24, 9.999854925033012e-10, -1.3958720772718688e-19, 1.771439050732192e-18, -1.3853293168004014e-24, -3.2799944762810125e-24, -2.826546663995137e-24, -1.395872077271868e-19, 9.999854924880263e-10, -1.7102277496559383e-18, -3.4887025516654274e-24, 9.260926703907683e-24, 8.029696770638237e-26, 1.771439050732192e-18, -1.710227749655938e-18, 9.999956644055697e-10)",0.017607899658745547,-0.019863457131803236,-0.032636293921257775,0.009475596288256586,-0.0017954753685569902,-0.015541521293428718,"(0.17872631634194586, 3.3598491044417895e-05, 0.0011234259365879103, 1.746071696273824e-10, -3.5769216944156654e-09, 5.6595909410247153e-08, 3.35984910444224e-05, 0.1787075504405413, -0.0006838966270232917, 3.3995583784601074e-09, 2.8466545090360575e-10, 7.679174594853963e-08, 0.00112342593658791, -0.0006838966270232915, 0.07780136294641027, -1.0544694668851074e-09, -2.8365141961371818e-09, 1.2357096743039886e-10, 1.7460716962747429e-10, 3.399558378459929e-09, -1.0544694668850923e-09, 0.01742100968422198, -1.2005779262415707e-05, -0.0014514314902222927, -3.5769216944158065e-09, 2.8466545090354097e-10, -2.8365141961371863e-09, -1.200577926241571e-05, 0.01739869000362919, 0.0006487309417775578, 5.6595909410247815e-08, 7.6791745948539e-08, 1.2357096743041008e-10, -0.0014514314902222929, 0.0006487309417775578, 0.2265855587199134)"
2025/09/16/14:08:49.088759,291472,1758049729,80919981,odom,base_link,-3.0021970266002835,-0.4061388674270223,0.04297153362598956,0.003927104757389597,0.019760897879436246,0.4813090043095364,0.8763194207215688,"(9.999990192459724e-10, -1.4360734510778194e-21, -4.425105505627537e-19, -2.1812463990820745e-24, -1.0370296317045276e-24, -3.353343801359382e-24, -1.436073451075151e-21, 9.999990192585792e-10, -9.333771367018233e-20, 2.0734123268841202e-24, -2.6328788027308827e-24, 8.78917241750089e-24, -4.425105505627539e-19, -9.333771367018229e-20, 9.99998357546325e-10, -1.5625653007779887e-24, -2.3979731149019296e-24, 5.807831065013005e-26, -2.1812463990819996e-24, 2.073412326884116e-24, -1.5625653007779852e-24, 9.999966916156126e-10, -1.3297158223674008e-19, 1.772405961508616e-18, -1.037029631704542e-24, -2.6328788027309356e-24, -2.3979731149019296e-24, -1.3297158223674013e-19, 9.99996691582028e-10, -1.5957093685908893e-18, -3.3533438013592966e-24, 8.789172417500907e-24, 5.807831065012585e-26, 1.7724059615086165e-18, -1.5957093685908897e-18, 9.999990238304516e-10)",0.017349322956746786,-0.018577405876095802,-0.03051073363200453,0.009007626056801214,-0.001603880291039699,-0.015502216739856538,"(0.17870822777603892, 3.375477912897646e-05, 0.0011222483823986585, 1.690482484291759e-10, -3.497171508079477e-09, 5.445191321014291e-08, 3.3754779128980384e-05, 0.17869027335239943, -0.0006908352183770769, 3.3235402806377785e-09, 2.8210926179338695e-10, 7.387312810293331e-08, 0.0011222483823986583, -0.0006908352183770767, 0.07779921589223453, -1.036121211391128e-09, -2.7889963101655276e-09, 1.1552600896604966e-10, 1.6904824842926602e-10, 3.323540280637604e-09, -1.0361212113911128e-09, 0.01742073033586326, -1.212460592227997e-05, -0.0014500030254987176, -3.4971715080796147e-09, 2.821092617933234e-10, -2.7889963101655326e-09, -1.2124605922279974e-05, 0.017398514346086066, 0.000654440375308824, 5.4451913210143546e-08, 7.38731281029327e-08, 1.155260089660605e-10, -0.0014500030254987178, 0.0006544403753088241, 0.22654478396879)"
2025/09/16/14:08:49.098773,291473,1758049729,98621607,odom,base_link,-3.0017754591121704,-0.4060628150955102,0.04241219541213967,0.004001093986074833,0.019787359022522384,0.48118713055604895,0.8763854158171873,"(0.0018263065676915322, -5.208329688890034e-09, -8.417421021170187e-07, -1.6592237869920512e-12, -7.297743751460409e-13, -1.049120610733301e-11, -5.208329688894001e-09, 0.0018263459366691767, -2.0279399180345393e-07, 1.7188679605471667e-12, -2.0620685602829947e-12, 2.728063847741735e-11, -8.41742102117019e-07, -2.0279399180345424e-07, 0.0010866625479235463, -6.146581506462562e-13, -1.1342512651638237e-12, 8.762392073827693e-14, -1.6592237869919815e-12, 1.7188679605471633e-12, -6.146581506462538e-13, 0.0005365480994687047, -3.811289261724434e-08, 1.7367417775035948e-06, -7.297743751460543e-13, -2.062068560283044e-12, -1.1342512651638244e-12, -3.811289261724434e-08, 0.0005365349718998432, -1.4938570552701889e-06, -1.049120610733274e-11, 2.728063847741742e-11, 8.762392073826921e-14, 1.7367417775035948e-06, -1.4938570552701887e-06, 0.0018411851284429062)",0.017375516088609853,-0.01862012471259225,-0.030700230863864413,0.009007626056801214,-0.001603880291039699,-0.015502216739856538,"(0.1842707711113515, 3.396443984145149e-05, 0.0011315923753829294, 1.6965354143142967e-10, -3.506706660491138e-09, 5.4624033249564064e-08, 3.3964439841455414e-05, 0.18425270525392543, -0.000697257103244548, 3.332830205304455e-09, 2.8284170005701224e-10, 7.40889639091438e-08, 0.0011315923753829292, -0.0006972571032445476, 0.07958231277572708, -1.0378856122722663e-09, -2.797667576787783e-09, 1.1600984595905368e-10, 1.696535414315204e-10, 3.33283020530428e-09, -1.0378856122722512e-09, 0.017597746594103007, -1.212460592227997e-05, -0.0014500030254987176, -3.5067066604912756e-09, 2.8284170005694823e-10, -2.7976675767877883e-09, -1.2124605922279974e-05, 0.017575530604325814, 0.000654440375308824, 5.462403324956469e-08, 7.40889639091432e-08, 1.1600984595906448e-10, -0.0014500030254987178, 0.0006544403753088241, 0.2353955968807773)"
2025/09/16/14:08:49.118777,291474,1758049729,118624210,odom,base_link,-3.0022495608810433,-0.4055858992450704,0.04430244325877014,0.0034546359054910035,0.019685825401652975,0.4811397222929545,0.8764160549652628,"(0.0020719918184011112, -7.746376348330715e-09, -1.0431353561423885e-06, -1.932924529918226e-12, -8.585033783515203e-13, -1.252157529628706e-11, -7.74637634833195e-09, 0.002072039687970686, -2.9662254050045313e-07, 2.031966099701319e-12, -2.3761188709467463e-12, 3.249743963337426e-11, -1.0431353561423883e-06, -2.966225405004527e-07, 0.0012315503214541342, -6.953447878648774e-13, -1.3656602957275615e-12, 6.61462927516212e-14, -1.932924529918141e-12, 2.0319660997013143e-12, -6.953447878648746e-13, 0.0006071015120530591, -4.719125484669723e-08, 2.2511486757876483e-06, -8.585033783515357e-13, -2.376118870946807e-12, -1.3656602957275625e-12, -4.719125484669722e-08, 0.0006070790664032427, -1.8159956711605878e-06, -1.2521575296286743e-11, 3.249743963337433e-11, 6.614629275161255e-14, 2.2511486757876483e-06, -1.8159956711605876e-06, 0.00209098522742283)",0.016929267312224355,-0.01680462130722447,-0.02777431408018185,0.008309078684562569,-0.0013907227809044056,-0.015376782105688115,"(0.18502510150943355, 3.420232067836038e-05, 0.0011311651522285262, 1.6019755688628963e-10, -3.3718844767338007e-09, 5.106690045152846e-08, 3.4202320678364866e-05, 0.1850085711327287, -0.0007087165135294478, 3.2037945276228e-09, 2.7774586038223774e-10, 6.924510376049777e-08, 0.001131165152228526, -0.0007087165135294473, 0.07981914553889256, -1.006217403560269e-09, -2.7161684320988583e-09, 1.0372677759126204e-10, 1.601975568863774e-10, 3.203794527622632e-09, -1.0062174035602543e-09, 0.017621059633099477, -1.2322725114801655e-05, -0.0014480566862978795, -3.371884476733933e-09, 2.7774586038217576e-10, -2.716168432098864e-09, -1.2322725114801658e-05, 0.017599004588602384, 0.0006628133242815081, 5.1066900451529036e-08, 6.924510376049721e-08, 1.0372677759127221e-10, -0.0014480566862978797, 0.0006628133242815082, 0.2366272872512506)"
2025/09/16/14:08:49.138826,291475,1758049729,138658524,odom,base_link,-3.001804422190241,-0.405487785328036,0.043725532147854386,0.003531257918865379,0.01971418332011205,0.4810030333355934,0.876490138629916,"(0.004294116885389468, -3.156832573913187e-08, -4.245469727875242e-06, -2.9733268860173293e-07, -1.897563732626912e-07, -2.1516645443085891e-07, -3.156832573913193e-08, 0.004294311682237965, -1.1980188382377094e-06, 1.8361373548860377e-07, -3.0057916184947186e-07, 9.744557607488612e-07, -4.245469727875242e-06, -1.1980188382377077e-06, 0.002529293957004808, -1.981902810034141e-07, -1.9753405711211344e-07, -2.79982782413051e-10, -2.9733268860173304e-07, 1.8361373548860377e-07, -1.9819028100341406e-07, 0.001229325978435507, -1.9286742097230236e-07, 9.129119868191121e-06, -1.8975637326269123e-07, -3.0057916184947175e-07, -1.9753405711211344e-07, -1.9286742097230236e-07, 0.0012292365895193963, -7.4046955474079925e-06, -2.151664544308589e-07, 9.74455760748861e-07, -2.7998278241305105e-10, 9.129119868191123e-06, -7.404695547407993e-06, 0.004371177731736993)",0.016957192598118516,-0.016846308355299815,-0.027964656881893823,0.008309078684562569,-0.0013907227809044056,-0.015376782105688115,"(0.19136836640905033, 3.44416714743749e-05, 0.0011417806959079623, 1.6084550491867378e-10, -3.382174647777018e-09, 5.12483453106947e-08, 3.4441671474379386e-05, 0.19135172116390106, -0.0007161183529414958, 3.213826082290508e-09, 2.785542583199791e-10, 6.947203752735889e-08, 0.0011417806959079623, -0.0007161183529414954, 0.08187028648156076, -1.0080169492299962e-09, -2.725401547847754e-09, 1.042029272813984e-10, 1.6084550491876223e-10, 3.21382608229034e-09, -1.0080169492299814e-09, 0.01782140276511852, -1.2322725114801655e-05, -0.0014480566862978795, -3.38217464777715e-09, 2.785542583199166e-10, -2.7254015478477602e-09, -1.2322725114801658e-05, 0.017799347720621427, 0.0006628133242815081, 5.124834531069527e-08, 6.947203752735834e-08, 1.0420292728140851e-10, -0.0014480566862978797, 0.0006628133242815082, 0.24664444385220274)"
2025/09/16/14:08:49.148752,291476,1758049729,144241571,odom,base_link,-3.0047907806437624,-0.4037731904461387,0.05198483831872187,0.000639786118455752,0.01899778247706431,0.48120783731228867,0.8764004177565794,"(9.999982265835082e-10, -2.4604080204991354e-21, -4.006574402487894e-19, -2.053031264308872e-24, -8.611358985548911e-25, -4.291351788838211e-24, -2.4604080205008157e-21, 9.999982265940014e-10, -1.543281847647261e-19, 2.5756336564081248e-24, -2.6822329164147358e-24, 1.4282377767031907e-23, -4.0065744024878923e-19, -1.54328184764726e-19, 9.999970363031227e-10, -1.2273204967573993e-24, -2.14288807167718e-24, -5.897559530271852e-26, -2.0530312643088227e-24, 2.575633656408107e-24, -1.2273204967573916e-24, 9.99994049036972e-10, -1.1954724669500206e-19, 1.90475731224218e-18, -8.611358985549128e-25, -2.6822329164147494e-24, -2.1428880716771673e-24, -1.1954724669500213e-19, 9.99994048944452e-10, -1.3302415163223842e-18, -4.291351788838156e-24, 1.4282377767031868e-23, -5.897559530272066e-26, 1.90475731224218e-18, -1.3302415163223844e-18, 9.99998231287407e-10)",0.01595639500982473,-0.01027178016926941,-0.017389617535293604,0.004982431450609271,-0.00051459290534345,-0.015703426413728128,"(0.17881402311159145, 3.423780523901378e-05, 0.0011184491188685408, 1.9142221635334008e-10, -4.870821712526245e-09, 9.706427848117344e-08, 3.4237805239016035e-05, 0.17880189674440322, -0.0007212911310335553, 4.732363273206067e-09, 3.2010509183431575e-10, 1.1221207500597041e-07, 0.0011184491188685405, -0.0007212911310335552, 0.0778115309391638, -1.7366682103508253e-09, -3.3654590790722468e-09, 2.8640702574329383e-10, 1.9142221635337632e-10, 4.7323632732059364e-09, -1.7366682103508061e-09, 0.017421962801653874, -1.2777683792724505e-05, -0.0014458554108920433, -4.870821712526319e-09, 3.201050918343343e-10, -3.365459079072227e-09, -1.2777683792724508e-05, 0.01740022956559589, 0.0006776075801699586, 9.706427848117335e-08, 1.1221207500596968e-07, 2.8640702574329434e-10, -0.0014458554108920435, 0.0006776075801699586, 0.22683590831460348)"
2025/09/16/14:08:49.158739,291477,1758049729,154248238,odom,base_link,-3.0052351945607647,-0.4033601287333963,0.05340841893743707,8.1467328818495e-06,0.018864461923947227,0.4811849658430977,0.876416088770926,"(9.99999018258697e-10, -2.757128857285506e-21, -3.5778556340193616e-19, -2.224861276254722e-24, -1.0299401318574385e-24, -4.175857193837004e-24, -2.7571288572836982e-21, 9.999990182675017e-10, -1.9015976236738982e-19, 2.656925283017385e-24, -2.6857519729587173e-24, 1.3822020064727083e-23, -3.5778556340193616e-19, -1.9015976236738956e-19, 9.999983558800098e-10, -1.4584522779889892e-24, -2.581409519284179e-24, -1.2296153603345653e-25, -2.2248612762546743e-24, 2.6569252830173664e-24, -1.4584522779889802e-24, 9.999966883138573e-10, -1.0271552740340101e-19, 1.935524506879744e-18, -1.0299401318574602e-24, -2.6857519729587312e-24, -2.5814095192841673e-24, -1.0271552740340101e-19, 9.99996688187915e-10, -1.098524114566384e-18, -4.17585719383695e-24, 1.3822020064727036e-23, -1.2296153603345805e-25, 1.935524506879745e-18, -1.0985241145663844e-18, 9.999990228649149e-10)",0.01576757063416135,-0.008982951771846543,-0.01539701613287227,0.0042433822295649265,-0.00029733681930312446,-0.015807792031951113,"(0.17879273543588697, 3.4074996294536094e-05, 0.0011193601532262691, 1.8289749645345399e-10, -4.764709879003691e-09, 9.338995989472895e-08, 3.407499629453846e-05, 0.17878201830371415, -0.0007207156813911655, 4.6251853771854865e-09, 3.1458320301853875e-10, 1.0795247990656822e-07, 0.001119360153226269, -0.0007207156813911654, 0.07780901757421017, -1.7082714828414987e-09, -3.3103622006889575e-09, 2.802032641719611e-10, 1.828974964534896e-10, 4.625185377185359e-09, -1.7082714828414797e-09, 0.017421707843881355, -1.283668670240953e-05, -0.0014473572550432344, -4.764709879003764e-09, 3.145832030185567e-10, -3.310362200688938e-09, -1.2836686702409534e-05, 0.01739997536243495, 0.0006760629023852042, 9.338995989472886e-08, 1.0795247990656752e-07, 2.8020326417196154e-10, -0.0014473572550432346, 0.0006760629023852042, 0.2267849383975512)"
2025/09/16/14:08:49.168770,291478,1758049729,168643475,odom,base_link,-3.0050116426758375,-0.4032420818896093,0.05317659664181921,3.3799331560332296e-05,0.018877280882493658,0.48108466910335423,0.8764708713230605,"(0.0014766553754015802, -6.159770299133138e-09, -4.407724758930279e-07, -1.2754331503466664e-12, -5.786021241920962e-13, -8.635124627469966e-12, -6.159770299134761e-09, 0.0014766727233476264, -2.6392264563531935e-07, 1.5966807402181375e-12, -1.5240995171079106e-12, 2.8597676698092996e-11, -4.407724758930282e-07, -2.639226456353194e-07, 0.0008799379874674509, -4.705483361932923e-13, -8.707832520059552e-13, -1.874414828900304e-13, -1.2754331503466363e-12, 1.5966807402181264e-12, -4.705483361932892e-13, 0.0004354998657940334, -1.8661912171626743e-08, 1.254889018707112e-06, -5.786021241921091e-13, -1.5240995171079193e-12, -8.707832520059508e-13, -1.866191217162675e-08, 0.00043547304428547527, -6.489899131826569e-07, -8.635124627469854e-12, 2.85976766980929e-11, -1.874414828900322e-13, 1.2548890187071122e-06, -6.489899131826569e-07, 0.0014865619402897072)",0.015784470333903417,-0.008992680609937784,-0.015463486034314742,0.0042433822295649265,-0.00029733681930312446,-0.015807792031951113,"(0.18331377795360282, 3.424601502119555e-05, 0.0011269438853149104, 1.834203764276703e-10, -4.775670710744523e-09, 9.362832519561706e-08, 3.4246015021197906e-05, 0.18330300902012467, -0.0007261095614641266, 4.636031872100045e-09, 3.152561400946782e-10, 1.0821570833493172e-07, 0.0011269438853149102, -0.0007261095614641266, 0.07925720746828806, -1.7135436402169034e-09, -3.3204309898304494e-09, 2.813116730498101e-10, 1.834203764277062e-10, 4.636031872099918e-09, -1.7135436402168844e-09, 0.017565660213571296, -1.283668670240953e-05, -0.0014473572550432344, -4.775670710744596e-09, 3.1525614009469597e-10, -3.3204309898304304e-09, -1.2836686702409534e-05, 0.017543927732124893, 0.0006760629023852042, 9.362832519561696e-08, 1.0821570833493102e-07, 2.8131167304981045e-10, -0.0014473572550432346, 0.0006760629023852042, 0.23398255688204828)"
2025/09/16/14:08:49.188756,291479,1758049729,188614368,odom,base_link,-3.0047011209514234,-0.4030781877883077,0.05285337320409601,6.938864631409088e-05,0.018895063093003456,0.4809455137444901,0.8765468524756538,"(0.003650430177436525, -3.573046866827242e-08, -2.5496517546220996e-06, -1.1816415900922961e-07, -7.618573175683931e-08, -2.5491333129012817e-07, -3.5730468668301736e-08, 0.003650530221584335, -1.5215473859551874e-06, 7.284815300268568e-08, -1.2060821482411216e-07, 4.829477216125318e-07, -2.5496517546221004e-06, -1.5215473859551874e-06, 0.0021553778738376203, -7.658249507333992e-08, -1.3434500247017048e-07, -4.841644226279365e-11, -1.1816415900922962e-07, 7.284815300268571e-08, -7.658249507333988e-08, 0.0010518010530122099, -1.0838926277130183e-07, 7.247366498625939e-06, -7.618573175683935e-08, -1.2060821482411216e-07, -1.3434500247017048e-07, -1.0838926277130181e-07, 0.001051646164958042, -3.7614656980086298e-06, -2.549133312901282e-07, 4.829477216125318e-07, -4.84164422627936e-11, 7.247366498625938e-06, -3.76146569800863e-06, 0.0037075672203272575)",0.01580791573536081,-0.009006177684929912,-0.015555701490680095,0.0042433822295649265,-0.00029733681930312446,-0.015807792031951113,"(0.18962446016540419, 3.44840082028352e-05, 0.0011375092605296747, 1.8414578167726875e-10, -4.790876963186456e-09, 9.395901569652122e-08, 3.448400820283755e-05, 0.18961361920187395, -0.0007336237206635707, 4.6510795020318594e-09, 3.1618972353973674e-10, 1.0858089211169545e-07, 0.0011375092605296743, -0.0007336237206635707, 0.0812930659682826, -1.72085784390688e-09, -3.334399687926576e-09, 2.828493980695879e-10, 1.8414578167730504e-10, 4.651079502031732e-09, -1.720857843906861e-09, 0.01776536915216993, -1.283668670240953e-05, -0.0014473572550432344, -4.790876963186528e-09, 3.161897235397543e-10, -3.3343996879265573e-09, -1.2836686702409534e-05, 0.017743636670723525, 0.0006760629023852042, 9.395901569652111e-08, 1.0858089211169474e-07, 2.828493980695881e-10, -0.0014473572550432346, 0.0006760629023852042, 0.24396800381197992)"
2025/09/16/14:08:49.198771,291480,1758049729,190945864,odom,base_link,-3.00695108974254,-0.4018676909083325,0.058644666414446135,-0.0023679800278452326,0.017917217545957754,0.48106414982411555,0.8764990871301573,"(9.999957287425873e-10, -3.202779013150071e-21, -3.2187815091864056e-19, -2.407681225381557e-24, -1.0568468501180271e-24, -5.346129124967595e-24, -3.2027790131475428e-21, 9.999957287494411e-10, -2.3586674522788527e-19, 2.8691100661154575e-24, -2.6493605739731443e-24, 1.5214081452025928e-23, -3.2187815091864056e-19, -2.358667452278853e-19, 9.999928731598055e-10, -1.5061310238453523e-24, -3.032391147324934e-24, -1.8251089749611868e-25, -2.407681225381532e-24, 2.8691100661154568e-24, -1.506131023845333e-24, 9.999857227991094e-10, -8.608832398871874e-20, 2.0274642317737997e-18, -1.0568468501180574e-24, -2.6493605739731612e-24, -3.032391147324924e-24, -8.608832398871874e-20, 9.999857226375588e-10, -8.732445423191837e-19, -5.346129124967558e-24, 1.5214081452025916e-23, -1.8251089749611868e-25, 2.027464231773799e-18, -8.73244542319184e-19, 9.9999573352465e-10)",0.014987300915545294,-0.004308063544559924,-0.008170786198682299,0.0012430062448819414,6.343632227796737e-05,-0.016464593225737425,"(0.1788249800033666, 3.32842816669092e-05, 0.0011235164667849414, 1.7999152389608442e-10, -5.01876002610476e-09, 9.88455972366065e-08, 3.32842816669112e-05, 0.17881945133385505, -0.000714158834230072, 4.8798247107053815e-09, 3.183052366510986e-10, 1.2470319873999478e-07, 0.0011235164667849407, -0.0007141588342300719, 0.07781261920608548, -1.860006854441826e-09, -3.598989953597846e-09, 2.916429995573459e-10, 1.799915238961139e-10, 4.879824710705334e-09, -1.8600068544417881e-09, 0.017422214684928508, -1.3008408046215679e-05, -0.0014537974176974562, -5.018760026104852e-09, 3.1830523665114363e-10, -3.5989899535978326e-09, -1.3008408046215682e-05, 0.017400421082708967, 0.0006663073615626084, 9.884559723660665e-08, 1.2470319873999443e-07, 2.9164299955735566e-10, -0.0014537974176974564, 0.0006663073615626084, 0.22687782245585358)"
2025/09/16/14:08:49.208781,291481,1758049729,200938225,odom,base_link,-3.0074288839245344,-0.401451468777573,0.06009056166702324,-0.003075785784445303,0.01767195029719622,0.48101181675023674,0.8765305892329932,"(9.999990168318782e-10, -3.1561000534225417e-21, -2.8026573009466943e-19, -2.1202063973745957e-24, -9.341523168518274e-25, -5.117171565442472e-24, -3.156100053419069e-21, 9.999990168372917e-10, -2.5799997077571296e-19, 2.652083848362036e-24, -2.2216539621007316e-24, 1.456643509029838e-23, -2.8026573009466943e-19, -2.5799997077571287e-19, 9.999983534942327e-10, -1.23945429657491e-24, -2.6667356858859582e-24, -2.311086379202344e-25, -2.120206397374573e-24, 2.6520838483620357e-24, -1.2394542965748905e-24, 9.999966835581722e-10, -6.88753889351317e-20, 2.0078078531036588e-18, -9.34152316851858e-25, -2.2216539621007496e-24, -2.66673568588595e-24, -6.88753889351317e-20, 9.999966833827544e-10, -6.733379935149239e-19, -5.117171565442438e-24, 1.4566435090298375e-23, -2.3110863792023445e-25, 2.007807853103658e-18, -6.73337993514924e-19, 9.99999021443848e-10)",0.014782683896572871,-0.003088168815429227,-0.006230140259169163,0.0003868844381851809,0.0002063896299995019,-0.016739309309107088,"(0.17880316560863704, 3.282732143553028e-05, 0.0011252184837019258, 1.7109881705595375e-10, -4.9119351836114564e-09, 9.510909052169141e-08, 3.282732143553181e-05, 0.17879926442049254, -0.0007080135425611403, 4.768335666102564e-09, 3.098224784208861e-10, 1.199766782175033e-07, 0.0011252184837019252, -0.0007080135425611402, 0.07780997436584257, -1.8297075084701788e-09, -3.540573591425557e-09, 2.906230394516685e-10, 1.7109881705598267e-10, 4.7683356661025186e-09, -1.8297075084701414e-09, 0.017421973950710858, -1.3011790520232404e-05, -0.0014563694193309908, -4.911935183611546e-09, 3.0982247842092995e-10, -3.5405735914255436e-09, -1.3011790520232406e-05, 0.01740011595126973, 0.0006594391234933653, 9.510909052169155e-08, 1.1997667821750296e-07, 2.9062303945167787e-10, -0.001456369419330991, 0.0006594391234933653, 0.2268256469039675)"
2025/09/16/14:08:49.218762,291482,1758049729,214280128,odom,base_link,-3.008088111294182,-0.40090090066326206,0.062018313761346824,-0.004029630903679987,0.017272285467171734,0.48092335641192924,0.8765832279293309,"(9.999992679827823e-10, -3.1640257404194067e-21, -2.599469666167154e-19, -1.9557383988828954e-24, -8.736446205230493e-25, -4.840218953752791e-24, -3.1640257404153115e-21, 9.999992679873473e-10, -2.7074693253624696e-19, 2.491677103880641e-24, -1.9835135951054827e-24, 1.3803684427791392e-23, -2.599469666167154e-19, -2.707469325362469e-19, 9.999987721699646e-10, -1.1167436884381658e-24, -2.4153591332357673e-24, -2.4842940902170715e-25, -1.9557383988828745e-24, 2.4916771038806422e-24, -1.1167436884381463e-24, 9.99997520999609e-10, -6.003121619470153e-20, 2.0061761130013344e-18, -8.736446205230787e-25, -1.9835135951055e-24, -2.4153591332357573e-24, -6.003121619470153e-20, 9.999975208170054e-10, -5.695408838541157e-19, -4.840218953752757e-24, 1.3803684427791386e-23, -2.4842940902170715e-25, 2.0061761130013336e-18, -5.695408838541155e-19, 9.99999272520819e-10)",0.014486886412453721,-0.0014751283597799715,-0.003671803853602709,-0.0007959719007212794,0.0003276188507878954,-0.01720161692995889,"(0.17879470930911454, 3.2135474991495e-05, 0.0011276750485623623, 1.5968786461762232e-10, -4.773714885392075e-09, 9.035526233698805e-08, 3.213547499149748e-05, 0.17879299414661465, -0.0006982593000450425, 4.623656036820045e-09, 2.9803245496562256e-10, 1.1396304017629421e-07, 0.0011276750485623617, -0.0006982593000450425, 0.0778088109905468, -1.7899508279407791e-09, -3.4639929676070707e-09, 2.904756098894932e-10, 1.5968786461765057e-10, 4.623656036820001e-09, -1.7899508279407425e-09, 0.017421919659189856, -1.2998943831546022e-05, -0.0014600169140143167, -4.773714885392162e-09, 2.980324549656649e-10, -3.463992967607058e-09, -1.2998943831546023e-05, 0.017399957654772737, 0.00064882346975327, 9.03552623369882e-08, 1.1396304017629385e-07, 2.9047560988950206e-10, -0.0014600169140143167, 0.00064882346975327, 0.22680897121216875)"
2025/09/16/14:08:49.228724,291483,1758049729,228615761,odom,base_link,-3.00796018695192,-0.4007383209653071,0.061958409229643935,-0.004037891316723195,0.017271104411357,0.48081536086734544,0.8766424545617961,"(0.0014703945061683033, -6.6514202883275405e-09, -3.016808687894531e-07, -1.1745889976887788e-12, -5.366321146206752e-13, -9.970377601763944e-12, -6.651420288336735e-09, 0.0014704020946414863, -3.729507512193396e-07, 1.524441178033923e-12, -1.1329831047714145e-12, 2.841564941291605e-11, -3.0168086878945325e-07, -3.7295075121934007e-07, 0.0008762258305453171, -3.9315678352429783e-13, -8.825917421903589e-13, -3.579361460166032e-13, -1.1745889976887653e-12, 1.5244411780339224e-12, -3.931567835242906e-13, 0.0004336843048667981, -9.300338301850128e-09, 1.2936964417941856e-06, -5.366321146206931e-13, -1.1329831047714246e-12, -8.825917421903558e-13, -9.300338301850126e-09, 0.00043364723834466936, -2.780030132311101e-07, -9.970377601763863e-12, 2.8415649412916034e-11, -3.5793614601660315e-13, 1.2936964417941852e-06, -2.7800301323111013e-07, 0.0014802289508866865)",0.01450021813234246,-0.0014655988474786645,-0.0036720529675228317,-0.0007959719007212794,0.0003276188507878954,-0.01720161692995889,"(0.18329695145778174, 3.229488431621386e-05, 0.0011353026423406559, 1.6014350968546982e-10, -4.784581018197411e-09, 9.058276225316245e-08, 3.229488431621634e-05, 0.1832952317176275, -0.0007033965983575301, 4.6343793630398825e-09, 2.9865794069623767e-10, 1.1423967582484718e-07, 0.0011353026423406554, -0.0007033965983575301, 0.07925094699841931, -1.7956670697209182e-09, -3.4749057681803974e-09, 2.916368668212149e-10, 1.6014350968549833e-10, 4.6343793630398395e-09, -1.7956670697208816e-09, 0.017565275982432044, -1.2998943831546022e-05, -0.0014600169140143167, -4.784581018197497e-09, 2.986579406962799e-10, -3.474905768180385e-09, -1.2998943831546023e-05, 0.017543313978014924, 0.00064882346975327, 9.058276225316258e-08, 1.1423967582484681e-07, 2.916368668212237e-10, -0.0014600169140143167, 0.00064882346975327, 0.23397678737427813)"
2025/09/16/14:08:49.238842,291484,1758049729,238654375,odom,base_link,-3.007870586126166,-0.400624356706708,0.06191645474705586,-0.004043675641746591,0.017270276944118944,0.4807397319594594,0.8766839204280668,"(0.00254445006044452, -1.9389618816175657e-08, -8.784380936074398e-07, -1.3979040332659399e-08, -9.782308691222226e-09, -1.7250432912315795e-07, -1.9389618816189084e-08, 0.0025444720208805914, -1.0851425965815166e-06, 8.697776924362355e-09, -1.547654678110897e-08, 1.356993029824944e-07, -8.784380936074402e-07, -1.0851425965815175e-06, 0.0015092002284250615, -6.233991728605774e-09, -6.29222553398523e-08, 3.6002314343682284e-11, -1.3979040332659399e-08, 8.697776924362356e-09, -6.233991728605773e-09, 0.0007416924321780956, -2.716850834721573e-08, 3.767238741242453e-06, -9.782308691222224e-09, -1.5476546781108973e-08, -6.292225533985231e-08, -2.7168508347215738e-08, 0.0007415843051882239, -8.116010543219833e-07, -1.7250432912315793e-07, 1.3569930298249441e-07, 3.60023143436823e-11, 3.767238741242452e-06, -8.116010543219834e-07, 0.0025730504347698767)",0.014509553750788365,-0.0014589257481664218,-0.003672227411070044,-0.0007959719007212794,0.0003276188507878954,-0.01720161692995889,"(0.1864634009049545, 3.240675544949693e-05, 0.0011406598608208688, 1.6046257793290395e-10, -4.7921900941980876e-09, 9.074207046182601e-08, 3.240675544949941e-05, 0.1864616779730941, -0.0007070045388459728, 4.6418884378550475e-09, 2.9909594090724667e-10, 1.1443339163083311e-07, 0.0011406598608208686, -0.0007070045388459727, 0.0802703378549232, -1.799669903012442e-09, -3.482547523571229e-09, 2.924500440948668e-10, 1.6046257793293264e-10, 4.641888437855005e-09, -1.7996699030124055e-09, 0.017665662125162757, -1.2998943831546022e-05, -0.0014600169140143167, -4.792190094198173e-09, 2.990959409072888e-10, -3.482547523571217e-09, -1.2998943831546023e-05, 0.017643700120745637, 0.00064882346975327, 9.074207046182614e-08, 1.1443339163083274e-07, 2.924500440948756e-10, -0.0014600169140143167, 0.00064882346975327, 0.23899609451081377)"
2025/09/16/14:08:49.258732,291485,1758049729,250908852,odom,base_link,-3.003641843111848,-0.40872487468929014,0.005336508349682131,-0.010332453613115876,0.011306722822776654,0.4797541968653885,0.877269234050407,"(9.999985172578364e-10, -4.784509286052126e-22, 1.5560128248384107e-20, -4.900949836094005e-24, -3.0596509707709288e-24, -4.852787035121054e-24, -4.78450928603896e-22, 9.999985172570427e-10, -3.7047893566879577e-19, 4.077129848521158e-24, -4.204329506792832e-24, 1.2842578958170128e-23, 1.5560128248384065e-20, -3.704789356687956e-19, 9.99997520785232e-10, -2.3956113740947796e-24, -2.533230456085327e-24, -4.558513924933657e-25, -4.900949836093983e-24, 4.077129848521158e-24, -2.395611374094761e-24, 9.99995018018531e-10, 3.8101523425147203e-20, 1.7197973437321499e-18, -3.0596509707709534e-24, -4.204329506792849e-24, -2.5332304560853247e-24, 3.8101523425147203e-20, 9.999950178895421e-10, 6.32498871483934e-19, -4.85278703512102e-24, 1.2842578958170128e-23, -4.558513924933647e-25, 1.7197973437321495e-18, 6.324988714839338e-19, 9.999985219243797e-10)",0.010667069842121757,-0.01545659757933659,-0.07567101999029219,-0.010370871373531373,-0.002225565622827919,-0.025352183790746306,"(0.1787278249207462, 2.9210124623015805e-05, 0.0011309444964700932, 1.344690580350703e-10, -4.4693960485702744e-09, 7.947294855624475e-08, 2.9210124623020687e-05, 0.1787314405736744, -0.0006530286700563177, 4.301929560557363e-09, 2.5860797634164634e-10, 1.0891034838461375e-07, 0.0011309444964700932, -0.0006530286700563177, 0.07780002049379793, -1.6965757081051007e-09, -3.4149421214145745e-09, 2.832647450834917e-10, 1.3446905803509786e-10, 4.301929560557328e-09, -1.6965757081050654e-09, 0.017421108299125326, -1.2744060705857696e-05, -0.0014650579837439093, -4.4693960485703555e-09, 2.5860797634168093e-10, -3.414942121414572e-09, -1.2744060705857698e-05, 0.01739880107438774, 0.0006019104416673904, 7.947294855624496e-08, 1.0891034838461347e-07, 2.8326474508350177e-10, -0.0014650579837439093, 0.0006019104416673904, 0.2266582354488867)"
2025/09/16/14:08:49.268782,291486,1758049729,260909319,odom,base_link,-3.00416135719216,-0.40831765574111567,0.006690593683757103,-0.011035747566459305,0.01096675967337359,0.47968050934878237,0.8773052783431822,"(9.9999901763724e-10, -3.0650403566491926e-22, 2.6058485501132826e-20, -3.7218927502844514e-24, -2.3231361263289822e-24, -4.6780123675719034e-24, -3.0650403566143326e-22, 9.999990176360496e-10, -3.7574990818000574e-19, 3.299173407972249e-24, -3.017314032623394e-24, 1.2263145267318812e-23, 2.6058485501132697e-20, -3.7574990818000574e-19, 9.999983548425146e-10, -1.8667845542785783e-24, -2.2652159540307064e-24, -4.533705303364117e-25, -3.721892750284434e-24, 3.2991734079722506e-24, -1.86678455427856e-24, 9.999966862112944e-10, 4.2573306194581675e-20, 1.7120392324747354e-18, -2.3231361263290057e-24, -3.0173140326234113e-24, -2.265215954030704e-24, 4.2573306194581675e-20, 9.999966860863759e-10, 6.891768336318705e-19, -4.678012367571875e-24, 1.2263145267318812e-23, -4.53370530336411e-25, 1.712039232474734e-18, 6.891768336318705e-19, 9.999990222284014e-10)",0.010487085561379183,-0.014103357888141717,-0.07322983450284416,-0.011208178238855008,-0.0021666925373416608,-0.025447012360236984,"(0.17870966507315397, 2.7832924931938633e-05, 0.0011289071160294083, 1.2932215272639452e-10, -4.379639561552748e-09, 7.647306405125486e-08, 2.7832924931943282e-05, 0.1787141403902229, -0.0006299108637000738, 4.205623827533336e-09, 2.4297398602508415e-10, 1.0478360141946148e-07, 0.0011289071160294085, -0.0006299108637000738, 0.07779734216857766, -1.6682878691945933e-09, -3.359083373901714e-09, 2.9280752433629295e-10, 1.293221527264216e-10, 4.205623827533301e-09, -1.6682878691945586e-09, 0.017420815002242764, -1.2548006275935708e-05, -0.001462286499370424, -4.379639561552827e-09, 2.429739860251179e-10, -3.359083373901712e-09, -1.254800627593571e-05, 0.01739841128341222, 0.0005786475744642696, 7.647306405125504e-08, 1.047836014194612e-07, 2.9280752433630267e-10, -0.001462286499370424, 0.0005786475744642697, 0.22662035597246652)"
