time,.header.seq,.header.stamp.secs,.header.stamp.nsecs,.header.frame_id,.child_frame_id,.pose.pose.position.x,.pose.pose.position.y,.pose.pose.position.z,.pose.pose.orientation.x,.pose.pose.orientation.y,.pose.pose.orientation.z,.pose.pose.orientation.w,.pose.covariance,.twist.twist.linear.x,.twist.twist.linear.y,.twist.twist.linear.z,.twist.twist.angular.x,.twist.twist.angular.y,.twist.twist.angular.z,.twist.covariance
2025/09/16/14:10:44.850583,300782,1758049844,844038486,odom,base_link,0.823078155174525,0.4424457264058499,0.054838659618514536,-0.005415712477525779,-0.018603590481363532,-0.9982521196465861,0.05583262577257296,"(9.999993685820467e-10, -2.033702244296555e-21, -1.1643884070920987e-19, 1.3147908201872595e-25, -1.3556995557760645e-25, -7.942990834337799e-24, -2.0337022442969506e-21, 9.99999368572594e-10, -4.384626995227108e-19, 1.3184578231857347e-24, 8.968603533537988e-25, -9.02378848340531e-24, -1.1643884070920985e-19, -4.384626995227109e-19, 9.999989398878954e-10, -2.1669986187671473e-24, -1.0341567530807693e-24, 6.9758212147193685e-25, 1.3147908201873633e-25, 1.3184578231857437e-24, -2.1669986187671972e-24, 9.99997856312715e-10, 7.595106418536673e-20, -7.692229436115255e-19, -1.35569955577565e-25, 8.968603533537982e-25, -1.0341567530807144e-24, 7.595106418536675e-20, 9.999978565203047e-10, -2.1227178752560133e-18, -7.942990834337888e-24, -9.023788483405232e-24, 6.97582121471934e-25, -7.692229436115255e-19, -2.1227178752560137e-18, 9.999993730544644e-10)",0.004745534276811405,0.0018005613927800721,0.03620271455118199,0.00613003832001561,-0.0058583164936508985,0.014212330090486811,"(0.17876924162010763, -5.673192412804217e-06, -0.00010194132452838177, 1.1636437336413549e-10, 2.8221903079773495e-09, 8.90142693162479e-08, -5.673192412805463e-06, 0.1787322471340972, -0.000978928277278575, -2.6622298115691103e-09, 1.2652692641359633e-10, 8.099908341586182e-08, -0.00010194132452838181, -0.0009789282772785753, 0.07776949412317623, -3.717919224435308e-09, -1.6735177119136014e-09, 3.503834050684661e-10, 1.1636437336410939e-10, -2.6622298115691476e-09, -3.717919224435399e-09, 0.01738990070616306, 2.2211533662116448e-06, 0.00013359738519166218, 2.822190307977256e-09, 1.2652692641358376e-10, -1.6735177119135028e-09, 2.2211533662116448e-06, 0.01740404905388219, 0.0008939112763639886, 8.901426931624873e-08, 8.099908341586094e-08, 3.5038340506846797e-10, 0.0001335973851916622, 0.0008939112763639888, 0.22702767363269197)"
2025/09/16/14:10:44.859434,300783,1758049844,850672245,odom,base_link,0.8231563566535661,0.44202113213826516,0.05602231386981355,-0.005531372565615057,-0.01865304429696639,-0.9982485995486458,0.055867712993852264,"(9.999985102506955e-10, -2.60839526266387e-21, -1.4533611716667688e-19, -1.5194429643058763e-26, -1.772836611398326e-24, -7.726578009875405e-24, -2.6083952626647674e-21, 9.999985102408238e-10, -4.6143214341393495e-19, 2.9848301818579432e-24, 7.043420501026237e-25, -8.85776638204972e-24, -1.4533611716667683e-19, -4.614321434139353e-19, 9.99997509104668e-10, -2.08225092047141e-24, -1.3370940659467363e-24, 7.115650879774431e-25, -1.5194429643048113e-26, 2.9848301818579517e-24, -2.0822509204714616e-24, 9.999949945320687e-10, 9.182740321013514e-20, -9.128042999050774e-19, -1.7728366113982853e-24, 7.043420501026236e-25, -1.3370940659466827e-24, 9.182740321013516e-20, 9.999949947437858e-10, -2.2124782039455575e-18, -7.726578009875496e-24, -8.857766382049647e-24, 7.1156508797744045e-25, -9.128042999050772e-19, -2.212478203945556e-18, 9.999985149110282e-10)",0.004641747814288237,0.0026422801834005334,0.03748865925164465,0.006156583095297288,-0.005971423053105299,0.014194619657203216,"(0.17874705792310752, -6.0884901524252665e-06, -0.00010799609304454649, 1.1853801965456977e-10, 2.7849101803611558e-09, 8.67570021510831e-08, -6.088490152426386e-06, 0.17870965966063496, -0.0009843274205984201, -2.619962571503433e-09, 1.2800236140988917e-10, 7.894489429074092e-08, -0.00010799609304454651, -0.0009843274205984204, 0.07776723384363966, -3.675063716636029e-09, -1.6555232131677156e-09, 3.3136202816662906e-10, 1.1853801965454408e-10, -2.6199625715034696e-09, -3.6750637166361186e-09, 0.017389636586116006, 2.2849049591303946e-06, 0.0001421447081293489, 2.784910180361064e-09, 1.2800236140987674e-10, -1.655523213167618e-09, 2.2849049591303946e-06, 0.017403848495784816, 0.0008991414047763086, 8.675700215108391e-08, 7.894489429074004e-08, 3.3136202816663087e-10, 0.00014214470812934891, 0.0008991414047763088, 0.22696566046164568)"
2025/09/16/14:10:44.868730,300784,1758049844,868607283,odom,base_link,0.8230857923036254,0.44199042224193213,0.056699169542347,-0.005584110348529742,-0.01871045110889994,-0.9982401508055055,0.05599408942663839,"(0.0018511831997972254, -8.764531608452173e-09, -2.9183175099116527e-07, 1.0867698209033505e-13, -6.577302184653566e-13, -2.4911880579577865e-11, -8.764531608450231e-09, 0.0018511508381857176, -9.097259316299995e-07, 1.83996039189487e-12, 8.017468509028881e-13, -2.8427691673111322e-11, -2.918317509911651e-07, -9.097259316299991e-07, 0.0011013174633728554, -1.2083425890487864e-12, -6.453758054322614e-13, 1.3856960098320846e-12, 1.086769820903456e-13, 1.839960391894878e-12, -1.2083425890488159e-12, 0.000543657167877527, 2.7664794097530494e-08, -9.119403531250476e-07, -6.577302184653167e-13, 8.017468509028872e-13, -6.453758054322301e-13, 2.7664794097530494e-08, 0.0005437196222188354, -2.1789953213586525e-06, -2.491188057957816e-11, -2.8427691673111077e-11, 1.3856960098320791e-12, -9.119403531250475e-07, -2.1789953213586525e-06, 0.0018664551987781553)",0.004549652084630587,0.002643442237264423,0.03773263957122338,0.006156583095297288,-0.005971423053105299,0.014194619657203216,"(0.18438348902290758, -6.125603001651249e-06, -0.00010892040849987287, 1.1888140497121405e-10, 2.7930302961984776e-09, 8.701162601662074e-08, -6.125603001652374e-06, 0.18434586335665312, -0.0009927923210315197, -2.6278308335259415e-09, 1.2830554152215153e-10, 7.918880616643458e-08, -0.00010892040849987289, -0.0009927923210315199, 0.07957366520578646, -3.6835840330324187e-09, -1.662347822481426e-09, 3.3439492286235223e-10, 1.1888140497118828e-10, -2.6278308335259783e-09, -3.683584033032509e-09, 0.017568986962245157, 2.2849049591303946e-06, 0.0001421447081293489, 2.793030296198386e-09, 1.2830554152213902e-10, -1.6623478224813278e-09, 2.2849049591303946e-06, 0.017583198871913966, 0.0008991414047763086, 8.701162601662154e-08, 7.918880616643371e-08, 3.34394922862354e-10, 0.00014214470812934891, 0.0008991414047763088, 0.2359331792681032)"
2025/09/16/14:10:44.879527,300785,1758049844,878616095,odom,base_link,0.8230471884744137,0.4419734628774381,0.05707879289856842,-0.005613542863799922,-0.01874248563078683,-0.9982354263703392,0.05606461368923573,"(0.002935104505109104, -2.1503703858946164e-08, -7.147024727086961e-07, -2.3107378124523145e-08, -2.063695745993195e-07, 3.362613633111385e-08, -2.15037038589457e-08, 0.002935025360055579, -2.224833830121232e-06, 2.0603198005365205e-07, -2.30466169214742e-08, -7.409757292570342e-08, -7.147024727086959e-07, -2.2248338301212324e-06, 0.0017381512448252047, 6.851363075353153e-09, -2.2016763550557054e-08, 1.2179905003983225e-10, -2.3107378124523145e-08, 2.0603198005365203e-07, 6.851363075353151e-09, 0.0008519422453651302, 6.79112533193433e-08, -2.269027930600181e-06, -2.063695745993195e-07, -2.3046616921474197e-08, -2.2016763550557054e-08, 6.79112533193433e-08, 0.0008520941430854949, -5.329012786161538e-06, 3.362613633111384e-08, -7.409757292570342e-08, 1.2179905003983228e-10, -2.2690279306001814e-06, -5.329012786161539e-06, 0.0029723738894902414)",0.0044982572194789995,0.002644090732062776,0.03786879502241534,0.006156583095297288,-0.005971423053105299,0.014194619657203216,"(0.18754464233573495, -6.146364341767035e-06, -0.0001094378294319675, 1.1907303429115723e-10, 2.7975618011881856e-09, 8.715372119608594e-08, -6.146364341768164e-06, 0.18750688944458235, -0.0009975322025312019, -2.632221789188353e-09, 1.2847473395967593e-10, 7.932492342188982e-08, -0.00010943782943196754, -0.000997532202531202, 0.08059265023132935, -3.688338873608297e-09, -1.6661563581941486e-09, 3.360874575160772e-10, 1.1907303429113143e-10, -2.63222178918839e-09, -3.6883388736083875e-09, 0.017669075081751993, 2.2849049591303946e-06, 0.0001421447081293489, 2.797561801188094e-09, 1.284747339596634e-10, -1.6661563581940502e-09, 2.2849049591303946e-06, 0.017683286991420803, 0.0008991414047763086, 8.715372119608675e-08, 7.932492342188894e-08, 3.360874575160789e-10, 0.00014214470812934891, 0.0008991414047763088, 0.240937585243445)"
2025/09/16/14:10:44.898769,300786,1758049844,897328615,odom,base_link,0.8214847444053369,0.45447728115407404,0.018765137131665353,-0.0076582034585095955,-0.019572290834896235,-0.9982614022139933,0.05506768744930439,"(9.999990166109217e-10, -4.100162821055722e-21, -2.0699766915689645e-19, 2.2129892674759627e-25, 1.7947198950737303e-25, -6.415465452037913e-24, -4.10016282105536e-21, 9.99999016600642e-10, -4.862293184368711e-19, 9.35380379529384e-25, 8.498568674051642e-25, -7.785579042679707e-24, -2.0699766915689637e-19, -4.862293184368711e-19, 9.99998353139199e-10, -3.267296715263204e-24, -1.1255355874642252e-24, 6.764749945316825e-25, 2.2129892674760867e-25, 9.353803795293716e-25, -3.2672967152632515e-24, 9.99996682700299e-10, 1.2689039349438349e-19, -1.2095063171065154e-18, 1.794719895074016e-25, 8.498568674051616e-25, -1.1255355874641749e-24, 1.2689039349438341e-19, 9.999966829046254e-10, -2.2987866421942494e-18, -6.415465452037994e-24, -7.785579042679644e-24, 6.76474994531681e-25, -1.2095063171065154e-18, -2.2987866421942498e-18, 9.999990211901084e-10)",0.0031377062979550635,-0.022727568601596446,-0.011089055940087019,0.006919475639059728,-0.008304858429651276,0.009940005063503898,"(0.17871000344168572, -9.321666115294558e-06, -0.00015488474478128828, 1.4254528122505328e-10, 3.2542073585985065e-09, 6.999785542313434e-08, -9.321666115295654e-06, 0.17867010706214265, -0.0010223626963051047, -3.058988649413902e-09, 1.4713413956056348e-10, 7.017170045693388e-08, -0.0001548847447812883, -0.0010223626963051051, 0.077765299911285, -3.353104362081975e-09, -1.5966503429840922e-09, 2.2577036940501465e-10, 1.4254528122503102e-10, -3.0589886494138768e-09, -3.3531043620820607e-09, 0.017389333443600382, 2.813587477078345e-06, 0.00020769939610631758, 3.2542073585984528e-09, 1.4713413956055565e-10, -1.596650342984001e-09, 2.8135874770783444e-06, 0.017403992184077857, 0.0009355710209975928, 6.999785542313508e-08, 7.017170045693313e-08, 2.2577036940501835e-10, 0.0002076993961063176, 0.0009355710209975929, 0.22683293036939023)"
2025/09/16/14:10:44.908790,300787,1758049844,908618689,odom,base_link,0.8214199100509093,0.4547235463962665,0.01863050659224315,-0.007703948161869809,-0.01961343800038229,-0.998257185177841,0.055123084758912456,"(0.0011518316466422747, -5.4070086346096085e-09, -1.636627459785959e-07, 8.174017373766444e-14, 2.3590098039152112e-14, -8.151839799939855e-12, -5.40700863461123e-09, 0.0011518182702599353, -3.814546661096152e-07, 4.0490839743461977e-13, 3.200929835998289e-13, -9.933329092714784e-12, -1.6366274597859583e-07, -3.814546661096151e-07, 0.0006873732407981191, -7.044577656556679e-13, -2.533107818809714e-13, 5.196231050107777e-13, 8.174017373766931e-14, 4.04908397434615e-13, -7.044577656556788e-13, 0.00034092762891654307, 1.5069174441429553e-08, -4.77566144746517e-07, 2.359009803916309e-14, 3.200929835998278e-13, -2.5331078188095984e-13, 1.5069174441429553e-08, 0.0003409515483461424, -9.012777020777851e-07, -8.151839799939958e-12, -9.9333290927147e-12, 5.196231050107763e-13, -4.77566144746517e-07, -9.01277702077785e-07, 0.001157900693625724)",0.003077190399772149,-0.022777522703378773,-0.011148575743612827,0.006919475639059728,-0.008304858429651276,0.009940005063503898,"(0.18225384091158262, -9.35809351242462e-06, -0.00015576306514522326, 1.4280409759469278e-10, 3.2602287913034156e-09, 7.012468133354843e-08, -9.358093512425717e-06, 0.1822137914359653, -0.0010279237112650133, -3.0647924948700803e-09, 1.4736213424940514e-10, 7.030697989861003e-08, -0.0001557630651452233, -0.0010279237112650137, 0.07889953892661677, -3.3572628605013397e-09, -1.6006913924870004e-09, 2.2720322573868554e-10, 1.428040975946705e-10, -3.064792494870055e-09, -3.3572628605014257e-09, 0.017502234177548134, 2.813587477078345e-06, 0.00020769939610631758, 3.260228791303362e-09, 1.4736213424939726e-10, -1.6006913924869088e-09, 2.8135874770783444e-06, 0.01751689291802561, 0.0009355710209975928, 7.012468133354917e-08, 7.030697989860927e-08, 2.272032257386892e-10, 0.0002076993961063176, 0.0009355710209975929, 0.23247796706677792)"
2025/09/16/14:10:44.918784,300788,1758049844,910673857,odom,base_link,0.8215937017031418,0.4536923773998938,0.021172986009208566,-0.007761733986781806,-0.0194773976956048,-0.9982593260992068,0.05512444394715584,"(9.999992681704925e-10, -4.134281635476159e-21, -2.057590836245216e-19, 1.1749997904114095e-21, 1.5128468514022494e-20, -2.7798471300157474e-20, -4.13428163547717e-21, 9.999992681603196e-10, -4.793079538110446e-19, -1.5272793570955735e-20, 1.6693097809230353e-21, -7.278358626552804e-21, -2.0575908362452152e-19, -4.793079538110444e-19, 9.999987724885296e-10, -4.7679579740118396e-20, -6.999411504578896e-21, -1.1940312074668465e-23, 1.1749997904114087e-21, -1.5272793570955744e-20, -4.7679579740118414e-20, 9.999975214862682e-10, 1.258039829656465e-19, -1.2155890687235944e-18, 1.5128468514022488e-20, 1.6693097809230344e-21, -6.999411504578891e-21, 1.258039829656465e-19, 9.99997521685389e-10, -2.2723826415546834e-18, -2.779847130015748e-20, -7.278358626552805e-21, -1.194031207466848e-23, -1.215589068723595e-18, -2.2723826415546823e-18, 9.999992726814506e-10)",0.003073438204591803,-0.02063109499479082,-0.007907870084399743,0.0067513865897575855,-0.008352372348525264,0.00995896728843811,"(0.1786870368896849, -1.0425602122671104e-05, -0.00017066919601935635, 1.4617301306974722e-10, 3.158620405726521e-09, 6.728772275018514e-08, -1.0425602122672332e-05, 0.1786465415254162, -0.0010336648520529437, -2.9550995237213634e-09, 1.4873911288492446e-10, 6.675231234535533e-08, -0.00017066919601935637, -0.0010336648520529442, 0.07776334349648563, -3.2865183702300624e-09, -1.5638712781882863e-09, 1.9964058708198978e-10, 1.46173013069726e-10, -2.955099523721333e-09, -3.286518370230149e-09, 0.017389088525449372, 3.002402935503737e-06, 0.0002296412029692704, 3.1586204057264685e-09, 1.487391128849167e-10, -1.5638712781881961e-09, 3.002402935503736e-06, 0.01740387452656158, 0.0009463370594215813, 6.72877227501859e-08, 6.67523123453546e-08, 1.9964058708199294e-10, 0.00022964120296927042, 0.0009463370594215814, 0.2267640463367179)"
2025/09/16/14:10:44.928837,300789,1758049844,928675890,odom,base_link,0.8214966104892268,0.4540502295044565,0.021016914342242135,-0.007835173403984319,-0.019541516040176028,-0.9982526085379193,0.05521294011208627,"(0.0018582932826148916, -1.3957694979782566e-08, -4.1839751174556545e-07, 1.8511188400012121e-13, -1.284411647049127e-13, -1.9709698904540588e-11, -1.3957694979784078e-08, 0.001858259691998497, -9.591420113133479e-07, 1.169005262863492e-12, 7.464157483132518e-13, -2.4005504612504508e-11, -4.183975117455656e-07, -9.591420113133474e-07, 0.0011055301231088811, -1.492156703126227e-12, -5.932116421272579e-13, 1.2560643566149303e-12, 1.851118840001335e-13, 1.1690052628634782e-12, -1.4921567031262553e-12, 0.0005457175904169766, 3.825380441706032e-08, -1.2212812246731582e-06, -1.284411647048857e-13, 7.464157483132492e-13, -5.932116421272287e-13, 3.8253804417060326e-08, 0.0005457769979352849, -2.2734443684197774e-06, -1.9709698904540856e-11, -2.4005504612504298e-11, 1.2560643566149275e-12, -1.221281224673158e-06, -2.2734443684197774e-06, 0.0018736405635116707)",0.0029769706745768746,-0.020703824816326714,-0.007980169786652029,0.0067513865897575855,-0.008352372348525264,0.00995896728843811,"(0.18434439088912707, -1.0490808724690754e-05, -0.0001722290263813839, 1.4659437626723838e-10, 3.1678972263459673e-09, 6.748144812537987e-08, -1.0490808724691986e-05, 0.1843036474633816, -0.001042650358344783, -2.9640040379151557e-09, 1.4910712183107726e-10, 6.69568328046142e-08, -0.0001722290263813839, -0.0010426503583447835, 0.0795765840460952, -3.2927799861013315e-09, -1.5700895784069702e-09, 2.017377636713946e-10, 1.4659437626721708e-10, -2.964004037915125e-09, -3.2927799861014184e-09, 0.017569108857785797, 3.002402935503737e-06, 0.0002296412029692704, 3.1678972263459152e-09, 1.4910712183106945e-10, -1.5700895784068794e-09, 3.002402935503736e-06, 0.017583894858898004, 0.0009463370594215813, 6.748144812538063e-08, 6.695683280461347e-08, 2.017377636713977e-10, 0.00022964120296927042, 0.0009463370594215814, 0.2357650629535392)"
2025/09/16/14:10:44.938809,300790,1758049844,938685656,odom,base_link,0.8214432533898756,0.4542498093490948,0.020929516321932604,-0.007876009632065003,-0.01957716635775005,-0.9982488659124982,0.055262145579844546,"(0.002942532789191552, -3.4125903174896186e-08, -1.0221182575386092e-06, 3.713985818956273e-09, 4.8393196507884514e-08, -3.8245675516320936e-07, -3.4125903174899634e-08, 0.0029424508023634236, -2.3398585389633826e-06, -4.8086624847344243e-08, 5.46503045535386e-09, -1.0207175286253303e-07, -1.0221182575386094e-06, -2.33985853896338e-06, 0.0017425380668619611, -1.120865932478728e-07, -1.7070341587792644e-08, 5.108477700874473e-10, 3.713985818956272e-09, -4.8086624847344243e-08, -1.120865932478728e-07, 0.0008540689083020603, 9.367157443092183e-08, -3.031325789378855e-06, 4.839319650788453e-08, 5.465030455353862e-09, -1.7070341587792647e-08, 9.367157443092183e-08, 0.0008542121533341025, -5.545972681651376e-06, -3.8245675516320925e-07, -1.0207175286253306e-07, 5.108477700874473e-10, -3.0313257893788545e-06, -5.545972681651375e-06, 0.0029798890993845183)",0.0029233313243246196,-0.020744265163151643,-0.008020370971979817,0.0067513865897575855,-0.008352372348525264,0.00995896728843811,"(0.18750581024153404, -1.0527155087501704e-05, -0.00017309914352837765, 1.4682866907156477e-10, 3.173055465914834e-09, 6.758916626899992e-08, -1.0527155087502939e-05, 0.18746492853658475, -0.0010476635346655062, -2.9689552619756564e-09, 1.4931174778921673e-10, 6.707055339584568e-08, -0.00017309914352837765, -0.0010476635346655064, 0.0805957268291454, -3.296261665447865e-09, -1.573547172722405e-09, 2.0290386784761335e-10, 1.4682866907154344e-10, -2.968955261975626e-09, -3.296261665447952e-09, 0.017669206514035796, 3.002402935503737e-06, 0.0002296412029692704, 3.173055465914782e-09, 1.493117477892089e-10, -1.5735471727223139e-09, 3.002402935503736e-06, 0.017683992515148003, 0.0009463370594215813, 6.758916626900067e-08, 6.707055339584495e-08, 2.0290386784761638e-10, 0.00022964120296927042, 0.0009463370594215814, 0.2407699457660392)"
2025/09/16/14:10:44.948881,300791,1758049844,948703289,odom,base_link,0.8213903117917412,0.4544499798215106,0.02084161124018744,-0.00791687791445721,-0.019612844593252143,-0.998245114974615,0.05531138942718929,"(0.004065171771524984, -6.363774222870613e-08, -1.9043486862917047e-06, 9.952845443114705e-09, 1.2550380978857908e-07, -1.0008465247508676e-06, -6.363774222871334e-08, 0.004065018939426152, -4.357477390690116e-06, -1.2395473517579586e-07, 1.4274857243719203e-08, -2.651273399109339e-07, -1.904348686291705e-06, -4.357477390690113e-06, 0.002396368808306053, -2.886160082037282e-07, -4.345841441388814e-08, 1.7888874985318616e-09, 9.952845443114707e-09, -1.2395473517579578e-07, -2.8861600820372807e-07, 0.0011662122438853087, 1.750088558480899e-07, -5.682688444651569e-06, 1.2550380978857908e-07, 1.4274857243719206e-08, -4.345841441388815e-08, 1.750088558480899e-07, 0.001166477909813703, -1.0325407412922987e-05, -1.0008465247508674e-06, -2.6512733991093404e-07, 1.7888874985318616e-09, -5.682688444651567e-06, -1.0325407412922987e-05, 0.0041347758951316045)",0.0028696498128071607,-0.020784737296644,-0.008060603755990813,0.0067513865897575855,-0.008352372348525264,0.00995896728843811,"(0.1906810036390059, -1.0563593837774985e-05, -0.00017397194551611948, 1.4706314603324974e-10, 3.17821775993077e-09, 6.769696908055869e-08, -1.0563593837776221e-05, 0.1906399832969671, -0.0010526927565167753, -2.9739103777661973e-09, 1.4951653458616667e-10, 6.718436337302205e-08, -0.00017397194551611948, -0.0010526927565167755, 0.08162353198714677, -3.299746081442132e-09, -1.5770074847544084e-09, 2.0407088859771298e-10, 1.470631460332284e-10, -2.9739103777661662e-09, -3.299746081442219e-09, 0.0177693828484169, 3.002402935503737e-06, 0.0002296412029692704, 3.1782177599307184e-09, 1.4951653458615881e-10, -1.5770074847543168e-09, 3.002402935503736e-06, 0.017784168849529106, 0.0009463370594215813, 6.769696908055944e-08, 6.718436337302133e-08, 2.0407088859771595e-10, 0.00022964120296927042, 0.0009463370594215814, 0.24577876248509437)"
2025/09/16/14:10:44.958729,300792,1758049844,957333088,odom,base_link,0.8218483923186486,0.45076886011088324,0.029781671934282085,-0.007790339265728852,-0.018950899263144798,-0.9982574123980861,0.0553381660657499,"(9.999988588491152e-10, -4.294170930892214e-21, -2.063756319273241e-19, 5.128881866551369e-25, 6.280474171881523e-25, -1.1156239642658091e-23, -4.294170930892027e-21, 9.999988588391566e-10, -4.680923308392968e-19, 1.0847137920040802e-24, 8.13220434377512e-25, -7.7222162092054e-24, -2.0637563192732419e-19, -4.680923308392972e-19, 9.999980901685695e-10, -2.5690111125949537e-24, -9.99635446999427e-25, 8.510954141537175e-25, 5.128881866551427e-25, 1.0847137920040888e-24, -2.569011112594938e-24, 9.999961567249369e-10, 1.244998482658733e-19, -1.2180362522032658e-18, 6.280474171881583e-25, 8.132204343775175e-25, -9.99635446999375e-25, 1.244998482658733e-19, 9.999961569155878e-10, -2.2419862885867435e-18, -1.115623964265807e-23, -7.72221620920541e-24, 8.510954141537178e-25, -1.218036252203266e-18, -2.241986288586745e-18, 9.999988634498338e-10)",0.0031248467768706743,-0.01329896650688016,0.003222182470819003,0.0059698354204917176,-0.008122764597143702,0.010015374813084526,"(0.17867251105026408, -1.3906606852283489e-05, -0.00022291657035764477, 1.486224589939013e-10, 2.385967956146639e-09, 1.1905201535925214e-07, -1.3906606852283476e-05, 0.17863036899494922, -0.0010691315671781177, -2.1566148190430145e-09, 1.4509987224012725e-10, 6.454878280965804e-08, -0.0002229165703576447, -0.0010691315671781175, 0.07776397155340052, -3.995545728141084e-09, -1.5749640190003607e-09, 6.273642380271143e-10, 1.4862245899387742e-10, -2.1566148190430348e-09, -3.995545728141055e-09, 0.017389083756249646, 3.66951329496962e-06, 0.00030151912526179864, 2.385967956146614e-09, 1.4509987224012094e-10, -1.5749640190002656e-09, 3.6695132949696197e-06, 0.01740425933103178, 0.0009796918481566723, 1.1905201535925194e-07, 6.454878280965816e-08, 6.273642380271102e-10, 0.00030151912526179864, 0.0009796918481566725, 0.22669820509320365)"
2025/09/16/14:10:44.968818,300793,1758049844,968624353,odom,base_link,0.8217975012893455,0.4509157238377878,0.029813104019527692,-0.007835321964012824,-0.018986643692681496,-0.9982532841146108,0.05539400550060852,"(0.0011519511294103264, -5.460748370295477e-09, -1.5986337804992595e-07, 1.8819619769260863e-13, 1.90175931493484e-13, -1.4338369265708268e-11, -5.4607483702942924e-09, 0.0011519385604647498, -3.587395126866626e-07, 4.559018063205701e-13, 3.0119422202488273e-13, -9.90117454689121e-12, -1.5986337804992603e-07, -3.5873951268666285e-07, 0.0006874451445887319, -6.83215700200449e-13, -2.5344322553907455e-13, 6.456132748912089e-13, 1.8819619769261088e-13, 4.559018063205733e-13, -6.832157002004454e-13, 0.00034096360058501706, 1.425469044592818e-08, -4.713950761105106e-07, 1.901759314934862e-13, 3.011942220248848e-13, -2.534432255390625e-13, 1.4254690445928181e-08, 0.0003409851508358837, -8.616359795767385e-07, -1.4338369265708242e-11, -9.901174546891222e-12, 6.456132748912089e-13, -4.7139507611051067e-07, -8.616359795767383e-07, 0.001158011701434157)",0.0030649500835811944,-0.013329446725020089,0.0032260272812687403,0.0059698354204917176,-0.008122764597143702,0.010015374813084526,"(0.18221665307967622, -1.3961454471721545e-05, -0.00022421972614837909, 1.4888516625794258e-10, 2.390198345903553e-09, 1.192779026839516e-07, -1.3961454471721531e-05, 0.18217434900111226, -0.001074979534743199, -2.160565196888807e-09, 1.4532153075397183e-10, 6.467225408312916e-08, -0.000224219726148379, -0.0010749795347431985, 0.07889834908351787, -4.00274140464816e-09, -1.578919790010147e-09, 6.305857754224007e-10, 1.4888516625791864e-10, -2.160565196888827e-09, -4.002741404648131e-09, 0.017501996411126354, 3.66951329496962e-06, 0.00030151912526179864, 2.390198345903528e-09, 1.453215307539655e-10, -1.5789197900100515e-09, 3.6695132949696197e-06, 0.01751717198590849, 0.0009796918481566723, 1.192779026839514e-07, 6.467225408312928e-08, 6.305857754223965e-10, 0.00030151912526179864, 0.0009796918481566725, 0.2323438378370391)"
2025/09/16/14:10:44.978738,300794,1758049844,970669985,odom,base_link,0.8219062089052044,0.4498957701230144,0.03227222782068798,-0.0077160438868802885,-0.01874280799738633,-0.998258518952837,0.05539945083840769,"(9.99999267698427e-10, -4.166596152255093e-21, -2.0094795864364849e-19, -6.872134382814572e-22, -3.510026752658244e-21, -1.653368131086908e-20, -4.16659615225436e-21, 9.999992676888819e-10, -4.506692436050383e-19, 3.398723492824252e-21, -3.912291471277492e-22, -5.6829986030528594e-21, -2.0094795864364853e-19, -4.506692436050392e-19, 9.999987717036564e-10, -2.859204418154609e-20, -6.4059177622130374e-21, -7.235246656136147e-24, -6.872134382814571e-22, 3.398723492824255e-21, -2.85920441815461e-20, 9.999975199213407e-10, 1.189907081188491e-19, -1.199548001482659e-18, -3.510026752658244e-21, -3.9122914712774935e-22, -6.4059177622130314e-21, 1.1899070811884907e-19, 9.99997520100629e-10, -2.172018024584081e-18, -1.6533681310869083e-20, -5.682998603052861e-21, -7.235246656136156e-24, -1.199548001482659e-18, -2.1720180245840807e-18, 9.999992722025461e-10)",0.0031680408490000443,-0.011265879956795672,0.006333532485714422,0.005690072672846146,-0.007960163235784358,0.010004635912224061,"(0.17865125662795953, -1.4745056281488303e-05, -0.00023668998266230417, 1.5597779694857977e-10, 2.3275669427870735e-09, 1.1355180144890474e-07, -1.4745056281488258e-05, 0.17860884920399367, -0.0010773574842420854, -2.0896974524430444e-09, 1.4556705165521618e-10, 6.141587471822668e-08, -0.0002366899826623041, -0.001077357484242085, 0.07776204540007776, -3.911918022001122e-09, -1.542481380995731e-09, 5.791526829338047e-10, 1.5597779694855637e-10, -2.0896974524430655e-09, -3.911918022001098e-09, 0.01738886233760541, 3.853933488421808e-06, 0.00032031186133045823, 2.3275669427870503e-09, 1.4556705165520997e-10, -1.5424813809956376e-09, 3.853933488421808e-06, 0.017404122555222924, 0.0009873198299253417, 1.1355180144890454e-07, 6.141587471822678e-08, 5.791526829338019e-10, 0.00032031186133045823, 0.000987319829925342, 0.22663885186409505)"
2025/09/16/14:10:44.993353,300795,1758049844,993237257,odom,base_link,0.8218101498680078,0.45014660760517455,0.03240734108544178,-0.00780425841981131,-0.018811015397331734,-0.9982503556698498,0.05551095977603528,"(0.0023480730594334282, -2.143157137259855e-08, -6.253965680678651e-07, 7.027255632863849e-13, 6.613813142599818e-13, -5.4374538636848995e-11, -2.1431571372598245e-08, 0.0023480238426267707, -1.4048431782521234e-06, 1.7633509668300295e-12, 1.1218529516378071e-12, -3.759361100889349e-11, -6.253965680678651e-07, -1.4048431782521234e-06, 0.0013940274932268992, -2.3367246028951523e-12, -9.211534213409552e-13, 2.426875474561581e-12, 7.027255632863939e-13, 1.7633509668300422e-12, -2.3367246028951414e-12, 0.0006859045728045931, 5.531916188643911e-08, -1.853467934481159e-06, 6.613813142599902e-13, 1.1218529516378146e-12, -9.211534213409081e-13, 5.531916188643911e-08, 0.0006859885579663682, -3.3934236472556167e-06, -5.43745386368489e-11, -3.759361100889353e-11, 2.4268754745615822e-12, -1.8534679344811592e-06, -3.3934236472556167e-06, 0.002372080844767992)",0.0030487885498456636,-0.011318468616511644,0.006368294440364998,0.005690072672846146,-0.007960163235784358,0.010004635912224061,"(0.18574893463575498, -1.4861451591306959e-05, -0.00023946762608105803, 1.5652917472103455e-10, 2.335774285214115e-09, 1.1398092404927111e-07, -1.4861451591306915e-05, 0.18570620103152735, -0.0010891598327554127, -2.0973121904410503e-09, 1.4601125162650228e-10, 6.164986709019976e-08, -0.00023946762608105797, -0.0010891598327554125, 0.08003915311193006, -3.925654008928517e-09, -1.55010862355744e-09, 5.851414060950913e-10, 1.5652917472101108e-10, -2.0973121904410714e-09, -3.925654008928493e-09, 0.017614535059468202, 3.853933488421808e-06, 0.00032031186133045823, 2.335774285214092e-09, 1.4601125162649602e-10, -1.5501086235573456e-09, 3.853933488421808e-06, 0.017629795277085716, 0.0009873198299253417, 1.1398092404927091e-07, 6.164986709019986e-08, 5.851414060950884e-10, 0.00032031186133045823, 0.000987319829925342, 0.2379224879572347)"
2025/09/16/14:10:45.009515,300796,1758049845,8611679,odom,base_link,0.8217461478548007,0.45031835728446534,0.03249977314418456,-0.00786435791390366,-0.018857480699440043,-0.9982447801043275,0.05558692553771089,"(0.004054424076848479, -6.145876779261644e-08, -1.7925443828547133e-06, -8.647734902736435e-09, -6.259629231433767e-08, -4.20488082138166e-07, -6.145876779261169e-08, 0.004054283408066103, -4.018381542161964e-06, 6.29779344109146e-08, -6.704077031803041e-09, -1.5718623486907234e-07, -1.7925443828547143e-06, -4.018381542161964e-06, 0.0023904344730006433, -1.230070330094135e-07, -3.088409386656336e-08, 8.310029616779773e-10, -8.647734902736436e-09, 6.297793441091459e-08, -1.2300703300941347e-07, 0.001163426069446465, 1.590891509284907e-07, -5.400430051670969e-06, -6.25962923143377e-08, -6.704077031803041e-09, -3.088409386656337e-08, 1.5908915092849072e-07, 0.0011636631404506165, -9.704500422996112e-06, -4.2048808213816596e-07, -1.5718623486907234e-07, 8.31002961677977e-10, -5.400430051670969e-06, -9.704500422996112e-06, 0.004122899465159944)",0.0029675454485401692,-0.011354295731285286,0.0063919767427044905,0.005690072672846146,-0.007960163235784358,0.010004635912224061,"(0.1906171176075707, -1.4941013089542708e-05, -0.00024136831185812165, 1.569048122604597e-10, 2.341365707408716e-09, 1.1427327271794465e-07, -1.4941013089542665e-05, 0.19057416102775296, -0.0010972372434947314, -2.1024998885816614e-09, 1.4631387206672018e-10, 6.180927924506574e-08, -0.0002413683118581216, -0.0010972372434947311, 0.08161321587061299, -3.935011934816626e-09, -1.5553048406913359e-09, 5.892213479153585e-10, 1.5690481226043617e-10, -2.1024998885816825e-09, -3.935011934816602e-09, 0.017768279280201846, 3.853933488421808e-06, 0.00032031186133045823, 2.3413657074086936e-09, 1.4631387206671387e-10, -1.5553048406912412e-09, 3.853933488421808e-06, 0.01778353949781936, 0.0009873198299253417, 1.1427327271794445e-07, 6.180927924506584e-08, 5.892213479153555e-10, 0.00032031186133045823, 0.000987319829925342, 0.24560969899391683)"
2025/09/16/14:10:45.018922,300797,1758049845,17330885,odom,base_link,0.8220409749835094,0.44667569002327207,0.041103965490464446,-0.006971439420252725,-0.017693317232817612,-0.9982741170068667,0.05556197325392082,"(9.999988707350898e-10, -3.906220001333694e-21, -1.84711023868324e-19, 4.818466337006953e-25, 4.621732426850712e-25, -1.1652975270081936e-23, -3.906220001333831e-21, 9.999988707259378e-10, -4.2923921440254495e-19, 1.1824027028748968e-24, 6.888330988042647e-25, -7.234745070282002e-24, -1.8471102386832392e-19, -4.292392144025445e-19, 9.999981099682372e-10, -2.463191097519006e-24, -9.690213632939626e-25, 7.992539117510827e-25, 4.81846633700699e-25, 1.182402702874898e-24, -2.4631910975189707e-24, 9.99996196321232e-10, 1.0789119508633623e-19, -1.120167182542363e-18, 4.621732426850686e-25, 6.8883309880427e-25, -9.690213632939202e-25, 1.0789119508633621e-19, 9.999961964931373e-10, -2.1039961570146413e-18, -1.1652975270081895e-23, -7.23474507028202e-24, 7.992539117510826e-25, -1.1201671825423632e-18, -2.1039961570146405e-18, 9.999988753422498e-10)",0.0034543020262348518,-0.004174911083744751,0.01713814882740581,0.004387999130833193,-0.0068262056453805165,0.009643861485072859,"(0.17873269870575065, -1.7176127785053212e-05, -0.0002800000913375808, 1.7643356901330348e-10, 2.4686647635835058e-09, 1.2371663958807336e-07, -1.717612778505414e-05, 0.17868971913939363, -0.0011013319188487396, -2.210844199662778e-09, 1.4936323747300006e-10, 5.9071281543306375e-08, -0.0002800000913375808, -0.0011013319188487398, 0.07777346580420111, -4.058347769195256e-09, -1.5398472946311474e-09, 6.675161681577801e-10, 1.7643356901328738e-10, -2.2108441996627765e-09, -4.058347769195193e-09, 0.01739016532512611, 4.470060881169474e-06, 0.00037859501467331054, 2.4686647635835025e-09, 1.4936323747299303e-10, -1.539847294631072e-09, 4.470060881169475e-06, 0.017405663575194637, 0.0010090421861348592, 1.2371663958807307e-07, 5.907128154330655e-08, 6.675161681577782e-10, 0.0003785950146733106, 0.0010090421861348592, 0.22682706327373503)"
2025/09/16/14:10:45.028827,300798,1758049845,28642654,odom,base_link,0.8219995392667593,0.44672538425135305,0.04129703232998003,-0.007009565729907191,-0.017719859337148,-0.9982703755199964,0.05561591438172325,"(0.0011540929941584916, -4.66615741877e-09, -1.3435759649878547e-07, 1.5434812261609266e-13, 7.673807762390882e-15, -1.4958146289210077e-11, -4.666157418771328e-09, 0.0011540816056333821, -3.218498633689727e-07, 5.995594721860057e-13, 2.3758153778643225e-13, -9.30547921289516e-12, -1.3435759649878552e-07, -3.2184986336897234e-07, 0.0006887101692600646, -5.925587862039873e-13, -2.4793684055217337e-13, 5.919337197150368e-13, 1.543481226160942e-13, 5.995594721860063e-13, -5.925587862039792e-13, 0.0003415850566211739, 1.1553442537360007e-08, -4.123547458167128e-07, 7.673807762389836e-15, 2.3758153778643417e-13, -2.4793684055216377e-13, 1.1553442537360004e-08, 0.00034160433838091375, -7.967136529485144e-07, -1.495814628921004e-11, -9.30547921289518e-12, 5.91933719715037e-13, -4.123547458167128e-07, -7.967136529485145e-07, 0.0011601861521918918)",0.003395605160722474,-0.004186722815384639,0.017202349345672278,0.004387999130833193,-0.0068262056453805165,0.009643861485072859,"(0.18228339215540457, -1.724409145306019e-05, -0.00028165535125864095, 1.7674536656105454e-10, 2.473042846167119e-09, 1.2395207232090586e-07, -1.7244091453061117e-05, 0.18224024708495196, -0.0011073814535782764, -2.2148886823113357e-09, 1.4959202028026554e-10, 5.918363134943021e-08, -0.00028165535125864095, -0.0011073814535782767, 0.07890993704332364, -4.066015848991187e-09, -1.5436675053069848e-09, 6.709028608470856e-10, 1.7674536656103841e-10, -2.214888682311334e-09, -4.066015848991124e-09, 0.017503283019980845, 4.470060881169474e-06, 0.00037859501467331054, 2.4730428461671156e-09, 1.4959202028025849e-10, -1.543667505306909e-09, 4.470060881169475e-06, 0.017518781270049372, 0.0010090421861348592, 1.239520723209056e-07, 5.918363134943038e-08, 6.709028608470837e-10, 0.0003785950146733106, 0.0010090421861348592, 0.23248294801647185)"
2025/09/16/14:10:45.038800,300799,1758049845,30668259,odom,base_link,0.822070002498471,0.4457021363177822,0.043650441749378356,-0.006756894434666946,-0.01733835492126342,-0.9982793117074482,0.05560702872053623,"(9.999992677313924e-10, -3.538985553726281e-21, -1.6827427045044374e-19, -2.4738663499454637e-21, -2.1386290766612734e-20, -5.553614655535843e-21, -3.538985553727306e-21, 9.999992677227874e-10, -4.02826264634205e-19, 2.1308130371260162e-20, -2.3864193448997296e-21, -4.571192300248761e-21, -1.6827427045044379e-19, -4.028262646342047e-19, 9.999987717451256e-10, -1.0077912116179436e-20, -6.585581164591739e-21, -3.0615562837207477e-24, -2.4738663499454648e-21, 2.130813037126016e-20, -1.0077912116179432e-20, 9.999975199957849e-10, 9.610314518666152e-20, -1.0451011003422861e-18, -2.1386290766612746e-20, -2.3864193448997292e-21, -6.5855811645917394e-21, 9.610314518666155e-20, 9.999975201558025e-10, -2.0009382815018807e-18, -5.5536146555358426e-21, -4.571192300248759e-21, -3.0615562837207462e-24, -1.0451011003422861e-18, -2.000938281501881e-18, 9.999992722435648e-10)",0.003546552518404292,-0.0021816944831912826,0.02015037528382588,0.003960333950025922,-0.0065032187923982025,0.009546987809979752,"(0.17870910986454322, -1.7609683661796564e-05, -0.0002897650196807104, 1.8055161050502657e-10, 2.4156267192083593e-09, 1.1765937899265215e-07, -1.760968366179699e-05, 0.17866614139296613, -0.0011055811354528451, -2.1538223328070566e-09, 1.4837229039007973e-10, 5.6223496591909515e-08, -0.0002897650196807104, -0.0011055811354528451, 0.07777111470626703, -3.969055843520011e-09, -1.5081516523793938e-09, 6.19883713515216e-10, 1.8055161050501175e-10, -2.153822332807052e-09, -3.969055843519951e-09, 0.017389932302554246, 4.617115694628531e-06, 0.0003915555207860798, 2.4156267192083507e-09, 1.483722903900727e-10, -1.5081516523793198e-09, 4.617115694628532e-06, 0.017405468859322155, 0.001012738954958324, 1.1765937899265192e-07, 5.6223496591909654e-08, 6.19883713515215e-10, 0.00039155552078607987, 0.001012738954958324, 0.22676480546033512)"
2025/09/16/14:10:45.048683,300800,1758049845,48574924,odom,base_link,0.822007542106477,0.4457469036826937,0.044011748580546434,-0.006814526837657552,-0.017376417091929292,-0.9982735442135939,0.05569159071400297,"(0.0018481515055925985, -1.1144983164723066e-08, -3.209883067088287e-07, 3.5769006622563753e-13, 7.10879801979968e-14, -3.55906886192673e-11, -1.1144983164723665e-08, 0.00184812389069338, -7.804623087798469e-07, 1.3371602934888867e-12, 5.582877355183658e-13, -2.2171842501223067e-11, -3.209883067088284e-07, -7.804623087798464e-07, 0.0010995293628034619, -1.3691570218672767e-12, -5.751280202077141e-13, 1.3771870426198708e-12, 3.576900662256413e-13, 1.3371602934888869e-12, -1.3691570218672573e-12, 0.0005427904595759447, 2.7272916878448485e-08, -9.950053054304696e-07, 7.108798019799664e-14, 5.582877355183702e-13, -5.751280202076905e-13, 2.7272916878448485e-08, 0.0005428370600599245, -1.9486370464394367e-06, -3.5590688619267214e-11, -2.21718425012231e-11, 1.3771870426198718e-12, -9.950053054304694e-07, -1.9486370464394367e-06, 0.0018633417478323283)",0.0034541512356527576,-0.00219398167535031,0.02027231241239402,0.003960333950025922,-0.0065032187923982025,0.009546987809979752,"(0.18433644566089688, -1.7719977034031893e-05, -0.0002924794688269536, 1.8105615010570353e-10, 2.422377977610871e-09, 1.1801254455341574e-07, -1.7719977034032317e-05, 0.18429321523230283, -0.0011152022190287398, -2.160033361021164e-09, 1.4873089001875247e-10, 5.639217001708557e-08, -0.00029247946882695355, -0.0011152022190287396, 0.07957474586275791, -3.980637207434677e-09, -1.5139842790310512e-09, 6.248868626958794e-10, 1.810561501056887e-10, -2.16003336102116e-09, -3.980637207434617e-09, 0.017568998960574265, 4.617115694628531e-06, 0.0003915555207860798, 2.4223779776108627e-09, 1.4873089001874538e-10, -1.5139842790309767e-09, 4.617115694628532e-06, 0.017584535517342174, 0.001012738954958324, 1.180125445534155e-07, 5.639217001708571e-08, 6.248868626958783e-10, 0.00039155552078607987, 0.001012738954958324, 0.2357181383613361)"
2025/09/16/14:10:45.060220,300801,1758049845,58625698,odom,base_link,0.8219732236286156,0.445772251749879,0.044215488769786815,-0.006846875883562509,-0.017397779581827186,-0.9982703018102008,0.055739053454718065,"(0.0029365742930539127, -2.7405117771397356e-08, -7.897937262101617e-07, -1.2534711945261004e-08, -1.1047716420932172e-07, -4.770011855615954e-08, -2.7405117771399976e-08, 0.0029365065624426387, -1.916622684111173e-06, 1.1029022520677497e-07, -1.2240009847741553e-08, -6.565335298910531e-08, -7.897937262101613e-07, -1.916622684111173e-06, 0.0017390129626980106, -1.5836071535419866e-08, -1.7087470326201315e-08, 1.4471588451388623e-10, -1.2534711945261002e-08, 1.1029022520677497e-07, -1.5836071535419866e-08, 0.00085236888225987, 6.723044224956184e-08, -2.484994104588498e-06, -1.1047716420932172e-07, -1.2240009847741552e-08, -1.7087470326201315e-08, 6.723044224956186e-08, 0.0008524821190890076, -4.784759265749797e-06, -4.770011855615954e-08, -6.565335298910531e-08, 1.4471588451388623e-10, -2.484994104588498e-06, -4.784759265749797e-06, 0.0029738004790123315)",0.0034022876232160195,-0.0022008783130710776,0.0203407541026973,0.003960333950025922,-0.0065032187923982025,0.009546987809979752,"(0.18751075915440088, -1.778203546385863e-05, -0.0002940080262166523, 1.8133934148064213e-10, 2.4261673692602236e-09, 1.1821077169078891e-07, -1.7782035463859053e-05, 0.18746738132330532, -0.0011206206115228347, -2.1635195286428445e-09, 1.4893216722625025e-10, 5.648684416977273e-08, -0.00029400802621665223, -0.0011206206115228344, 0.08059804070289736, -3.987137673138971e-09, -1.5172580548828775e-09, 6.276950638630304e-10, 1.8133934148062726e-10, -2.1635195286428404e-09, -3.987137673138911e-09, 0.01766950669678032, 4.617115694628531e-06, 0.0003915555207860798, 2.4261673692602158e-09, 1.4893216722624314e-10, -1.5172580548828029e-09, 4.617115694628532e-06, 0.01768504325354823, 0.001012738954958324, 1.1821077169078867e-07, 5.648684416977287e-08, 6.276950638630292e-10, 0.00039155552078607987, 0.001012738954958324, 0.24074352517163883)"
2025/09/16/14:10:45.078812,300802,1758049845,77337742,odom,base_link,0.8157159748804337,0.45764668323773017,0.02069699897011772,-0.0029206760350828347,-0.01184841614129413,-0.9983551161964597,0.05601916324611209,"(9.999990180397406e-10, -2.796690094037853e-21, -1.2995698147518274e-19, 1.5788577551765794e-25, -7.843743222851013e-25, -9.374925251919098e-24, -2.7966900940372103e-21, 9.99999018032063e-10, -3.556919074403164e-19, 1.918787908878386e-24, 3.8246648492084497e-25, -6.1209042773167206e-24, -1.2995698147518271e-19, -3.556919074403164e-19, 9.999983555106695e-10, -1.979859884392126e-24, -1.0276665824596842e-24, 5.665595474413462e-25, 1.5788577551766124e-25, 1.9187879088783913e-24, -1.9798598843920952e-24, 9.999966874374364e-10, 7.256096808282407e-20, -8.5146401841987855e-19, -7.843743222850937e-25, 3.8246648492085025e-25, -1.0276665824596477e-24, 7.25609680828241e-20, 9.999966875811773e-10, -1.8295594538616515e-18, -9.374925251919075e-24, -6.120904277316738e-24, 5.665595474413469e-25, -8.514640184198782e-19, -1.829559453861651e-18, 9.999990226119657e-10)",0.01102059581421293,-0.026008977080842054,-0.00998727216300752,-0.0022059513248118955,-0.0015641728638691652,0.009982824774022358,"(0.17867775950588022, -1.8495235868014703e-05, -0.0003166368989677332, 1.8956311943578321e-10, 2.5850300814346336e-09, 1.0030034317074803e-07, -1.8495235868014656e-05, 0.17863524170256842, -0.0011136034196457857, -2.319627536695457e-09, 1.4648176017217062e-10, 5.015856538615927e-08, -0.0003166368989677332, -0.0011136034196457855, 0.07776836239081074, -3.696651532152245e-09, -1.443857072549898e-09, 5.029750927721589e-10, 1.895631194357691e-10, -2.319627536695467e-09, -3.6966515321521875e-09, 0.017389733339990443, 5.051105378978242e-06, 0.00042644301250860855, 2.5850300814346046e-09, 1.4648176017216508e-10, -1.4438570725498314e-09, 5.051105378978243e-06, 0.01740533317932441, 0.0010189689302184965, 1.003003431707478e-07, 5.0158565386159445e-08, 5.029750927721599e-10, 0.00042644301250860866, 0.0010189689302184965, 0.22668630461581754)"
2025/09/16/14:10:45.088838,300803,1758049845,88710546,odom,base_link,0.8155580168799305,0.45792414066775655,0.020577114377661177,-0.0029309319076482906,-0.011836225912864028,-0.9983520571113546,0.056075693984283734,"(0.0011604389834067143, -1.8756550431394817e-09, -3.411479348302256e-08, 3.859724770445573e-14, 7.294834351873025e-14, -1.2465787202361198e-11, -1.8756550431402005e-09, 0.0011604321851664517, -1.6491687224371047e-07, 2.1964396175820804e-13, 1.3719580471845502e-13, -8.062396431330533e-12, -3.4114793483022505e-08, -1.6491687224371034e-07, 0.0006924726790367129, -7.827185862765775e-13, -3.180071191449588e-13, 3.058590335187524e-13, 3.859724770445723e-14, 2.1964396175820988e-13, -7.8271858627657e-13, 0.00034343506502363937, 2.9439923081937598e-09, -1.546989706463482e-07, 7.294834351873323e-14, 1.3719580471845676e-13, -3.1800711914495014e-13, 2.9439923081937594e-09, 0.0003434449566554399, -4.997350558558098e-07, -1.2465787202361166e-11, -8.062396431330551e-12, 3.0585903351875303e-13, -1.546989706463482e-07, -4.997350558558099e-07, 0.0011665941925048788)",0.010977514265435286,-0.02606512220877556,-0.010043940313976494,-0.0022059513248118955,-0.0015641728638691652,0.009982824774022358,"(0.18224754208231536, -1.856854533336543e-05, -0.0003185164477756322, 1.8989747429320506e-10, 2.5896396949814717e-09, 1.0048922036228701e-07, -1.856854533336538e-05, 0.18220486009377784, -0.0011197474622305903, -2.323887631583179e-09, 1.4670485191254644e-10, 5.025328431475089e-08, -0.0003185164477756322, -0.00111974746223059, 0.07891098933453913, -3.7029555358477144e-09, -1.4472917027022293e-09, 5.055962854196873e-10, 1.8989747429319092e-10, -2.3238876315831893e-09, -3.702955535847657e-09, 0.017503461386407678, 5.051105378978242e-06, 0.00042644301250860855, 2.5896396949814428e-09, 1.467048519125409e-10, -1.4472917027021623e-09, 5.051105378978243e-06, 0.017519061225741647, 0.0010189689302184965, 1.0048922036228679e-07, 5.025328431475106e-08, 5.055962854196883e-10, 0.00042644301250860866, 0.0010189689302184965, 0.23237270693667936)"
2025/09/16/14:10:45.098758,300804,1758049845,89584827,odom,base_link,0.8157277105785046,0.45682340949971895,0.02302612593825391,-0.002573984096905422,-0.01151089224890717,-0.9983581749102818,0.05605201651425263,"(9.999992010046528e-10, -1.3952990761860525e-21, -4.236902523234298e-20, 6.528161390338558e-22, 6.814369400529744e-21, -1.5854483054812393e-20, -1.395299076186468e-21, 9.999992009995903e-10, -2.04671246777645e-19, -6.882817554436013e-21, 7.659439036256181e-22, -9.004817170224836e-21, -4.236902523234293e-20, -2.0467124677764489e-19, 9.999986605012478e-10, -2.808992757416526e-20, -1.2019494443432791e-20, -2.7721365077175877e-24, 6.528161390338558e-22, -6.882817554436012e-21, -2.808992757416526e-20, 9.999972974710088e-10, 2.4339485751639863e-20, -3.8651045675083237e-19, 6.814369400529736e-21, 7.65943903625618e-22, -1.2019494443432793e-20, 2.433948575163986e-20, 9.999972975529638e-10, -1.2443626101135854e-18, -1.5854483054812396e-20, -9.004817170224837e-21, -2.7721365077175877e-24, -3.8651045675083217e-19, -1.2443626101135864e-18, 9.999992055337291e-10)",0.010915727194301696,-0.023953592291328738,-0.006922969032290446,-0.002556091004671798,-0.0011324083362144349,0.009800938442812174,"(0.17866259694473768, -1.805797234113829e-05, -0.0003148314866679688, 1.8453271145363722e-10, 2.5142500449553167e-09, 9.586692821906384e-08, -1.8057972341138558e-05, 0.17862092034712976, -0.0011047157676470254, -2.25650723936871e-09, 1.4226982307916067e-10, 4.7924883886643834e-08, -0.0003148314866679688, -0.0011047157676470252, 0.077766210622273, -3.6221776037043092e-09, -1.4159200889795972e-09, 4.80051274988422e-10, 1.845327114536235e-10, -2.2565072393687208e-09, -3.6221776037042534e-09, 0.017389528983531372, 5.047835058110846e-06, 0.0004231254673511007, 2.5142500449552878e-09, 1.422698230791552e-10, -1.4159200889795327e-09, 5.047835058110847e-06, 0.01740504283194197, 0.001009830451739743, 9.586692821906363e-08, 4.7924883886644026e-08, 4.80051274988423e-10, 0.0004231254673511008, 0.001009830451739743, 0.22665863450393356)"
2025/09/16/14:10:45.108751,300805,1758049845,108614445,odom,base_link,0.815470334504701,0.457250831329178,0.022884705046711543,-0.002587179955642798,-0.011486976642208156,-0.998353195353396,0.056144930271241275,"(0.0019678822501211736, -4.795955022810472e-09, -7.174509618639603e-08, 5.982049208322021e-14, -1.998522105338293e-14, -3.306223168964746e-11, -4.795955022810846e-09, 0.0019678639746358493, -4.382200141415967e-07, 7.675759691637798e-13, 3.3110453320045787e-13, -2.1420243435420084e-11, -7.174509618639606e-08, -4.382200141415969e-07, 0.0011701480007656458, -1.794330269601727e-12, -7.343674533676811e-13, 7.817689349608866e-13, 5.982049208322426e-14, 7.675759691637852e-13, -1.7943302696017069e-12, 0.0005771881697784982, 7.0566123135424525e-09, -3.7441133931831214e-07, -1.9985221053374566e-14, 3.3110453320046297e-13, -7.343674533676578e-13, 7.0566123135424525e-09, 0.0005772148034274376, -1.3540886195416795e-06, -3.3062231689647375e-11, -2.142024343542015e-11, 7.817689349608886e-13, -3.7441133931831214e-07, -1.3540886195416795e-06, 0.0019850228305604008)",0.010843444987859743,-0.024040349657223296,-0.006994811099087486,-0.002556091004671798,-0.0011324083362144349,0.009800938442812174,"(0.1846438789975922, -1.8177567175126078e-05, -0.0003179525324395101, 1.8507457103764082e-10, 2.5217141025920995e-09, 9.61679169732268e-08, -1.8177567175126345e-05, 0.18460193340480271, -0.0011149044251555157, -2.2634109545889905e-09, 1.4262910458329913e-10, 4.807577754112661e-08, -0.0003179525324395101, -0.0011149044251555153, 0.07968376791788008, -3.6322458591658184e-09, -1.4214691915180743e-09, 4.842334333937009e-10, 1.8507457103762707e-10, -2.2634109545890016e-09, -3.6322458591657626e-09, 0.017579825156627076, 5.047835058110846e-06, 0.0004231254673511007, 2.521714102592071e-09, 1.4262910458329365e-10, -1.4214691915180094e-09, 5.047835058110847e-06, 0.017595339005037673, 0.001009830451739743, 9.61679169732266e-08, 4.8075777541126805e-08, 4.842334333937019e-10, 0.0004231254673511008, 0.001009830451739743, 0.23617344315871872)"
2025/09/16/14:10:45.118759,300806,1758049845,118615866,odom,base_link,0.8153354925922197,0.45747615690573495,0.022809826504118662,-0.002594114749856229,-0.011474406910865619,-0.9983505744784218,0.05619376293961328,"(0.0030549445953416375, -1.1144529340392446e-08, -1.6900558539025333e-07, 4.159962167209831e-09, 4.36606101085605e-08, -4.5722854674696404e-07, -1.1144529340390125e-08, 0.003054901847286082, -1.0258508160566247e-06, -4.3617864420370206e-08, 5.153153164613364e-09, -2.73503098029423e-07, -1.6900558539025346e-07, -1.025850816056626e-06, 0.0018082237929973196, -1.387560997612128e-07, -6.312156503783628e-08, 3.649095954238699e-10, 4.159962167209831e-09, -4.361786442037021e-08, -1.3875609976121286e-07, 0.0008856106068042666, 1.6580596031415646e-08, -8.872939069637091e-07, 4.366061010856051e-08, 5.1531531646133655e-09, -6.312156503783631e-08, 1.658059603141565e-08, 0.0008856728023376374, -3.1698610486331386e-06, -4.5722854674696404e-07, -2.7350309802942293e-07, 3.649095954238699e-10, -8.872939069637091e-07, -3.1698610486331386e-06, 0.0030950402580053517)",0.010805455533639617,-0.024085946840017608,-0.0070325692285360805,-0.002556091004671798,-0.0011324083362144349,0.009800938442812174,"(0.1878037592413607, -1.82405824618309e-05, -0.00031959840031673385, 1.8535935689122115e-10, 2.5256369971722014e-09, 9.632610802825815e-08, -1.8240582461831166e-05, 0.18776167190420667, -0.0011202780010340586, -2.267039349268949e-09, 1.4281793263553307e-10, 4.815508291739074e-08, -0.0003195984003167338, -0.0011202780010340582, 0.08070288647637167, -3.6375374454186356e-09, -1.424385640630866e-09, 4.864314558822125e-10, 1.8535935689120737e-10, -2.26703934926896e-09, -3.6375374454185798e-09, 0.017679839366374392, 5.047835058110846e-06, 0.0004231254673511007, 2.525636997172173e-09, 1.4281793263552757e-10, -1.4243856406308008e-09, 5.047835058110847e-06, 0.01769535321478499, 0.001009830451739743, 9.632610802825794e-08, 4.8155082917390935e-08, 4.864314558822136e-10, 0.0004231254673511008, 0.001009830451739743, 0.24117415364608444)"
2025/09/16/14:10:45.136837,300807,1758049845,128651857,odom,base_link,0.8152004878607279,0.4577027393858152,0.022734304568766125,-0.002601073510146584,-0.011461793702514963,-0.9983479419374206,0.05624276425490199,"(0.004183470792662895, -2.012207350593944e-08, -3.109925507822898e-07, 1.074999319415464e-08, 1.1188575645955427e-07, -1.1838839462191024e-06, -2.0122073505936866e-08, 0.004183392725950065, -1.8773188798358273e-06, -1.1129558102101028e-07, 1.3408050786464696e-08, -7.062012764825482e-07, -3.1099255078228987e-07, -1.8773188798358294e-06, 0.0024648736900508873, -3.535951838951253e-07, -1.6032343237116428e-07, 1.248769535114771e-09, 1.0749993194154639e-08, -1.1129558102101026e-07, -3.535951838951254e-07, 0.0011986453978691774, 3.043003234508764e-08, -1.6324196901286572e-06, 1.1188575645955434e-07, 1.3408050786464696e-08, -1.603234323711643e-07, 3.0430032345087654e-08, 0.0011987589445296635, -5.7933009928782235e-06, -1.1838839462191024e-06, -7.062012764825482e-07, 1.248769535114771e-09, -1.632419690128657e-06, -5.7933009928782235e-06, 0.004256880116836969)",0.010767334765899219,-0.024131701633041132,-0.007070457871912779,-0.002556091004671798,-0.0011324083362144349,0.009800938442812174,"(0.1909858793277933, -1.8303926153855163e-05, -0.00032125379128280634, 1.8564512712938202e-10, 2.5295734515442915e-09, 9.648484588304586e-08, -1.8303926153855428e-05, 0.19094364950130238, -0.0011256831093362089, -2.270680285778953e-09, 1.4300741338670082e-10, 4.8234662418891673e-08, -0.0003212537912828063, -0.0011256831093362082, 0.08173341050267134, -3.6428473224532747e-09, -1.4273121706781579e-09, 4.886370760073981e-10, 1.8564512712936822e-10, -2.270680285778964e-09, -3.642847322453219e-09, 0.017780199283061404, 5.047835058110846e-06, 0.0004231254673511007, 2.5295734515442633e-09, 1.430074133866953e-10, -1.4273121706780925e-09, 5.047835058110847e-06, 0.017795713131472, 0.001009830451739743, 9.648484588304565e-08, 4.823466241889186e-08, 4.886370760073992e-10, 0.0004231254673511008, 0.001009830451739743, 0.24619214948043502)"
2025/09/16/14:10:45.138811,300808,1758049845,137953520,odom,base_link,0.8158128259755397,0.453430118104565,0.03231874795968457,-0.0011652207355781889,-0.01007172152176972,-0.9983661060182827,0.056234518226054214,"(9.999989425297976e-10, -1.0179137339195069e-21, -9.6157932822289e-21, 1.245144637991995e-25, 4.673145030585896e-25, -1.4795217396993114e-23, -1.0179137339198527e-21, 9.999989425253953e-10, -1.747242226034238e-19, 6.187222482515625e-25, 5.318314791372414e-25, -9.18375739986426e-24, -9.615793282228909e-21, -1.74724222603424e-19, 9.999982296298746e-10, -2.823799795083015e-24, -1.1931542661115077e-24, 4.55601526497739e-25, 1.2451446379920371e-25, 6.187222482515811e-25, -2.8237997950830264e-24, 9.999964356468375e-10, 1.4112689292478985e-20, -2.226884606006149e-19, 4.673145030586133e-25, 5.3183147913724235e-25, -1.1931542661114794e-24, 1.4112689292478976e-20, 9.999964357190021e-10, -1.1253591399974966e-18, -1.4795217396993144e-23, -9.18375739986424e-24, 4.556015264977408e-25, -2.2268846060061476e-19, -1.1253591399974966e-18, 9.99998947125642e-10)",0.01045360717576567,-0.01593556736476595,0.005045818896194495,-0.004038244444227428,0.0006015329579786181,0.00935591221186427,"(0.17866522780427252, -1.62897629300952e-05, -0.00030382579185782174, 1.543272000444066e-10, 1.776269182061091e-09, 1.569474220115066e-07, -1.628976293009532e-05, 0.17862676012827677, -0.0010681087368751392, -1.5669349295753149e-09, 1.1360042209131632e-10, 7.450801853547213e-08, -0.00030382579185782164, -0.001068108736875139, 0.07776488556542172, -4.539113032242763e-09, -1.8317943397194295e-09, 4.3462536109009825e-10, 1.5432720004438916e-10, -1.566934929575371e-09, -4.539113032242782e-09, 0.01738949326527068, 4.986544265001081e-06, 0.0004049828012748409, 1.7762691820610247e-09, 1.1360042209131756e-10, -1.831794339719378e-09, 4.986544265001082e-06, 0.01740465366575538, 0.0009727270195657907, 1.569474220115069e-07, 7.45080185354719e-08, 4.346253610901112e-10, 0.000404982801274841, 0.0009727270195657907, 0.22670555060994949)"
2025/09/16/14:10:45.148778,300809,1758049845,148683310,odom,base_link,0.8156824323256,0.4535886939473293,0.032369896758428,-0.0011637237889198504,-0.010049852133389393,-0.9983635038722976,0.05628463693468079,"(0.0010935890994954742, -1.0407118839411137e-09, 7.158286021171064e-09, 1.3936834265061269e-14, 8.659661112369719e-14, -1.7169898514843233e-11, -1.0407118839410868e-09, 0.0010935842618945827, -1.086898406044639e-07, 2.539967127305486e-13, 1.6498392981162497e-13, -1.069135092882649e-11, 7.158286021171058e-09, -1.0868984060446389e-07, 0.0006527781689137851, -7.008292319090512e-13, -3.282408918467606e-13, 2.801877230291742e-13, 1.3936834265062672e-14, 2.539967127305552e-13, -7.008292319090537e-13, 0.0003238967183974701, 9.204905324203813e-10, -4.3647036988874714e-08, 8.659661112370546e-14, 1.649839298116253e-13, -3.2824089184675473e-13, 9.204905324203812e-10, 0.0003239036190046255, -3.694464786608686e-07, -1.7169898514843268e-11, -1.0691350928826466e-11, 2.8018772302917534e-13, -4.36470369888747e-08, -3.694464786608686e-07, 0.0010990754329968625)",0.010412325748336436,-0.0159687216662167,0.005055485253567314,-0.004038244444227428,0.0006015329579786181,0.00935591221186427,"(0.18203277706199075, -1.635001416763314e-05, -0.0003055023216961743, 1.545737313822353e-10, 1.7790506247635868e-09, 1.5723375384883196e-07, -1.6350014167633254e-05, 0.1819941704851821, -0.0010736158577869654, -1.5694928608589099e-09, 1.1374750271654173e-10, 7.46438341175466e-08, -0.0003055023216961742, -0.0010736158577869651, 0.07884262462227294, -4.5487058024571834e-09, -1.8366501171074145e-09, 4.369221790164223e-10, 1.5457373138221783e-10, -1.5694928608589661e-09, -4.5487058024572025e-09, 0.017496791162609545, 4.986544265001081e-06, 0.0004049828012748409, 1.7790506247635204e-09, 1.1374750271654296e-10, -1.836650117107363e-09, 4.986544265001082e-06, 0.017511951563094246, 0.0009727270195657907, 1.5723375384883225e-07, 7.464383411754636e-08, 4.369221790164353e-10, 0.000404982801274841, 0.0009727270195657907, 0.23207044547689284)"
2025/09/16/14:10:45.159466,300810,1758049845,151278734,odom,base_link,0.8158410786189021,0.45247081006840034,0.034905728575829534,-0.0007275304209205509,-0.009712297652336803,-0.9983663524300437,0.05630069546043633,"(9.999992670456621e-10, -8.612934675599315e-22, 9.952711268828795e-21, -8.99639466842086e-22, -7.264714175327575e-21, -2.2685774584207715e-20, -8.612934675596951e-22, 9.999992670416342e-10, -1.5109667556976103e-19, 7.196555175440576e-21, -8.245827602132496e-22, -1.859037634218893e-20, 9.952711268828802e-21, -1.5109667556976113e-19, 9.9999877058731e-10, -4.1292147912004355e-20, -2.669818901431242e-20, -3.1500961482715135e-24, -8.99639466842087e-22, 7.196555175440586e-21, -4.1292147912004343e-20, 9.999975176670748e-10, 8.586026412515079e-21, -1.2127006240778595e-19, -7.264714175327585e-21, -8.245827602132501e-22, -2.669818901431242e-20, 8.586026412515084e-21, 9.99997517731254e-10, -1.0310350895426268e-18, -2.2685774584207715e-20, -1.859037634218894e-20, -3.1500961482715116e-24, -1.212700624077859e-19, -1.0310350895426264e-18, 9.999992715646898e-10)",0.010311456295488368,-0.013818689565169582,0.008269376899663379,-0.0043921266436394305,0.0011241798843993943,0.009297180853316192,"(0.1786407907618167, -1.5717747328126183e-05, -0.00029781294341267475, 1.457967020358076e-10, 1.726604887539414e-09, 1.4991068616790715e-07, -1.5717747328126492e-05, 0.17860327308431412, -0.0010558997480374314, -1.528410956586709e-09, 1.0880699644779362e-10, 7.13098162558441e-08, -0.00029781294341267464, -0.0010558997480374314, 0.07776147477693392, -4.450835290104788e-09, -1.8002461945769291e-09, 4.16118540078158e-10, 1.4579670203579053e-10, -1.5284109565867662e-09, -4.450835290104809e-09, 0.017389138844990513, 4.9366216542124014e-06, 0.00039589909559938167, 1.7266048875393528e-09, 1.0880699644779435e-10, -1.8002461945768793e-09, 4.936621654212402e-06, 0.017404187544704887, 0.0009605343807593378, 1.4991068616790747e-07, 7.13098162558439e-08, 4.1611854007817034e-10, 0.0003958990955993818, 0.0009605343807593378, 0.22665519634022938)"
