time,.header.seq,.header.stamp.secs,.header.stamp.nsecs,.header.frame_id,.child_frame_id,.pose.pose.position.x,.pose.pose.position.y,.pose.pose.position.z,.pose.pose.orientation.x,.pose.pose.orientation.y,.pose.pose.orientation.z,.pose.pose.orientation.w,.pose.covariance,.twist.twist.linear.x,.twist.twist.linear.y,.twist.twist.linear.z,.twist.twist.angular.x,.twist.twist.angular.y,.twist.twist.angular.z,.twist.covariance
2025/09/16/14:11:50.171054,306032,1758049910,168625832,odom,base_link,0.44913378390535924,0.6955963111638864,0.02851830235337395,-0.005071537923559525,0.0029912888575988044,-0.7649723176473093,0.6440362450416626,"(0.004428929122639065, 6.524686879463153e-09, -1.9778227823178413e-06, 1.549309215516869e-07, 1.8443042262148606e-08, -1.1564234612071717e-05, 6.524686879461883e-09, 0.004428898091787269, 3.7791112208220033e-07, -2.7540522858008408e-08, 1.6762382759027257e-07, 1.259584140227184e-06, -1.977822782317841e-06, 3.7791112208219975e-07, 0.002606779396043735, -2.048856485404516e-07, 3.258365881258341e-06, 1.0399819370545299e-08, 1.5493092155168696e-07, -2.7540522858008408e-08, -2.0488564854045164e-07, 0.0012657381136848697, -6.100806625987633e-09, -5.20506717051874e-07, 1.844304226214861e-08, 1.676238275902726e-07, 3.258365881258342e-06, -6.100806625986726e-09, 0.0012657812569403586, 4.0660462809302496e-06, -1.156423461207171e-05, 1.2595841402271838e-06, 1.0399819370545304e-08, -5.205067170518743e-07, 4.06604628093025e-06, 0.004511529169709604)",-0.19581927351847514,-0.01307400018141498,-0.009536841131168497,-0.004048237176466559,0.003896405447225682,0.26061707537555656,"(0.19169193799259113, -4.950645275354196e-06, -0.0004359051009352038, 1.3258158069720396e-09, 2.5714720499104964e-09, 3.879589849711627e-07, -4.950645275354537e-06, 0.19169323027886123, -6.270826640532084e-05, -2.7789317938458596e-09, -8.041980247942526e-10, -2.887382226377624e-06, -0.00043590510093520344, -6.270826640532086e-05, 0.08192843962796433, 7.850316215029773e-09, 5.4575690209169326e-08, -1.3466910649923742e-08, 1.3258158069720704e-09, -2.7789317938459055e-09, 7.850316215029798e-09, 0.017804224110868638, -4.486884305069551e-08, 0.0005626098822528848, 2.5714720499103583e-09, -8.041980247942847e-10, 5.457569020916991e-08, -4.486884305069607e-08, 0.017801191083587128, 6.819890911718618e-05, 3.8795898497116897e-07, -2.887382226377628e-06, -1.3466910649923682e-08, 0.0005626098822528847, 6.819890911718613e-05, 0.24752318029114737)"
2025/09/16/14:11:50.179134,306033,1758049910,174099207,odom,base_link,0.4556319951245165,0.6969985900942816,0.03114451503212125,-0.006515106861136856,0.00586296322329129,-0.7615613065987059,0.6480336066412778,"(9.999981906916564e-10, 8.717638094357419e-22, -2.3231687029507853e-19, 2.8407995092904916e-24, -1.494589360248403e-23, -3.1813523262986134e-22, 8.717638094355167e-22, 9.999981906933662e-10, 5.589458951621503e-20, -3.5953916136113796e-25, 4.76524585040726e-25, 1.6942199641365e-23, -2.3231687029507833e-19, 5.589458951621497e-20, 9.999969764617536e-10, 6.400101988040541e-24, 3.960055293235874e-23, 6.06651972362307e-24, 2.8407995092904776e-24, -3.595391613611417e-25, 6.400101988040528e-24, 9.999939292213469e-10, -1.9574568321169432e-21, -5.334573168816962e-20, -1.4945893602483987e-23, 4.7652458504077655e-25, 3.960055293235921e-23, -1.957456832116945e-21, 9.999939292665333e-10, 9.874466798410741e-19, -3.181352326298604e-22, 1.6942199641364868e-23, 6.0665197236230856e-24, -5.334573168816964e-20, 9.874466798410745e-19, 9.999981953950776e-10)",-0.19879595349933693,-0.0023390903816744133,-0.0060852968199184565,-0.007578991560705368,0.004750807402555681,0.28113061168205045,"(0.17869637081198128, -4.046209713231498e-06, -0.00039475000827031507, 7.759853743343756e-10, 1.4318975118286919e-09, 3.742007335164584e-07, -4.046209713231596e-06, 0.17869639766870063, -8.813795314649392e-06, -1.4281477966366694e-09, -3.5167999035891473e-10, -3.157364638622409e-06, -0.0003947500082703148, -8.813795314649473e-06, 0.07774196654319268, 1.1938069741660748e-08, 6.228339261627425e-08, -8.81024772638493e-09, 7.759853743343931e-10, -1.4281477966366797e-09, 1.1938069741660726e-08, 0.017392043172576758, -1.8092240750859702e-07, 0.0005157237718043545, 1.4318975118285279e-09, -3.516799903589643e-10, 6.228339261627507e-08, -1.8092240750859773e-07, 0.017389212672084074, 1.485559612969193e-05, 3.74200733516458e-07, -3.1573646386223997e-06, -8.810247726384708e-09, 0.0005157237718043545, 1.4855596129691876e-05, 0.2269487546516391)"
2025/09/16/14:11:50.188759,306034,1758049910,184099913,odom,base_link,0.4572015094151505,0.6989808082446117,0.03165749737829829,-0.006878990581933123,0.006509152334482409,-0.7600108551439798,0.6498413733271965,"(9.999990176563627e-10, 1.126056745740143e-21, -2.7711181767330125e-19, 2.169857612397976e-24, -1.7402708507348942e-23, -3.072608649405658e-22, 1.1260567457399975e-21, 9.999990176589253e-10, 7.127082625903914e-20, -3.1151672991778244e-25, 5.106790914155268e-25, 1.3359870074650177e-23, -2.7711181767330115e-19, 7.127082625903907e-20, 9.999983548645643e-10, 6.386256282914416e-24, 4.537655658151131e-23, 7.276967053369573e-24, 2.1698576123979656e-24, -3.1151672991778662e-25, 6.3862562829144045e-24, 9.99996686135793e-10, 3.1514890106366877e-22, -3.807394421537172e-21, -1.7402708507348886e-23, 5.1067909141557515e-25, 4.537655658151175e-23, 3.1514890106366577e-22, 9.99996686202579e-10, 1.1844740914336323e-18, -3.0726086494056495e-22, 1.3359870074650062e-23, 7.276967053369583e-24, -3.807394421537221e-21, 1.1844740914336327e-18, 9.999990222573315e-10)",-0.19963806645285653,-0.00012349685728658836,-0.00535371485395038,-0.008363548069854138,0.004878455901775973,0.28549119399555584,"(0.17868063627332403, -3.914528924131549e-06, -0.0003867439536445691, 7.458082021655265e-10, 1.3776549207835682e-09, 3.6003313705506357e-07, -3.914528924131759e-06, 0.1786800539125908, 7.02365139714403e-06, -1.2803577790154069e-09, -1.1375069586464797e-10, -3.0382460749178085e-06, -0.00038674395364456885, 7.02365139714396e-06, 0.07774009094762756, 1.1801958674129533e-08, 6.141079739495648e-08, -8.85089500647306e-09, 7.458082021655435e-10, -1.2803577790154172e-09, 1.1801958674129512e-08, 0.017391784386859087, -2.1876072325608878e-07, 0.0005043368366987003, 1.377654920783408e-09, -1.13750695864697e-10, 6.141079739495729e-08, -2.187607232560895e-07, 0.017389018773977895, -1.1100292707517672e-06, 3.600331370550632e-07, -3.0382460749177996e-06, -8.850895006472844e-09, 0.0005043368366987003, -1.1100292707518229e-06, 0.226908976633982)"
2025/09/16/14:11:50.198752,306035,1758049910,198613167,odom,base_link,0.4576494265394797,0.7018481146011315,0.03157375545878575,-0.006878227353652636,0.00659255028159525,-0.7586627897159892,0.651413846774544,"(0.0014890531418905895, 2.698697882635299e-09, -3.880732828559141e-07, 1.1205889918614667e-12, -1.1954939403167995e-11, -6.475570741912073e-10, 2.6986978826335564e-09, 0.0014890596530712594, 1.0076584648802837e-07, -1.7660960034295602e-13, 2.500711675150178e-13, 2.4992388531675558e-11, -3.8807328285591414e-07, 1.007658464880283e-07, 0.0008872704373867542, 2.4928510317500022e-12, 1.6096053686378013e-11, 1.0110603276272321e-11, 1.1205889918614602e-12, -1.7660960034295877e-13, 2.4928510317499978e-12, 0.00043906171867235386, 2.9608674813623413e-10, 1.082719454445251e-08, -1.195493940316796e-11, 2.500711675150482e-13, 1.609605368637818e-11, 2.960867481362334e-10, 0.00043907701657719536, 8.308338677536754e-07, -6.475570741912054e-10, 2.4992388531675342e-11, 1.0110603276272328e-11, 1.0827194544452513e-08, 8.308338677536754e-07, 0.0014991058940505642)",-0.20030548679474527,-6.865336832087676e-05,-0.005393452944251381,-0.008363548069854138,0.004878455901775973,0.28549119399555584,"(0.18323872741018335, -3.9345405051653045e-06, -0.0003893924382345672, 7.473392042456047e-10, 1.3812434656938229e-09, 3.608752355557628e-07, -3.934540505165511e-06, 0.18323814269177227, 6.9113757610155635e-06, -1.2844775785673201e-09, -1.1352512839607955e-10, -3.045948002534737e-06, -0.0003893924382345669, 6.911375761015493e-06, 0.07919972239125744, 1.1925679444191943e-08, 6.181860982775525e-08, -8.892204448374004e-09, 7.473392042456217e-10, -1.2844775785673303e-09, 1.1925679444191921e-08, 0.01753691692851558, -2.1876072325608878e-07, 0.0005043368366987003, 1.3812434656936626e-09, -1.1352512839612873e-10, 6.181860982775606e-08, -2.187607232560895e-07, 0.017534151315634388, -1.1100292707517672e-06, 3.608752355557624e-07, -3.0459480025347283e-06, -8.892204448373787e-09, 0.0005043368366987003, -1.1100292707518229e-06, 0.2341656037168067)"
2025/09/16/14:11:50.208737,306036,1758049910,208615065,odom,base_link,0.4579512238477367,0.7038309106367572,0.03151598729196317,-0.006877640776283296,0.006650002163639389,-0.7577318652103177,0.652495897284779,"(0.0025597214335663487, 6.879935232318102e-09, -1.1162846214230843e-06, 2.356168330160864e-08, 9.65661073887592e-10, -3.0395378608545537e-06, 6.87993523231505e-09, 0.00255973446667013, 2.907001411366733e-07, -3.5326455511368187e-09, 2.5653294522156712e-08, 4.625104185253112e-07, -1.1162846214230843e-06, 2.9070014113667307e-07, 0.0015181577487147773, 1.8490879979613615e-09, 8.857537690529422e-07, 2.8382642532651335e-09, 2.356168330160864e-08, -3.5326455511368187e-09, 1.8490879979613615e-09, 0.0007459251933249018, 1.045422197626079e-09, 8.728287005904911e-08, 9.656610738875925e-10, 2.5653294522156715e-08, 8.857537690529421e-07, 1.0454221976260274e-09, 0.0007459695038005495, 2.3882077459137587e-06, -3.039537860854554e-06, 4.625104185253112e-07, 2.8382642532651335e-09, 8.72828700590491e-08, 2.3882077459137587e-06, 0.002588568233981211)",-0.2007654436025677,-3.085764270195594e-05,-0.005420838692057753,-0.008363548069854138,0.004878455901775973,0.28549119399555584,"(0.1863937181212391, -3.948361869972612e-06, -0.0003912230882585821, 7.4839430368643e-10, 1.3837165333515707e-09, 3.614555728843458e-07, -3.948361869972816e-06, 0.1863931317732187, 6.833475235963828e-06, -1.2873167636083452e-09, -1.1336967719646866e-10, -3.0512558330253946e-06, -0.00039122308825858176, 6.8334752359637566e-06, 0.08021517995649641, 1.201094236905006e-08, 6.209965625832942e-08, -8.920673102739428e-09, 7.483943036864471e-10, -1.287316763608355e-09, 1.2010942369050039e-08, 0.017636935906634475, -2.1876072325608878e-07, 0.0005043368366987003, 1.3837165333514107e-09, -1.1336967719651793e-10, 6.209965625833023e-08, -2.187607232560895e-07, 0.017634170293753283, -1.1100292707517672e-06, 3.614555728843454e-07, -3.0512558330253857e-06, -8.920673102739211e-09, 0.0005043368366987003, -1.1100292707518229e-06, 0.23916655262275152)"
2025/09/16/14:11:50.228786,306037,1758049910,227423906,odom,base_link,0.4640668618575854,0.7074134350469595,0.03396116101587696,-0.008751707115234143,0.009172430694606474,-0.7528896632342311,0.658024641736742,"(9.999992674586901e-10, 1.6197521777822145e-21, -3.6035919006689933e-19, 1.0638614099819056e-24, -2.054577649257105e-23, -2.7351095442442065e-22, 1.6197521777815175e-21, 9.999992674634516e-10, 8.958273716866095e-20, -2.188107931944616e-25, 2.660385360076831e-25, 8.146711219044173e-24, -3.603591900668994e-19, 8.958273716866086e-20, 9.99998771305685e-10, 6.881066436395691e-24, 4.2156292366339956e-23, 9.0738764497498e-24, 1.063861409981894e-24, -2.188107931944653e-25, 6.881066436395678e-24, 9.99997519095113e-10, 4.932396565838072e-21, 5.999879050453443e-20, -2.0545776492570994e-23, 2.660385360077261e-25, 4.2156292366340297e-23, 4.9323965658380695e-21, 9.999975192132414e-10, 1.5598111967024338e-18, -2.7351095442442e-22, 8.146711219044095e-24, 9.073876449749803e-24, 5.999879050453443e-20, 1.5598111967024338e-18, 9.999992719800532e-10)",-0.20284816973484643,0.009442498897835553,-0.002135523965405692,-0.011815593025885092,0.005074912514241529,0.30579525104169913,"(0.17865411357506125, -3.4808266567805624e-06, -0.00035180094416650907, 5.985208216042926e-10, 1.0724239547154197e-09, 3.050321270514539e-07, -3.4808266567811447e-06, 0.1786501040486824, 8.349549781378686e-05, -6.498983992654993e-10, 8.906647152799295e-10, -2.70894206059181e-06, -0.0003518009441665088, 8.349549781378672e-05, 0.07773697223468005, 1.1957201760602172e-08, 5.989352807497151e-08, -7.97929798220662e-09, 5.985208216043084e-10, -6.49898399265523e-10, 1.195720176060215e-08, 0.01739117433075538, -3.8463832543585324e-07, 0.00045508079201256975, 1.0724239547152733e-09, 8.906647152798975e-10, 5.989352807497213e-08, -3.846383254358541e-07, 0.017388756908754795, -7.728923191465934e-05, 3.050321270514537e-07, -2.7089420605918034e-06, -7.979297982206444e-09, 0.00045508079201256975, -7.728923191465938e-05, 0.2268390159087727)"
2025/09/16/14:11:50.238707,306038,1758049910,234087467,odom,base_link,0.4651211190114307,0.7086796165491162,0.03433076941348069,-0.009036856424061112,0.009553320391971105,-0.7517307502562193,0.6593390238827677,"(9.9999851697519e-10, 1.769979235556583e-21, -3.9476577772816536e-19, 9.811994541986439e-25, -2.158780744259579e-23, -2.682842209268546e-22, 1.7699792355573054e-21, 9.999985169808862e-10, 9.294918127463086e-20, -2.126072285409627e-25, 1.8735103259741576e-25, 6.416665744991821e-24, -3.9476577772816574e-19, 9.294918127463083e-20, 9.999975203268978e-10, 7.357927517949526e-24, 5.048430241847039e-23, 9.596167846189012e-24, 9.811994541986329e-25, -2.1260722854096637e-25, 7.357927517949512e-24, 9.99995016967779e-10, 5.830228803059075e-21, 6.673842724806787e-20, -2.1587807442595717e-23, 1.8735103259745752e-25, 5.0484302418470724e-23, 5.830228803059074e-21, 9.999950171077851e-10, 1.7095264029855038e-18, -2.6828422092685397e-22, 6.416665744991751e-24, 9.596167846189013e-24, 6.673842724806783e-20, 1.7095264029855045e-18, 9.999985216382108e-10)",-0.20323351529700728,0.010887269084045994,-0.0016295332713197567,-0.012311256377605601,0.005085910260843258,0.30907421142588626,"(0.17863468100022178, -3.4345802164429567e-06, -0.0003464088965417984, 5.823463151344928e-10, 1.040015070619438e-09, 2.9725659699327963e-07, -3.434580216443609e-06, 0.17862990876761, 9.743065457728138e-05, -5.700160822439308e-10, 1.05575086725439e-09, -2.640148445885999e-06, -0.00034640889654179814, 9.743065457728123e-05, 0.07773475453321671, 1.1864099829017186e-08, 5.9329399960886497e-08, -8.070368289693229e-09, 5.823463151345084e-10, -5.700160822439542e-10, 1.1864099829017167e-08, 0.017390878301984127, -4.1210118059017607e-07, 0.00044752125778380487, 1.040015070619294e-09, 1.0557508672543582e-09, 5.932939996088711e-08, -4.121011805901769e-07, 0.01738853007475196, -9.108284739994156e-05, 2.9725659699327953e-07, -2.640148445885992e-06, -8.070368289693055e-09, 0.00044752125778380487, -9.10828473999416e-05, 0.22678820670124455)"
2025/09/16/14:11:50.249238,306039,1758049910,248616934,odom,base_link,0.46566350722081173,0.711591478854721,0.03429987108640742,-0.00904687492236468,0.009665207335384549,-0.7502478847875509,0.6610240912350388,"(0.0014907422369180865, 3.958140758037047e-09, -5.276670631124328e-07, 5.131497418307765e-13, -1.4228561590396767e-11, -5.641565124846497e-10, 3.958140758038368e-09, 0.0014907554013900944, 1.2211555170974616e-07, -1.2616202361221938e-13, 2.861993976226178e-14, 1.1027904031635186e-11, -5.276670631124325e-07, 1.2211555170974602e-07, 0.0008882852297999786, 2.679862888100945e-12, 1.5875509977809165e-11, 1.269338841413223e-11, 5.131497418307698e-13, -1.2616202361222188e-13, 2.6798628881009406e-12, 0.0004395561840027825, 1.2664703331051596e-09, 4.7132766859441637e-08, -1.4228561590396731e-11, 2.861993976228806e-14, 1.587550997780929e-11, 1.26647033310516e-09, 0.00043958534753468916, 1.1421087162257956e-06, -5.641565124846483e-10, 1.1027904031635036e-11, 1.2693388414132225e-11, 4.713276685944164e-08, 1.1421087162257952e-06, 0.0015007944706528227)",-0.2039050014597688,0.01097008751170623,-0.0016478058579752924,-0.012311256377605601,0.005085910260843258,0.30907421142588626,"(0.18319777513565658, -3.451849785883719e-06, -0.000348732224081742, 5.834719764983217e-10, 1.0427372598028974e-09, 2.979400706787073e-07, -3.451849785884369e-06, 0.18319297867455345, 9.807017319806643e-05, -5.722842268961279e-10, 1.0589037819498355e-09, -2.646783759005549e-06, -0.0003487322240817418, 9.807017319806628e-05, 0.07919601942837286, 1.1984322510731693e-08, 5.971652983058957e-08, -8.107977164608649e-09, 5.834719764983374e-10, -5.722842268961513e-10, 1.1984322510731673e-08, 0.01753617296827441, -4.1210118059017607e-07, 0.00044752125778380487, 1.0427372598027535e-09, 1.0589037819498037e-09, 5.971652983059017e-08, -4.121011805901769e-07, 0.017533824741042245, -9.108284739994156e-05, 2.979400706787072e-07, -2.6467837590055424e-06, -8.107977164608475e-09, 0.00044752125778380487, -9.10828473999416e-05, 0.23405294001575871)"
2025/09/16/14:11:50.268822,306040,1758049910,268621922,odom,base_link,0.4663962458103156,0.715619604669855,0.03425757095101007,-0.00906074790764304,0.009819195052311644,-0.7481999897619378,0.6633387231091781,"(0.003669210989439185, 1.8317982128527323e-08, -3.0262844424773215e-06, 1.6716209107486257e-08, -8.799549472428551e-09, -6.313908788179427e-06, 1.8317982128527214e-08, 0.0036692632432049734, 7.021571634916648e-07, -1.89882639793099e-09, 2.067071592387137e-08, 1.1481255617766646e-06, -3.02628444247732e-06, 7.021571634916642e-07, 0.0021663444502641655, 1.087860636889991e-07, 1.817481876570849e-06, 1.1207934201308066e-08, 1.671620910748625e-08, -1.8988263979309895e-09, 1.0878606368899908e-07, 0.0010568495801709296, 8.277429045967449e-09, 4.2872337532551297e-07, -8.799549472428553e-09, 2.067071592387137e-08, 1.8174818765708495e-06, 8.277429045967323e-09, 0.001057017750009568, 6.550524380836732e-06, -6.313908788179427e-06, 1.1481255617766644e-06, 1.1207934201308066e-08, 4.287233753255129e-07, 6.550524380836733e-06, 0.003726658157650843)",-0.20482954141577267,0.011084116585887609,-0.0016729645840957374,-0.012311256377605601,0.005085910260843258,0.30907421142588626,"(0.1895192710694977, -3.4756998882922823e-06, -0.00035194453510935296, 5.850218504428712e-10, 1.0464853231398384e-09, 2.98881115730859e-07, -3.475699888292929e-06, 0.1895144411426862, 9.895363607836584e-05, -5.754071361580684e-10, 1.0632448924230924e-09, -2.6559196317008135e-06, -0.00035194453510935275, 9.89536360783657e-05, 0.0812348868535474, 1.214985186789057e-08, 6.024955203201676e-08, -8.159759181108676e-09, 5.850218504428871e-10, -5.754071361580916e-10, 1.214985186789055e-08, 0.01773622284544116, -4.1210118059017607e-07, 0.00044752125778380487, 1.0464853231396945e-09, 1.0632448924230606e-09, 6.024955203201737e-08, -4.121011805901769e-07, 0.017733874618208995, -9.108284739994156e-05, 2.988811157308589e-07, -2.6559196317008067e-06, -8.159759181108501e-09, 0.00044752125778380487, -9.10828473999416e-05, 0.24405543387409612)"
2025/09/16/14:11:50.278867,306041,1758049910,274126768,odom,base_link,0.4570568713837207,0.7250296275108757,0.03352445600551697,-0.009759125640793637,0.011086516195299915,-0.7434618468736113,0.6686152337994232,"(9.999982011284974e-10, 2.0158402096494e-21, -4.5372752168772425e-19, 7.667935214279532e-25, -2.5115933457940283e-23, -2.684664278952041e-22, 2.0158402096491904e-21, 9.999982011364203e-10, 9.338353598930634e-20, -1.6493232321342538e-25, 4.387714674644289e-25, 8.597846241231737e-24, -4.537275216877243e-19, 9.338353598930627e-20, 9.999969938859395e-10, 9.50790639643343e-24, 4.22214741695346e-23, 1.219966011494039e-23, 7.667935214279431e-25, -1.6493232321342945e-25, 9.50790639643342e-24, 9.999939640403821e-10, 7.310888241858222e-21, 7.420463178258107e-20, -2.5115933457940238e-23, 4.387714674644619e-25, 4.2221474169535316e-23, 7.310888241858222e-21, 9.999939642285713e-10, 1.980847224623724e-18, -2.684664278952038e-22, 8.597846241231605e-24, 1.2199660114940418e-23, 7.420463178258103e-20, 1.980847224623724e-18, 9.999982058211271e-10)",-0.21789007642439895,-0.007453192441385389,-0.0028824594757457587,-0.01382606214386369,0.005442514444103837,0.33700657980156956,"(0.17868448389670158, -3.2073590632014077e-06, -0.0003151652274818511, 4.219673615571278e-10, 7.902353230608477e-10, 2.3390782078418727e-07, -3.2073590632023242e-06, 0.17867504385291777, 0.00018098749086845032, -3.202549911149826e-10, 2.028741446480232e-09, -2.6674635387164365e-06, -0.00031516522748185096, 0.00018098749086845007, 0.07774109152698075, 1.6260567676791365e-08, 6.202617311032293e-08, -3.994740813938814e-09, 4.219673615571442e-10, -3.202549911150069e-10, 1.6260567676791352e-08, 0.017391279363841976, -5.63361151209542e-07, 0.00040414544367870826, 7.902353230607084e-10, 2.0287414464801908e-09, 6.202617311032418e-08, -5.633611512095428e-07, 0.017389394446925242, -0.00017287139076524005, 2.3390782078418812e-07, -2.667463538716432e-06, -3.994740813938478e-09, 0.00040414544367870826, -0.00017287139076524008, 0.2269016864158244)"
2025/09/16/14:11:50.288843,306042,1758049910,287422419,odom,base_link,0.4589192259070406,0.7275809052136663,0.0342871909441723,-0.010379249338194015,0.011695644276148484,-0.740976406574099,0.6713489763071641,"(9.999992653615085e-10, 2.1576507606307134e-21, -4.395266697438388e-19, -1.1321430643737335e-25, -2.3657277983641153e-23, -2.555161667415862e-22, 2.1576507606309926e-21, 9.999992653691947e-10, 1.0265886908222527e-19, -1.4609796253861655e-25, 1.260119534380847e-25, 4.7947929736208384e-24, -4.395266697438384e-19, 1.0265886908222525e-19, 9.999987678174266e-10, 8.588861614989367e-24, 4.376203879379736e-23, 1.1417541826511116e-23, -1.1321430643738143e-25, -1.4609796253862096e-25, 8.588861614989361e-24, 9.999975121030287e-10, 1.4106610705599433e-20, 1.525816296840376e-19, -2.3657277983641094e-23, 1.2601195343811717e-25, 4.376203879379804e-23, 1.4106610705599433e-20, 9.999975122843812e-10, 1.9305470263566383e-18, -2.5551616674158545e-22, 4.794792973620708e-24, 1.1417541826511138e-23, 1.5258162968403763e-19, 1.9305470263566375e-18, 9.999992698833608e-10)",-0.21824644835276893,-0.004542277777090684,-0.0018411983447254668,-0.014707626395725896,0.005308813825605744,0.34335500030732286,"(0.17868338700370218, -3.225192955947211e-06, -0.0003040381480994338, 3.9840410847381087e-10, 7.422204959469277e-10, 2.2221545885691129e-07, -3.22519295594818e-06, 0.1786721602461144, 0.00021022385204997536, -1.6368713781248128e-10, 2.339413473616126e-09, -2.5347439254612247e-06, -0.00030403814809943367, 0.00021022385204997511, 0.07774125580212825, 1.5988551804471154e-08, 6.085890116611618e-08, -4.386534145266587e-09, 3.984041084738268e-10, -1.6368713781250496e-10, 1.598855180447114e-08, 0.017391193231886308, -6.057005580587734e-07, 0.00038875912201358996, 7.422204959467928e-10, 2.3394134736160865e-09, 6.085890116611742e-08, -6.057005580587741e-07, 0.017389494619205016, -0.00020132551609404928, 2.222154588569121e-07, -2.53474392546122e-06, -4.3865341452662664e-09, 0.00038875912201358996, -0.0002013255160940493, 0.2268922950616623)"
2025/09/16/14:11:50.298762,306043,1758049910,294149160,odom,base_link,0.4598638403130674,0.7288504245770359,0.034675839306422825,-0.010683991189348754,0.012015404875162632,-0.7396923733493043,0.6727530566164864,"(9.999985310683192e-10, 2.254005876736052e-21, -4.729865033301474e-19, -6.159736583703989e-26, -2.4374956709077448e-23, -2.5074348836504617e-22, 2.254005876735589e-21, 9.999985310771285e-10, 1.019959274925528e-19, -1.4830011012153472e-25, -2.3974125282743213e-26, 2.984679160553745e-24, -4.729865033301477e-19, 1.019959274925527e-19, 9.999975438258163e-10, 8.464370067165567e-24, 5.2502429761134466e-23, 1.1767912658707008e-23, -6.159736583704776e-26, -1.483001101215392e-25, 8.464370067165557e-24, 9.99995063951647e-10, 1.4773871338222805e-20, 1.509674999350335e-19, -2.43749567090774e-23, -2.3974125282711825e-26, 5.250242976113515e-23, 1.47738713382228e-20, 9.999950641584913e-10, 2.075601079451687e-18, -2.50743488365046e-22, 2.984679160553622e-24, 1.1767912658707034e-23, 1.509674999350335e-19, 2.0756010794516875e-18, 9.99998535729153e-10)",-0.21837501806274617,-0.003062389089278263,-0.001312958690156145,-0.015154931462961966,0.005257675254622996,0.346672830519867,"(0.17866329952454468, -3.2366729029027665e-06, -0.00029852176609342985, 3.870947935110885e-10, 7.181631516459068e-10, 2.1648681706834012e-07, -3.236672902903673e-06, 0.17865105454343633, 0.00022581027200744178, -9.056055593056141e-11, 2.495464090856791e-09, -2.469707780889585e-06, -0.0002985217660934298, 0.00022581027200744156, 0.07773909056530287, 1.5852242630483756e-08, 6.027501121897986e-08, -4.5842715275773095e-09, 3.870947935111042e-10, -9.05605559305848e-11, 1.5852242630483743e-08, 0.01739089559868564, -6.273104859197573e-07, 0.0003811359223480318, 7.181631516457741e-10, 2.4954640908567517e-09, 6.027501121898106e-08, -6.273104859197581e-07, 0.017389299622274288, -0.0002165116812352817, 2.1648681706834094e-07, -2.4697077808895804e-06, -4.584271527576996e-09, 0.0003811359223480318, -0.00021651168123528174, 0.22683752465379525)"
2025/09/16/14:11:50.308747,306044,1758049910,308608055,odom,base_link,0.4601186088010751,0.7320029873580162,0.03465930425889869,-0.010699837283740089,0.012148793208595987,-0.7380030381600458,0.674603169257467,"(0.0014833174207631076, 4.870616430993202e-09, -6.213358654645271e-07, -8.984071050184104e-14, -1.5768512281075628e-11, -5.217059177651082e-10, 4.8706164309940245e-09, 0.0014833372262980404, 1.29515148929343e-07, -9.035812815670658e-14, -1.0417712624592997e-13, 4.028428357096092e-12, -6.213358654645272e-07, 1.2951514892934302e-07, 0.0008838967640570562, 3.3037161123275508e-12, 1.630332377788724e-11, 1.5240079403197526e-11, -8.984071050184597e-14, -9.035812815670947e-14, 3.3037161123275475e-12, 0.0004374036566152127, 2.9224500823403044e-09, 9.675114673750161e-08, -1.5768512281075595e-11, -1.04177126245911e-13, 1.630332377788749e-11, 2.9224500823403044e-09, 0.0004374456120353501, 1.3618977981053162e-06, -5.217059177651074e-10, 4.02842835709583e-12, 1.524007940319755e-11, 9.675114673750161e-08, 1.3618977981053162e-06, 0.0014932707616420137)",-0.21907481957193373,-0.003016415701878042,-0.001328974374845494,-0.015154931462961966,0.005257675254622996,0.346672830519867,"(0.1832042453324492, -3.2525168887598144e-06, -0.0003004520284556449, 3.877401924525971e-10, 7.20066974885944e-10, 2.1696350974526607e-07, -3.252516888760719e-06, 0.1831919377046424, 0.0002274913044585617, -9.159185406690418e-11, 2.5021183046808256e-09, -2.4758343618529144e-06, -0.00030045202845564484, 0.0002274913044585615, 0.0791932365370814, 1.598934868815729e-08, 6.06548624828024e-08, -4.603080279412567e-09, 3.8774019245261287e-10, -9.159185406692744e-11, 1.5989348688157277e-08, 0.01753548454598178, -6.273104859197573e-07, 0.0003811359223480318, 7.200669748858114e-10, 2.5021183046807863e-09, 6.06548624828036e-08, -6.273104859197581e-07, 0.01753388856957043, -0.0002165116812352817, 2.169635097452669e-07, -2.4758343618529098e-06, -4.603080279412253e-09, 0.0003811359223480318, -0.00021651168123528174, 0.23406697201860238)"
2025/09/16/14:11:50.318750,306045,1758049910,318611383,odom,base_link,0.46028485649294026,0.7341907970009864,0.03464824559639173,-0.010710675299355765,0.012241026216209693,-0.736831560914671,0.6758806770073068,"(0.002553912127616605, 1.3549076773380683e-08, -1.7937430238755735e-06, 5.036634924396796e-09, -4.683807861787941e-09, -3.3401912216342198e-06, 1.3549076773382035e-08, 0.002553962333665597, 3.7488189248343936e-07, -4.338280833189368e-10, 5.23154140879963e-09, 2.5373550314598394e-07, -1.7937430238755728e-06, 3.7488189248343925e-07, 0.001514810741190357, -1.0041621502705013e-08, 9.653839984492985e-07, 5.092388238491003e-09, 5.036634924396797e-09, -4.3382808331893675e-10, -1.0041621502705013e-08, 0.0007442945167495118, 9.028919331023508e-09, 3.71005611950543e-07, -4.683807861787939e-09, 5.2315414087996304e-09, 9.653839984492985e-07, 9.028919331023502e-09, 0.0007444158311480983, 3.932361723532724e-06, -3.34019122163422e-06, 2.537355031459841e-07, 5.0923882384910026e-09, 3.71005611950543e-07, 3.932361723532724e-06, 0.0025825639364490836)",-0.21955897443912775,-0.002984609198206658,-0.0013400547620581414,-0.015154931462961966,0.005257675254622996,0.346672830519867,"(0.1863596070923959, -3.2635016264658973e-06, -0.00030179145815527764, 3.8818670912155374e-10, 7.213841273582376e-10, 2.1729330766176012e-07, -3.2635016264668006e-06, 0.18634725602702049, 0.00022865751673866572, -9.230535354594669e-11, 2.5067219958246136e-09, -2.480073012318384e-06, -0.0003017914581552776, 0.0002286575167386655, 0.08020880598023561, 1.6084204964219763e-08, 6.091766105607642e-08, -4.616093038926986e-09, 3.8818670912156956e-10, -9.230535354596988e-11, 1.608420496421975e-08, 0.017635517829215425, -6.273104859197573e-07, 0.0003811359223480318, 7.21384127358105e-10, 2.5067219958245743e-09, 6.091766105607762e-08, -6.273104859197581e-07, 0.017633921852804074, -0.0002165116812352817, 2.1729330766176094e-07, -2.4800730123183795e-06, -4.616093038926671e-09, 0.0003811359223480318, -0.00021651168123528174, 0.2390686361802845)"
2025/09/16/14:11:50.338779,306046,1758049910,334093094,odom,base_link,0.46540060524484017,0.7363457086928497,0.036922044134606966,-0.012662873939011932,0.013470169147335273,-0.7318100056499198,0.681257896686278,"(9.999990148212838e-10, 2.2029615350020622e-21, -5.326192581839842e-19, 2.786168568863417e-25, -2.5389036344497172e-23, -2.292664339016691e-22, 2.2029615350025178e-21, 9.999990148330658e-10, 8.494432566432325e-20, -1.2349081054633286e-25, -4.9772092647462565e-25, -1.0089336601598301e-24, -5.326192581839845e-19, 8.494432566432325e-20, 9.999983501835811e-10, 9.08569457866712e-24, 4.6342838523248564e-23, 1.258444548573992e-23, 2.7861685688633364e-25, -1.2349081054633667e-25, 9.085694578667115e-24, 9.999966767327133e-10, 1.2230875040052893e-20, 1.0851965166907704e-19, -2.5389036344497128e-23, -4.977209264745945e-25, 4.6342838523249193e-23, 1.223087504005289e-20, 9.999966770001285e-10, 2.3432498311997313e-18, -2.292664339016687e-22, -1.008933660159893e-24, 1.2584445485739946e-23, 1.0851965166907702e-19, 2.343249831199731e-18, 9.999990194002825e-10)",-0.21899319156951963,0.005468902732659495,0.0017027262092613607,-0.017537910089905153,0.004477285718586343,0.36681958290961736,"(0.17862377009509478, -3.28718043879576e-06, -0.0002678203839723403, 3.168550811409566e-10, 5.563682813932446e-10, 1.8797819526900433e-07, -3.287180438796623e-06, 0.17860499240628253, 0.00032041590632026184, 2.3439632292517605e-10, 3.3780953879909202e-09, -2.2679562318268264e-06, -0.00026782038397234025, 0.00032041590632026173, 0.07773568110600794, 1.6005193622472547e-08, 5.925867691060202e-08, -3.7103311550827042e-09, 3.168550811409701e-10, 2.3439632292515335e-10, 1.6005193622472537e-08, 0.01739014581759778, -7.464209489235802e-07, 0.0003390725636751518, 5.563682813931265e-10, 3.3780953879908913e-09, 5.9258676910603145e-08, -7.464209489235807e-07, 0.017389235011335456, -0.00030798054387000656, 1.879781952690048e-07, -2.2679562318268235e-06, -3.7103311550823854e-09, 0.0003390725636751518, -0.00030798054387000666, 0.22671410393134664)"
2025/09/16/14:11:50.348780,306047,1758049910,347428560,odom,base_link,0.4672272194042684,0.7387714389547543,0.03768833262285019,-0.013243150191266179,0.013883280750179253,-0.7290669266407585,0.684173435590145,"(9.999992675956326e-10, 2.1296446718125506e-21, -5.408041803464344e-19, 3.880672772351175e-25, -2.4682958270721808e-23, -2.1729281225395125e-22, 2.1296446718129455e-21, 9.999992676080845e-10, 7.886360341797723e-20, -1.1666298219876236e-25, -6.397528416824347e-25, -2.2598413925937956e-24, -5.408041803464344e-19, 7.886360341797723e-20, 9.999987715675724e-10, 8.957823846163461e-24, 4.261443714398348e-23, 1.2211747061035015e-23, 3.8806727723510945e-25, -1.1666298219876612e-25, 8.957823846163453e-24, 9.99997519586309e-10, 1.1118983394324473e-20, 9.568277123684947e-20, -2.468295827072178e-23, -6.39752841682405e-25, 4.261443714398409e-23, 1.1118983394324483e-20, 9.999975198657175e-10, 2.3840697430565534e-18, -2.17292812253951e-22, -2.2598413925938624e-24, 1.2211747061035043e-23, 9.568277123684954e-20, 2.3840697430565538e-18, 9.999992721000427e-10)",-0.21898262226373177,0.008209577896853861,0.0027106493946153745,-0.018196578536768294,0.004232320156479636,0.3735814630156639,"(0.17862559547533202, -3.2627735346552217e-06, -0.00025882034826456334, 3.005976200513323e-10, 5.156793358397407e-10, 1.7854503924363338e-07, -3.26277353465622e-06, 0.1786042480907621, 0.0003540308162626725, 3.2887164210938303e-10, 3.6504231315018217e-09, -2.154724387729086e-06, -0.00025882034826456334, 0.0003540308162626724, 0.0777364122895468, 1.5733094241787e-08, 5.813377796064489e-08, -4.141028126109147e-09, 3.005976200513454e-10, 3.2887164210936106e-10, 1.573309424178699e-08, 0.017390088751458515, -7.878018621289218e-07, 0.0003268740545846668, 5.156793358396263e-10, 3.6504231315017935e-09, 5.813377796064599e-08, -7.878018621289223e-07, 0.01738944649182451, -0.00034027306070294325, 1.7854503924363386e-07, -2.154724387729083e-06, -4.141028126108843e-09, 0.0003268740545846668, -0.00034027306070294336, 0.22670959389359865)"
2025/09/16/14:11:50.358822,306048,1758049910,354100227,odom,base_link,0.46813246495626737,0.73997879065091,0.038072078507677486,-0.01351910640560928,0.014092802523609907,-0.7276757634678348,0.6856432089217599,"(9.999985187876929e-10, 2.0730743351619596e-21, -5.702309482450746e-19, 4.175893549043377e-25, -2.4931475229917152e-23, -2.1350650631993694e-22, 2.0730743351620247e-21, 9.999985188013564e-10, 7.345443347124074e-20, -1.0473488597440063e-25, -9.171973135102982e-25, -3.706266525953149e-24, -5.702309482450747e-19, 7.345443347124078e-20, 9.999975233821504e-10, 9.353797161050681e-24, 5.15275748988902e-23, 1.2326759740763488e-23, 4.1758935490433e-25, -1.0473488597440435e-25, 9.353797161050673e-24, 9.999950230449207e-10, 1.0162159463652828e-20, 8.365629209522702e-20, -2.4931475229917114e-23, -9.1719731351027e-25, 5.152757489889078e-23, 1.0162159463652828e-20, 9.999950233510414e-10, 2.5137701575142298e-18, -2.135065063199364e-22, -3.706266525953218e-24, 1.2326759740763507e-23, 8.3656292095227e-20, 2.5137701575142286e-18, 9.999985234332064e-10)",-0.21895138332034714,0.009567325333065821,0.003213273962440846,-0.01851614013058148,0.004123879820516414,0.3770133177972534,"(0.1786068133184175, -3.2442227443828806e-06, -0.00025449379422406515, 2.929314338748641e-10, 4.957363739625703e-10, 1.739742406288627e-07, -3.244222744383911e-06, 0.17858407978564814, 0.00037139678054476475, 3.710627264625966e-10, 3.782269588928867e-09, -2.0998500415115786e-06, -0.0002544937942240652, 0.0003713967805447646, 0.07773451266847572, 1.5598280300016342e-08, 5.757737829676207e-08, -4.34987762955003e-09, 2.9293143387487697e-10, 3.7106272646257495e-10, 1.5598280300016332e-08, 0.017389804523388418, -8.088610031749364e-07, 0.0003210176177775066, 4.957363739624578e-10, 3.78226958892884e-09, 5.7577378296763156e-08, -8.08861003174937e-07, 0.017389306018558395, -0.0003569835457768177, 1.7397424062886316e-07, -2.0998500415115756e-06, -4.349877629549734e-09, 0.0003210176177775066, -0.0003569835457768178, 0.2266569215297598)"
2025/09/16/14:11:50.368808,306049,1758049910,368685007,odom,base_link,0.46846410775903274,0.743163186427967,0.038112386885783195,-0.013551537071429712,0.01424881030180771,-0.7257864409503979,0.6876389818651497,"(0.0014965392853273634, 4.3918783703323e-09, -7.540649407974956e-07, 3.198836647916165e-13, -1.6236990423378985e-11, -4.513264057073712e-10, 4.39187837033274e-09, 0.0014965698721083598, 9.170818518868542e-08, -6.754196075839088e-14, -6.244258564631715e-13, -1.006225315509968e-11, -7.54064940797496e-07, 9.170818518868544e-08, 0.0008917432033799547, 3.481450720132851e-12, 1.6106901441933115e-11, 1.6070835711749387e-11, 3.198836647916115e-13, -6.754196075839328e-14, 3.4814507201328498e-12, 0.00044124345338428017, 1.9134744010282585e-09, 5.1397995450495634e-08, -1.623699042337896e-11, -6.244258564631534e-13, 1.6106901441933344e-11, 1.9134744010282585e-09, 0.00044130533888116626, 1.6612025206580905e-06, -4.513264057073706e-10, -1.0062253155099823e-11, 1.607083571174942e-11, 5.139799545049562e-08, 1.6612025206580907e-06, 0.0015066306038703855)",-0.21965123263020384,0.009645876805258686,0.0032227566128566645,-0.01851614013058148,0.004123879820516414,0.3770133177972534,"(0.18318727748986008, -3.2599242603095086e-06, -0.00025609406218620774, 2.9336037813015186e-10, 4.971081925404535e-10, 1.7435058524418353e-07, -3.259924260310537e-06, 0.18316442668381477, 0.0003742673376913647, 3.7120077464818784e-10, 3.7920644104042e-09, -2.105041180692336e-06, -0.0002560940621862078, 0.0003742673376913645, 0.07920140718967347, 1.573036499166796e-08, 5.7935311581008796e-08, -4.368561652909135e-09, 2.9336037813016473e-10, 3.712007746481663e-10, 1.573036499166795e-08, 0.017535652320782216, -8.088610031749364e-07, 0.0003210176177775066, 4.971081925403411e-10, 3.792064410404173e-09, 5.793531158100988e-08, -8.08861003174937e-07, 0.017535153815952192, -0.0003569835457768177, 1.74350585244184e-07, -2.105041180692333e-06, -4.368561652908839e-09, 0.0003210176177775066, -0.0003569835457768178, 0.23394931139944974)"
2025/09/16/14:11:50.388797,306050,1758049910,388652802,odom,base_link,0.4688969740560557,0.7475417334034774,0.038168872868436676,-0.013596038832219038,0.014462236146914005,-0.7231908756374088,0.6903629109740047,"(0.003671122112352102, 2.2198063748132512e-08, -4.298815683613462e-06, -2.5995928443996146e-08, -1.8572593784761212e-08, -6.888050247992866e-06, 2.219806374813439e-08, 0.0036712684086549732, 5.251036083610562e-07, 1.252364797492724e-09, -2.348442485094544e-08, 6.804183437720995e-07, -4.298815683613462e-06, 5.251036083610564e-07, 0.002167605907080264, 1.0213296413986045e-07, 1.9618284842837234e-06, 1.743870067268096e-08, -2.5995928443996142e-08, 1.252364797492724e-09, 1.0213296413986046e-07, 0.001057422628125966, 1.3371011756725593e-08, 5.295857411695548e-07, -1.857259378476121e-08, -2.3484424850945435e-08, 1.961828484283724e-06, 1.3371011756726102e-08, 0.0010577770827429407, 9.472275611957458e-06, -6.888050247992865e-06, 6.804183437720995e-07, 1.7438700672680958e-08, 5.29585741169555e-07, 9.47227561195746e-06, 0.0037284125145018387)",-0.22060938540266567,0.00975342040043343,0.0032357391616114287,-0.01851614013058148,0.004123879820516414,0.3770133177972534,"(0.18949703895110687, -3.281483714660198e-06, -0.0002582942799528816, 2.939476390185275e-10, 4.989863279550366e-10, 1.748658327860359e-07, -3.281483714661223e-06, 0.18947402709281097, 0.0003782130664709544, 3.7138977426552635e-10, 3.805474347686671e-09, -2.1121482883628375e-06, -0.00025829427995288163, 0.00037821306647095425, 0.08123658968456549, 1.5911200082484406e-08, 5.8425352456704735e-08, -4.394141657818955e-09, 2.939476390185404e-10, 3.71389774265505e-10, 1.5911200082484396e-08, 0.017735330264965564, -8.088610031749364e-07, 0.0003210176177775066, 4.989863279549244e-10, 3.805474347686644e-09, 5.842535245670582e-08, -8.08861003174937e-07, 0.01773483176013554, -0.0003569835457768177, 1.7486583278603638e-07, -2.112148288362835e-06, -4.394141657818658e-09, 0.0003210176177775066, -0.0003569835457768178, 0.24393320860861722)"
2025/09/16/14:11:50.398819,306051,1758049910,394097567,odom,base_link,0.4733751672050678,0.7471615036114315,0.04038935200840791,-0.015133370943909537,0.014789381166128504,-0.7191169988165271,0.694566769505789,"(9.9999818107486e-10, 1.6583220553497658e-21, -5.990642348244608e-19, 8.694009119807762e-25, -2.8083121045197404e-23, -2.2484034209476033e-22, 1.6583220553495871e-21, 9.999981810905456e-10, 5.10134695243422e-20, -1.0821021307379726e-25, -7.149888989339417e-25, -2.5478138011821362e-24, -5.99064234824461e-19, 5.1013469524342197e-20, 9.999969604930703e-10, 1.2146166839880976e-23, 4.2847571012967936e-23, 1.5039175300051405e-23, 8.694009119807714e-25, -1.0821021307380027e-25, 1.2146166839880963e-23, 9.999938972229688e-10, 3.985965550929716e-21, 2.8095671111832234e-20, -2.808312104519742e-23, -7.149888989338989e-25, 4.2847571012968647e-23, 3.985965550929716e-21, 9.999938975666931e-10, 2.6645073237059186e-18, -2.2484034209476033e-22, -2.547813801182065e-24, 1.503917530005149e-23, 2.8095671111832234e-20, 2.6645073237059193e-18, 9.999981857509217e-10)",-0.21873541176865668,0.0173051741180262,0.00621251597681658,-0.019922030608343886,0.0030790940130453973,0.3982636805382745,"(0.1786602420805214, -3.1226325564180475e-06, -0.000230093676134852, 3.417895682144778e-10, 5.217112615227904e-10, 1.3100710927591678e-07, -3.122632556419213e-06, 0.17862951120029943, 0.0004723730646536513, -2.594404471548233e-11, 4.791267521886535e-09, -2.236523871002336e-06, -0.00023009367613485203, 0.00047237306465365114, 0.07774271461281745, 2.1142117709584384e-08, 6.080232865597926e-08, 1.2680235132267917e-09, 3.4178956821448713e-10, -2.5944044715496403e-11, 2.1142117709584368e-08, 0.01739027780242308, -9.204700227688493e-07, 0.0002883182622714759, 5.217112615226957e-10, 4.791267521886434e-09, 6.08023286559805e-08, -9.204700227688496e-07, 0.017390699946308874, -0.00045313801305704347, 1.310071092759161e-07, -2.236523871002336e-06, 1.268023513227319e-09, 0.0002883182622714759, -0.0004531380130570435, 0.22676114202461486)"
2025/09/16/14:11:50.408756,306052,1758049910,407425642,odom,base_link,0.4750870456143126,0.7494776253282243,0.04116083967749363,-0.01549500997867654,0.015020357358843595,-0.7161656577675574,0.6975966199494772,"(9.999992671796062e-10, 1.3722900024536869e-21, -6.056995754135699e-19, 1.0338149602865974e-24, -2.742897180126666e-23, -2.137939776554518e-22, 1.3722900024532968e-21, 9.999992671961292e-10, 3.8212084843276886e-20, -8.669683496843645e-26, -1.0655670797806096e-24, -4.862212378235343e-24, -6.056995754135706e-19, 3.8212084843276874e-20, 9.999987708834235e-10, 1.2193601600026314e-23, 4.3961107707146326e-23, 1.4649323665392462e-23, 1.0338149602865928e-24, -8.669683496843953e-26, 1.2193601600026302e-23, 9.999975182001538e-10, 1.1065419001047292e-21, 3.74199393604422e-21, -2.7428971801266695e-23, -1.0655670797805687e-24, 4.396110770714702e-23, 1.1065419001047316e-21, 9.99997518558839e-10, 2.6952788629588425e-18, -2.137939776554519e-22, -4.8622123782352774e-24, 1.4649323665392545e-23, 3.741993936044238e-21, 2.695278862958843e-18, 9.999992716815253e-10)",-0.2184148070200078,0.019756241582541467,0.007187139048597484,-0.02024035117461727,0.002878614284836641,0.40513084647093717,"(0.17866043781370852, -2.9834904312198296e-06, -0.00022359489025198305, 3.2881385120096297e-10, 4.880760713307967e-10, 1.2441473685485886e-07, -2.983490431220865e-06, 0.1786267047984249, 0.0005073308863780777, 4.69563008365632e-11, 5.0414433688630335e-09, -2.1248163849380497e-06, -0.00022359489025198303, 0.0005073308863780773, 0.07774356516033389, 2.076519318115222e-08, 5.963925673434629e-08, 5.811342919252659e-10, 3.28813851200972e-10, 4.6956300836549695e-11, 2.0765193181152206e-08, 0.017390226553989786, -9.640654306438725e-07, 0.0002797430473062309, 4.880760713307053e-10, 5.041443368862936e-09, 5.96392567343475e-08, -9.64065430643873e-07, 0.01739099632538421, -0.00048633618694036393, 1.244147368548582e-07, -2.1248163849380497e-06, 5.811342919257673e-10, 0.0002797430473062309, -0.000486336186940364, 0.22674848145063045)"
2025/09/16/14:11:50.418841,306053,1758049910,417428493,odom,base_link,0.4763573398183493,0.7512088422426465,0.04174082268235672,-0.01581392395869489,0.015110500518197588,-0.7139142632091086,0.6998914325591604,"(9.99999017852731e-10, 1.2239437674822237e-21, -6.202304815358121e-19, 9.586280694891828e-25, -2.680423097135742e-23, -2.0630234342130913e-22, 1.223943767482005e-21, 9.999990178700468e-10, 3.228264452769162e-20, -7.395245115140208e-26, -1.3440053585932042e-24, -6.3270469878721134e-24, -6.202304815358126e-19, 3.228264452769162e-20, 9.999983552530032e-10, 1.2429242612930408e-23, 4.6502242097416334e-23, 1.4289414370235167e-23, 9.586280694891784e-25, -7.395245115140515e-26, 1.2429242612930396e-23, 9.999966868496731e-10, 5.898107123580103e-22, -2.2318533836188316e-22, -2.6804230971357454e-23, -1.3440053585931642e-24, 4.650224209741702e-23, 5.898107123580128e-22, 9.999966872247826e-10, 2.766355828968499e-18, -2.0630234342130925e-22, -6.327046987872051e-24, 1.4289414370235252e-23, -2.2318533836189863e-22, 2.7663558289684993e-18, 9.999990224234684e-10)",-0.2181444600121833,0.021566106910755556,0.007914242953706385,-0.02044817805195932,0.002621993878785815,0.41030215320400715,"(0.17864594065209255, -2.8780419502387842e-06, -0.00021886762985823423, 3.194954841642499e-10, 4.639679671775004e-10, 1.1966946174012274e-07, -2.878041950239735e-06, 0.1786099104089353, 0.0005336600238575655, 9.651688617938003e-11, 5.213759215816541e-09, -2.044389734313902e-06, -0.00021886762985823423, 0.0005336600238575653, 0.07774252140497864, 2.048618064918568e-08, 5.8779275345328846e-08, 9.642281491667024e-11, 3.194954841642587e-10, 9.651688617936693e-11, 2.0486180649185668e-08, 0.01738999727756864, -9.960422741916045e-07, 0.0002735196083090755, 4.639679671774114e-10, 5.213759215816447e-09, 5.8779275345330043e-08, -9.96042274191605e-07, 0.017391039899770675, -0.0005113242629433406, 1.196694617401221e-07, -2.044389734313902e-06, 9.642281491715311e-11, 0.0002735196083090755, -0.0005113242629433406, 0.22670178363049454)"
2025/09/16/14:11:50.428726,306054,1758049910,428609133,odom,base_link,0.47665088632880415,0.7536455663758482,0.04181532873487961,-0.01584914120747282,0.015238599887896857,-0.712305521545353,0.7015250770802458,"(0.0011404186005882304, 1.3185641656440342e-09, -4.838019815257144e-07, 4.1011872245489157e-13, -1.0213384166459918e-11, -2.5810020909003657e-10, 1.3185641656439335e-09, 0.0011404413319236989, 1.8974899318284376e-08, -2.3082296484198142e-14, -5.738724605518554e-13, -9.57816596987731e-12, -4.83801981525714e-07, 1.897489931828437e-08, 0.0006806180116895403, 2.807852659786497e-12, 1.0269556616346486e-11, 1.0891697735065372e-11, 4.1011872245488975e-13, -2.3082296484199325e-14, 2.807852659786495e-12, 0.0003375940171152308, -1.707300681739507e-10, -6.2445816928646165e-09, -1.0213384166459923e-11, -5.738724605518402e-13, 1.0269556616346641e-11, -1.707300681739506e-10, 0.00033763859832637366, 1.0789543137921108e-06, -2.581002090900365e-10, -9.578165969877225e-12, 1.0891697735065424e-11, -6.244581692864616e-09, 1.0789543137921108e-06, 0.0011463598637488645)",-0.21867326465288298,0.021649470023356182,0.007941468592291572,-0.02044817805195932,0.002621993878785815,0.41030215320400715,"(0.18215525458586615, -2.888367518340553e-06, -0.00021988519014466557, 3.19897595795675e-10, 4.6498704364840134e-10, 1.198547766917311e-07, -2.888367518341502e-06, 0.18211908213040734, 0.0005368494158490689, 9.605961977531862e-11, 5.223863920097624e-09, -2.048245650865436e-06, -0.00021988519014466557, 0.0005368494158490687, 0.07886559741835318, 2.060461453389032e-08, 5.905125647669696e-08, 1.0054114519821444e-10, 3.1989759579568384e-10, 9.605961977530566e-11, 2.0604614533890307e-08, 0.017501803670238316, -9.960422741916045e-07, 0.0002735196083090755, 4.649870436483124e-10, 5.22386392009753e-09, 5.905125647669816e-08, -9.96042274191605e-07, 0.017502846292440352, -0.0005113242629433406, 1.1985477669173045e-07, -2.048245650865436e-06, 1.0054114519869882e-10, 0.0002735196083090755, -0.0005113242629433406, 0.23229210326397842)"
2025/09/16/14:11:50.438740,306055,1758049910,438643217,odom,base_link,0.47690520476654946,0.755838598516913,0.04188286424105555,-0.015880641147376803,0.015353496070646991,-0.7108585553171026,0.7029880438013428,"(0.0022023842765312805, 4.137315118429309e-09, -1.7570134008787782e-06, -2.3817449793472882e-08, -4.791510796615444e-09, -2.570621528894784e-06, 4.137315118429326e-09, 0.002202461526461873, 6.958391235142404e-08, 3.5831994617045516e-10, -2.2416038291338675e-08, 2.9782306823672926e-07, -1.7570134008787778e-06, 6.958391235142404e-08, 0.0013082751027381184, 7.806608270470073e-08, 7.457714195028079e-07, 4.5445982282274305e-09, -2.3817449793472882e-08, 3.583199461704551e-10, 7.806608270470073e-08, 0.0006442860021929088, 1.294463731183345e-10, 6.668384634358111e-08, -4.7915107966154445e-09, -2.241603829133868e-08, 7.45771419502808e-07, 1.2944637311838857e-10, 0.0006444486132384617, 3.917323740501272e-06, -2.570621528894785e-06, 2.978230682367293e-07, 4.5445982282274305e-09, 6.668384634358111e-08, 3.917323740501273e-06, 0.002223905070006283)",-0.21914784130515905,0.021724284394971705,0.007965902289391395,-0.02044817805195932,0.002621993878785815,0.41030215320400715,"(0.18531663417580463, -2.8976502863995227e-06, -0.0002208008217859799, 3.2025847158456843e-10, 4.659016156145882e-10, 1.2002108792007928e-07, -2.89765028640047e-06, 0.18528033385135734, 0.0005397188272603694, 9.564924523898578e-11, 5.232932404677508e-09, -2.0517061499375727e-06, -0.00022080082178597987, 0.0005397188272603692, 0.07988178748310217, 2.071090323144186e-08, 5.9295346420075965e-08, 1.0423714793260123e-10, 3.2025847158457727e-10, 9.564924523897293e-11, 2.0710903231441848e-08, 0.017602144513439, -9.960422741916045e-07, 0.0002735196083090755, 4.659016156144994e-10, 5.232932404677414e-09, 5.929534642007716e-08, -9.96042274191605e-07, 0.017603187135641036, -0.0005113242629433406, 1.2002108792007864e-07, -2.0517061499375727e-06, 1.0423714793308697e-10, 0.0002735196083090755, -0.0005113242629433406, 0.2373091454240126)"
2025/09/16/14:11:50.448761,306056,1758049910,448650837,odom,base_link,0.47715068161859264,0.7580315915062544,0.04195083554501137,-0.015911990011932664,0.015468025496396368,-0.7094123975334071,0.7044441773391319,"(0.0032985796728336155, 7.2863571033185605e-09, -3.8440520084410125e-06, -6.964026867188509e-08, -1.9894483689449248e-08, -7.6108811634427685e-06, 7.286357103317836e-09, 0.0032987337271533075, 1.5329493600286726e-07, 7.60992051322146e-10, -6.494397678968599e-08, 8.616095427035873e-07, -3.8440520084410125e-06, 1.5329493600286724e-07, 0.0019504239469825726, 2.3061919233460858e-07, 2.1725079934290324e-06, 1.94455053243896e-08, -6.964026867188508e-08, 7.609920513221465e-10, 2.3061919233460866e-07, 0.000953694404533627, 1.8508412004849724e-09, 2.3685231012387404e-07, -1.9894483689449245e-08, -6.494397678968595e-08, 2.172507993429033e-06, 1.8508412004852636e-09, 0.0009540514082693315, 8.57155356836852e-06, -7.610881163442769e-06, 8.616095427035873e-07, 1.9445505324389603e-08, 2.3685231012387398e-07, 8.571553568368522e-06, 0.0033456252604217723)",-0.2196211662820941,0.02179890144692631,0.007990271543674649,-0.02044817805195932,0.002621993878785815,0.41030215320400715,"(0.18848094735268295, -2.9069237118880783e-06, -0.00022171631900619587, 3.206183955792175e-10, 4.668137754368734e-10, 1.2018696050977455e-07, -2.906923711889024e-06, 0.18844451927007322, 0.000542587347239817, 9.52399530476972e-11, 5.241976971522555e-09, -2.0551575220934664e-06, -0.00022171631900619584, 0.0005425873472398167, 0.08090313506114155, 2.0816911597162667e-08, 5.9538792586813925e-08, 1.0792340262004803e-10, 3.2061839557922636e-10, 9.523995304768447e-11, 2.0816911597162653e-08, 0.01770222071201688, -9.960422741916045e-07, 0.0002735196083090755, 4.668137754367848e-10, 5.24197697152246e-09, 5.953879258681512e-08, -9.96042274191605e-07, 0.017703263334218917, -0.0005113242629433406, 1.2018696050977392e-07, -2.0551575220934664e-06, 1.0792340262053513e-10, 0.0002735196083090755, -0.0005113242629433406, 0.24231295535290664)"
2025/09/16/14:11:50.468911,306057,1758049910,467439175,odom,base_link,0.4825184634243655,0.7595156436472444,0.044703300211535894,-0.01669315863018569,0.015212182795294604,-0.7022116539124731,0.7116099500843556,"(9.999992678949156e-10, 4.441153814846079e-22, -6.235656760894052e-19, 1.0905029790575911e-24, -2.790316354012604e-23, -2.0792529573227786e-22, 4.441153814845425e-22, 9.999992679135131e-10, 4.328364533313029e-21, -1.0030361045059097e-25, -1.4571899794291043e-24, -6.818760045173571e-24, -6.235656760894054e-19, 4.328364533312994e-21, 9.999987720905933e-10, 1.4320357221899763e-23, 4.448638488955654e-23, 1.5762390130817236e-23, 1.0905029790575939e-24, -1.0030361045059358e-25, 1.4320357221899792e-23, 9.999975206124325e-10, -3.841514140436877e-21, -3.359206948214198e-20, -2.790316354012602e-23, -1.4571899794290602e-24, 4.448638488955723e-23, -3.841514140436881e-21, 9.999975210067187e-10, 2.820902352420872e-18, -2.0792529573227753e-22, -6.818760045173499e-24, 1.576239013081726e-23, -3.3592069482141976e-20, 2.8209023524208714e-18, 9.999992723805318e-10)",-0.21616914831440667,0.030217320356446344,0.011565425528619448,-0.020622873324315203,0.0016464981099212903,0.4375494035725697,"(0.17859640058869447, -2.311527499936676e-06, -0.00019749928275276704, 4.490847527692226e-10, 6.889896884714564e-10, 6.152107065523494e-08, -2.3115274999374945e-06, 0.17854939617293694, 0.0006604406317054685, -3.6948459633635634e-10, 6.340875954453731e-09, -2.0699265964584792e-06, -0.00019749928275276702, 0.0006604406317054685, 0.07773994457575631, 2.3816530733150972e-08, 6.028432469586817e-08, 4.420886623260971e-09, 4.490847527692295e-10, -3.6948459633634274e-10, 2.3816530733151012e-08, 0.017389095544270868, -1.1441012325078526e-06, 0.0002456845639800035, 6.889896884713585e-10, 6.340875954453598e-09, 6.028432469586937e-08, -1.1441012325078528e-06, 0.01739159511442872, -0.0006307203112220683, 6.152107065523422e-08, -2.069926596458477e-06, 4.4208866232612426e-09, 0.0002456845639800035, -0.0006307203112220683, 0.22653453948305693)"
2025/09/16/14:11:50.478828,306058,1758049910,474098921,odom,base_link,0.4832986584419384,0.7605918055261467,0.0450964152127756,-0.01670656677258122,0.015175806571753348,-0.7006101634039368,0.7131872015513733,"(9.999985160970774e-10, 1.6343513368567706e-22, -6.344848893735454e-19, 9.422591388831184e-25, -2.7228820927119895e-23, -2.0434409745057876e-22, 1.63435133685543e-22, 9.999985161161106e-10, -5.723218913683215e-21, -8.366821949562354e-26, -1.9363731113159774e-24, -8.234900207731012e-24, -6.34484889373546e-19, -5.723218913683223e-21, 9.999975189182911e-10, 1.5585839835572298e-23, 5.316149715798573e-23, 1.5385301562007104e-23, 9.42259138883122e-25, -8.366821949562617e-26, 1.5585839835572316e-23, 9.999950141008928e-10, -6.339563928004735e-21, -5.2416950684332085e-20, -2.7228820927119895e-23, -1.9363731113159333e-24, 5.316149715798641e-23, -6.3395639280047345e-21, 9.99995014504991e-10, 2.8782102501597334e-18, -2.0434409745057876e-22, -8.234900207730943e-24, 1.5385301562007127e-23, -5.241695068433208e-20, 2.8782102501597326e-18, 9.9999852072508e-10)",-0.21581514456608777,0.03127847476807609,0.012036049834147806,-0.020520616231157196,0.0015595720222962217,0.4410483201597844,"(0.1785782876356699, -2.2137081174974538e-06, -0.00019511338993524952, 4.42095829866083e-10, 6.748448624454804e-10, 5.993059452879668e-08, -2.2137081174982597e-06, 0.17852987563177244, 0.0006767413515736788, -3.388083539090542e-10, 6.426012411784272e-09, -2.0172751212770586e-06, -0.0001951133899352495, 0.0006767413515736788, 0.07773826639109513, 2.3597762752741257e-08, 5.969933442402783e-08, 4.022685242673745e-09, 4.4209582986608984e-10, -3.388083539090407e-10, 2.3597762752741297e-08, 0.01738882458153239, -1.1642955466831354e-06, 0.00024262610758592147, 6.748448624453843e-10, 6.426012411784141e-09, 5.969933442402903e-08, -1.1642955466831356e-06, 0.017391528018276346, -0.000645999499536204, 5.993059452879599e-08, -2.0172751212770564e-06, 4.02268524267401e-09, 0.00024262610758592147, -0.0006459994995362041, 0.2264836850782153)"
2025/09/16/14:11:50.488778,306059,1758049910,488622427,odom,base_link,0.4837052777345877,0.7637391104799416,0.045245396540508784,-0.016756919806243987,0.015341709751740882,-0.6983202916360933,0.7154247744310943,"(0.0014900764834544758, 1.6614939718125228e-10, -8.151970780455222e-07, 7.486629537975711e-13, -1.725222451506924e-11, -4.2816792069793087e-10, 1.6614939718131432e-10, 0.001490117170578932, -1.0782886493807502e-08, -4.912563035081738e-14, -1.1466622471596286e-12, -1.97579262214088e-11, -8.151970780455222e-07, -1.0782886493807542e-08, 0.0008879315281658578, 5.445660590903593e-12, 1.6612029346074635e-11, 1.951084930660672e-11, 7.486629537975734e-13, -4.912563035081905e-14, 5.445660590903601e-12, 0.0004393740332623404, -1.2014254734037677e-09, -3.2959559569789025e-08, -1.7252224515069237e-11, -1.1466622471596013e-12, 1.6612029346074887e-11, -1.201425473403768e-09, 0.0004394520458633472, 1.8511390567972524e-06, -4.281679206979305e-10, -1.975792622140865e-11, 1.9510849306606745e-11, -3.295955956978902e-08, 1.8511390567972528e-06, 0.001500047128540264)",-0.21648913715859572,0.03141069207641182,0.012093597247328402,-0.020520616231157196,0.0015595720222962217,0.4410483201597844,"(0.18313942671069489, -2.2234472887370552e-06, -0.00019626238453308178, 4.429487671842601e-10, 6.767395016050459e-10, 6.002357888833213e-08, -2.2234472887378586e-06, 0.18309076729204998, 0.0006820000028032123, -3.4051834177610523e-10, 6.441944158448018e-09, -2.0221984481835166e-06, -0.00019626238453308175, 0.0006820000028032123, 0.07919904914183608, 2.3764256683797955e-08, 6.004931819227505e-08, 4.048905371541913e-09, 4.429487671842669e-10, -3.4051834177609153e-10, 2.3764256683797994e-08, 0.017534059643177898, -1.1642955466831354e-06, 0.00024262610758592147, 6.767395016049498e-10, 6.4419441584478875e-09, 6.004931819227624e-08, -1.1642955466831356e-06, 0.017536763079921854, -0.000645999499536204, 6.002357888833144e-08, -2.0221984481835145e-06, 4.048905371542179e-09, 0.00024262610758592147, -0.0006459994995362041, 0.2337454381604907)"
2025/09/16/14:11:50.508723,306060,1758049910,508609533,odom,base_link,0.4842400172409173,0.7680899089989489,0.04545277137014068,-0.016826297042516692,0.01556977010005016,-0.6951572506046811,0.7184920701849179,"(0.003666308920780871, -2.6815931058037695e-09, -4.67737645252104e-06, -9.473720189231549e-08, -1.626444452954233e-08, -6.814384834548807e-06, -2.681593105804496e-09, 0.0036665148040822618, -5.928738993715491e-08, -2.712042614011646e-09, -8.980000840853038e-08, 8.361998099664641e-07, -4.677376452521038e-06, -5.928738993715503e-08, 0.0021648851185413383, 3.012237551485589e-07, 1.9256731591410223e-06, 1.9225685777645846e-08, -9.473720189231547e-08, -2.712042614011646e-09, 3.01223755148559e-07, 0.0010561204593535101, -3.4543770148190694e-09, 8.866462853199841e-08, -1.6264444529542326e-08, -8.980000840853038e-08, 1.9256731591410227e-06, -3.454377014819586e-09, 0.001056571241560894, 1.0618764164000406e-05, -6.814384834548808e-06, 8.361998099664641e-07, 1.922568577764585e-08, 8.866462853199843e-08, 1.0618764164000406e-05, 0.0037232553278144214)",-0.21741667913467957,0.0315926482355884,0.012172793431282629,-0.020520616231157196,0.0015595720222962217,0.4410483201597844,"(0.18945513132058267, -2.2368858605412715e-06, -0.0001978505561756762, 4.441225711316207e-10, 6.79346885379829e-10, 6.015154304928452e-08, -2.236885860542071e-06, 0.18940613037527013, 0.0006892660703146685, -3.4287161025845177e-10, 6.463869271494101e-09, -2.0289738822438984e-06, -0.00019785055617567616, 0.0006892660703146686, 0.08123623790506544, 2.3993383994001268e-08, 6.053096241152288e-08, 4.084989254976089e-09, 4.441225711316276e-10, -3.428716102584378e-10, 2.3993383994001308e-08, 0.01773393070641032, -1.1642955466831354e-06, 0.00024262610758592147, 6.793468853797331e-10, 6.46386927149397e-09, 6.053096241152407e-08, -1.1642955466831356e-06, 0.017736634143154278, -0.000645999499536204, 6.015154304928384e-08, -2.0289738822438962e-06, 4.0849892549763555e-09, 0.00024262610758592147, -0.0006459994995362041, 0.2437389913221118)"
