time,.header.seq,.header.stamp.secs,.header.stamp.nsecs,.header.frame_id,.child_frame_id,.pose.pose.position.x,.pose.pose.position.y,.pose.pose.position.z,.pose.pose.orientation.x,.pose.pose.orientation.y,.pose.pose.orientation.z,.pose.pose.orientation.w,.pose.covariance,.twist.twist.linear.x,.twist.twist.linear.y,.twist.twist.linear.z,.twist.twist.angular.x,.twist.twist.angular.y,.twist.twist.angular.z,.twist.covariance
2025/09/16/14:06:50.548746,281805,1758049610,548639774,odom,base_link,1.2933208577954978,0.8842629551231869,-0.044300123868800945,0.0002758968759286216,-0.017770042308978596,-0.9495396712184117,0.31314303801886106,"(0.0027191995296817267, 2.990453730726038e-08, 8.153686261634695e-07, 1.0432758756999448e-07, 1.4616518598707573e-07, -1.0047751259528659e-06, 2.9904537307249333e-08, 0.002719132442160605, -2.106034825096679e-06, -1.4420217977316368e-07, 1.0670753316695062e-07, 8.415024356241448e-08, 8.153686261634693e-07, -2.1060348250966772e-06, 0.001611715679592019, -2.1752010792987163e-07, 1.911446641473693e-07, -7.213287707176285e-10, 1.043275875699945e-07, -1.442021797731637e-07, -2.175201079298716e-07, 0.0007910572567232153, 4.5193337163497004e-08, -1.4750823091052408e-06, 1.4616518598707573e-07, 1.067075331669506e-07, 1.9114466414736926e-07, 4.5193337163497024e-08, 0.0007911977983831257, -4.669287014751054e-06, -1.0047751259528657e-06, 8.415024356241448e-08, -7.213287707176287e-10, -1.475082309105241e-06, -4.669287014751054e-06, 0.0027514920139462837)",-0.03977677736592893,-0.045911926782424686,-0.03499288396554238,0.012448055682772177,-0.003008812936577887,-0.014349847255155894,"(0.1869087190830428, -6.348759887755551e-06, -0.00018581654376443788, 4.034367436037774e-10, -6.851595922878105e-09, 3.622003996411899e-07, -6.348759887759033e-06, 0.18688993518950694, -0.00018992560881980674, 6.606869407678991e-09, 3.3519580498847574e-10, -5.21017034797767e-07, -0.00018581654376443793, -0.00018992560881980693, 0.08036974609260751, -1.4501007828716638e-08, 2.3289538795918844e-08, 2.0989775924399644e-09, 4.034367436038306e-10, 6.606869407678952e-09, -1.4501007828716617e-08, 0.017648714265373566, 1.978032402419507e-06, 0.00023822063045451756, -6.8515959228779415e-09, 3.35195804988292e-10, 2.3289538795918864e-08, 1.978032402419508e-06, 0.0176504307874859, 0.00017383696820115336, 3.622003996411931e-07, -5.210170347977693e-07, 2.098977592439988e-09, 0.00023822063045451756, 0.00017383696820115333, 0.24000394071294318)"
2025/09/16/14:06:50.568768,281806,1758049610,562671423,odom,base_link,1.2917920354674222,0.8865227696193972,-0.03699875929009419,0.0010505215380686352,-0.0191692980208197,-0.9494968088501979,0.31318883185895646,"(9.99999019086745e-10, 5.13354625037095e-21, 2.2122004240669504e-19, 3.6807643558692835e-24, 9.263167833308268e-24, -5.65818504454521e-23, 5.133546250370472e-21, 9.999990190765104e-10, -5.212248766753493e-19, -3.369969526751435e-24, -4.500176465646057e-27, 1.770729381359526e-23, 2.212200424066951e-19, -5.212248766753493e-19, 9.999983572699158e-10, -1.0177832458184412e-23, 1.4597923299427831e-23, -1.8532665984820886e-24, 3.680764355869285e-24, -3.369969526751448e-24, -1.017783245818438e-23, 9.999966909133081e-10, 7.197881521193545e-20, -6.565193205854974e-19, 9.263167833308222e-24, -4.500176465628949e-27, 1.4597923299427834e-23, 7.197881521193546e-20, 9.99996691175161e-10, -2.3879026515257903e-18, -5.658185044545236e-23, 1.7707293813595222e-23, -1.853266598482094e-24, -6.565193205854974e-19, -2.3879026515257906e-18, 9.999990236656815e-10)",-0.03918173026899416,-0.0488842285212451,-0.025108497748656963,0.014145429596468867,-0.0026481402071040477,-0.014029893507261828,"(0.1786974788759667, -7.982806673469454e-06, -0.0002016884965571828, 4.256678377740814e-10, -6.650973290866522e-09, 3.4548507940145057e-07, -7.982806673472887e-06, 0.17867309986376687, -0.00028936919499304416, 6.537644202475684e-09, 5.671945413811036e-11, -4.759742318654207e-07, -0.00020168849655718285, -0.0002893691949930445, 0.07774343664652165, -1.404014199248574e-08, 2.2099499474265816e-08, 1.894181046821043e-09, 4.2566783777412845e-10, 6.5376442024757055e-09, -1.4040141992485699e-08, 0.017388614421576992, 2.1969529562679156e-06, 0.00026367769079637684, -6.650973290866353e-09, 5.6719454137937576e-11, 2.2099499474265826e-08, 2.1969529562679164e-06, 0.017390712376834427, 0.0002735832311169836, 3.45485079401453e-07, -4.7597423186542213e-07, 1.8941810468210296e-09, 0.00026367769079637684, 0.0002735832311169836, 0.2268847520434889)"
2025/09/16/14:06:50.578779,281807,1758049610,575980902,odom,base_link,1.2913534644771796,0.8877543804014602,-0.034930239631639555,0.0012152845147400159,-0.019571341950795473,-0.9494953088385432,0.313167916861534,"(9.999992661498896e-10, 5.3004454825712396e-21, 2.2444333674305135e-19, 3.3613031246869575e-24, 8.719301154652741e-24, -5.362036595285026e-23, 5.3004454825695995e-21, 9.999992661395374e-10, -5.20505477579098e-19, -3.0404547171519892e-24, -1.4203825831669558e-25, 1.6808115458634024e-23, 2.244433367430513e-19, -5.20505477579098e-19, 9.999987691322813e-10, -9.384949140309546e-24, 1.3767537514873284e-23, -1.786597302258388e-24, 3.361303124686958e-24, -3.0404547171520017e-24, -9.38494914030952e-24, 9.999975147229876e-10, 7.159331955189737e-20, -6.439114297660365e-19, 8.719301154652702e-24, -1.4203825831668015e-25, 1.3767537514873292e-23, 7.159331955189737e-20, 9.999975149914968e-10, -2.403589379030436e-18, -5.362036595285053e-23, 1.6808115458634004e-23, -1.786597302258395e-24, -6.439114297660364e-19, -2.4035893790304364e-18, 9.99999270654744e-10)",-0.03921018799964495,-0.04978617477858926,-0.022027953415475466,0.014535170058013238,-0.0025951181949704456,-0.013775891197691265,"(0.17869572110945522, -8.509802692522037e-06, -0.0002068426416797406, 4.279439968313248e-10, -6.406802971983355e-09, 3.282246223984758e-07, -8.509802692525682e-06, 0.17866917015897837, -0.0003239238451879987, 6.335956514033752e-09, -2.974024091820793e-11, -4.52162929640123e-07, -0.00020684264167974067, -0.00032392384518799896, 0.07774392648373789, -1.3715659160657044e-08, 2.157145359429582e-08, 1.937252757716398e-09, 4.279439968313706e-10, 6.335956514033773e-09, -1.3715659160657003e-08, 0.017388623945281588, 2.2772198998249456e-06, 0.00027083765506591797, -6.406802971983191e-09, -2.974024091837574e-11, 2.1571453594295826e-08, 2.2772198998249464e-06, 0.01739088930140413, 0.000307211809291135, 3.2822462239847807e-07, -4.521629296401245e-07, 1.9372527577163855e-09, 0.0002708376550659179, 0.000307211809291135, 0.2268674471327706)"
2025/09/16/14:06:50.588750,281808,1758049610,583559036,odom,base_link,1.2910978797655324,0.888459622558434,-0.033755052070085875,0.00132570265530608,-0.019789018508997443,-0.9494975609110748,0.3131469608392201,"(9.99998698069538e-10, 5.625245955056496e-21, 2.3495841240031354e-19, 3.497539908441074e-24, 8.944146481025858e-24, -5.2463434400473504e-23, 5.6252459550564094e-21, 9.999986980587982e-10, -5.354929437606528e-19, -3.303065537992547e-24, 8.700054033039105e-26, 1.6338417081950354e-23, 2.349584124003136e-19, -5.354929437606527e-19, 9.999978221814484e-10, -1.0870378343256064e-23, 1.484203490365924e-23, -1.783903857545912e-24, 3.4975399084410746e-24, -3.3030655379925617e-24, -1.0870378343256034e-23, 9.999956206732836e-10, 7.360307084442492e-20, -6.473220617932341e-19, 8.944146481025817e-24, 8.700054033040471e-26, 1.4842034903659243e-23, 7.360307084442491e-20, 9.99995620958783e-10, -2.49041490318589e-18, -5.246343440047379e-23, 1.6338417081950342e-23, -1.7839038575459195e-24, -6.473220617932341e-19, -2.4904149031858897e-18, 9.999987026945347e-10)",-0.03922137418203782,-0.05030315118088916,-0.020290150667210047,0.014749793567436624,-0.002542793242978433,-0.013684198335652034,"(0.17867556183550554, -8.809130781515342e-06, -0.0002096826033884311, 4.2865210092270313e-10, -6.271413254151565e-09, 3.1873106681861907e-07, -8.809130781518974e-06, 0.17864771831271764, -0.00034380522061915373, 6.224019485915726e-09, -7.655943311762554e-11, -4.3906710579548825e-07, -0.00020968260338843117, -0.00034380522061915395, 0.07774198736179479, -1.353357813386566e-08, 2.1275271302465676e-08, 1.959990343730256e-09, 4.286521009227482e-10, 6.224019485915747e-09, -1.3533578133865618e-08, 0.0173883788072849, 2.3247285991507228e-06, 0.00027478146706166423, -6.2714132541514025e-09, -7.65594331177906e-11, 2.1275271302465682e-08, 2.3247285991507236e-06, 0.017390748374022432, 0.00032655789596898493, 3.1873106681862134e-07, -4.390671057954897e-07, 1.959990343730244e-09, 0.0002747814670616642, 0.00032655789596898493, 0.2268089911165898)"
2025/09/16/14:06:50.598720,281809,1758049610,598612785,odom,base_link,1.2911286747690554,0.8894099338944772,-0.03409549313733591,0.001344322223736559,-0.01990029033664197,-0.9495276315185864,0.31304863555840584,"(0.001545970031472802, 1.3314032034539151e-08, 3.3268414455691006e-07, 2.1601907735164717e-12, 5.846328801393883e-12, -1.182378314748409e-10, 1.3314032034538724e-08, 0.0015459450094535687, -7.488901077518867e-07, -1.9458938335738863e-12, -1.8092926039239216e-13, 3.705524087283529e-11, 3.326841445569101e-07, -7.488901077518868e-07, 0.0009209753967202108, -3.7393060841762674e-12, 5.49821124347161e-12, -2.48240319759479e-12, 2.160190773516472e-12, -1.9458938335738944e-12, -3.7393060841762586e-12, 0.00045555774175585497, 1.5396916102655558e-08, -4.4479120474816814e-07, 5.846328801393854e-12, -1.8092926039238201e-13, 5.498211243471611e-12, 1.5396916102655558e-08, 0.00045561884032217824, -1.7478651199013894e-06, -1.182378314748415e-10, 3.705524087283525e-11, -2.4824031975948e-12, -4.4479120474816814e-07, -1.7478651199013894e-06, 0.001556715045236281)",-0.0396007074265448,-0.0503966999683235,-0.020325573806112766,0.014749793567436624,-0.002542793242978433,-0.013684198335652034,"(0.18340388448980124, -8.854521357490586e-06, -0.00021120719729730684, 4.289331944957212e-10, -6.2835549286087196e-09, 3.1952218796375074e-07, -8.854521357494225e-06, 0.1833758988029665, -0.0003463835726689443, 6.236478276659835e-09, -7.729676695089724e-11, -4.401120597624325e-07, -0.00021120719729730692, -0.0003463835726689445, 0.07925628129516393, -1.3553747512608897e-08, 2.1288683643739515e-08, 1.9678424225040475e-09, 4.2893319449576636e-10, 6.236478276659855e-09, -1.3553747512608855e-08, 0.017538916298129627, 2.3247285991507228e-06, 0.00027478146706166423, -6.2835549286085574e-09, -7.729676695106248e-11, 2.1288683643739522e-08, 2.3247285991507236e-06, 0.017541285864867157, 0.00032655789596898493, 3.19522187963753e-07, -4.4011205976243394e-07, 1.9678424225040355e-09, 0.0002747814670616642, 0.00032655789596898493, 0.23433586565882614)"
2025/09/16/14:06:50.608742,281810,1758049610,608633280,odom,base_link,1.2911514133489457,0.8900449556435397,-0.03432258700331069,0.0013567188385368292,-0.019974357452169085,-0.9495476358265009,0.312983181105102,"(0.0026206300983466213, 3.7256928068415563e-08, 9.304475904929963e-07, 5.945076401761033e-08, 8.555998802355232e-08, -1.011203316626235e-06, 3.725692806840921e-08, 0.002620559431318798, -2.094241764076286e-06, -8.358003332500651e-08, 6.179671207048689e-08, 3.6021239111861536e-08, 9.304475904929963e-07, -2.094241764076285e-06, 0.0015539523492286934, -2.2775769094259397e-07, 1.8138398876855414e-07, -7.860856557122654e-10, 5.945076401761034e-08, -8.358003332500653e-08, -2.2775769094259397e-07, 0.0007631866026276718, 4.3139469833215564e-08, -1.252052723849635e-06, 8.555998802355231e-08, 6.179671207048691e-08, 1.8138398876855411e-07, 4.313946983321558e-08, 0.0007633578152968899, -4.889074069270464e-06, -1.0112033166262353e-06, 3.602123911186152e-08, -7.860856557122657e-10, -1.252052723849635e-06, -4.889074069270464e-06, 0.002650613611235627)",-0.03985320975364939,-0.05045897050977231,-0.02034915313941879,0.014749793567436624,-0.002542793242978433,-0.013684198335652034,"(0.18656537581890104, -8.884804239607494e-06, -0.0002122254890446987, 4.2912030380488136e-10, -6.2916370070971545e-09, 3.200487959873291e-07, -8.884804239611136e-06, 0.1865372952984134, -0.00034810536764149627, 6.244771442896518e-09, -7.778757157045023e-11, -4.4080763103700806e-07, -0.0002122254890446988, -0.0003481053676414965, 0.08027404644867135, -1.3567173214528434e-08, 2.129761153875691e-08, 1.9730691412050876e-09, 4.2912030380492665e-10, 6.2447714428965375e-09, -1.3567173214528392e-08, 0.01763912124274022, 2.3247285991507228e-06, 0.00027478146706166423, -6.291637007096992e-09, -7.778757157061559e-11, 2.1297611538756916e-08, 2.3247285991507236e-06, 0.01764149080947775, 0.00032655789596898493, 3.200487959873314e-07, -4.408076310370095e-07, 1.9730691412050756e-09, 0.0002747814670616642, 0.00032655789596898493, 0.23934611288935592)"
2025/09/16/14:06:50.618797,281811,1758049610,618642092,odom,base_link,1.291175892734038,0.8906811970391334,-0.034549783038764104,0.0013691009926730105,-0.02004833800942203,-0.9495676070264021,0.3129177997361038,"(0.003731346300447404, 7.364428942163856e-08, 1.8392366657369443e-06, 1.598964084423781e-07, 2.3148524831153494e-07, -2.7580051346080243e-06, 7.364428942163152e-08, 0.0037312047605769704, -4.140066453967865e-06, -2.2416151011626246e-07, 1.6561785914230674e-07, 1.0248718043771837e-07, 1.839236665736944e-06, -4.140066453967864e-06, 0.002202425216942984, -6.106184355637524e-07, 4.878518891501908e-07, -2.9497725181004024e-09, 1.5989640844237817e-07, -2.2416151011626257e-07, -6.106184355637527e-07, 0.001073986577616393, 8.54754119966757e-08, -2.480311036759726e-06, 2.3148524831153492e-07, 1.656178591423068e-07, 4.878518891501908e-07, 8.547541199667566e-08, 0.001074325945892315, -9.669272476655932e-06, -2.758005134608024e-06, 1.0248718043771836e-07, -2.9497725181004024e-09, -2.480311036759726e-06, -9.669272476655932e-06, 0.0037906592942889192)",-0.04010541769797,-0.050521168452383865,-0.02037270498248398,0.014749793567436624,-0.002542793242978433,-0.013684198335652034,"(0.18973445453534535, -8.915106666821612e-06, -0.00021324534562684183, 4.293071949704705e-10, -6.299709663000091e-09, 3.205747900587993e-07, -8.915106666825258e-06, 0.18970627913022117, -0.0003498295600239775, 6.253054940448588e-09, -7.827780397971133e-11, -4.41502391371698e-07, -0.00021324534562684193, -0.0003498295600239777, 0.08129846944457263, -1.358058326393675e-08, 2.1306529025083735e-08, 1.97828976627515e-09, 4.293071949705158e-10, 6.253054940448607e-09, -1.358058326393671e-08, 0.017739209362247058, 2.3247285991507228e-06, 0.00027478146706166423, -6.299709662999928e-09, -7.82778039798768e-11, 2.130652902508374e-08, 2.3247285991507236e-06, 0.017741578928984588, 0.00032655789596898493, 3.205747900588016e-07, -4.415023913716994e-07, 1.978289766275138e-09, 0.0002747814670616642, 0.00032655789596898493, 0.24435051886469772)"
2025/09/16/14:06:50.636615,281812,1758049610,622661829,odom,base_link,1.2925829897886663,0.8891289797076203,-0.06554735912408093,0.0007540216989977266,-0.018149394934702794,-0.9496479739872181,0.3127918739621497,"(9.99997530032851e-10, 4.590178411141003e-21, 1.9138275535529424e-19, 4.349769794094586e-24, 1.001092311823492e-23, -6.117891855479069e-23, 4.590178411141664e-21, 9.999975300231638e-10, -4.7972961861366245e-19, -3.963063714618036e-24, 1.0106023723361785e-24, 1.460092351849158e-23, 1.913827553552943e-19, -4.797296186136627e-19, 9.999958753571205e-10, -9.971954902029163e-24, 1.3785381695738858e-23, -1.7766706053949798e-24, 4.349769794094601e-24, -3.963063714618098e-24, -9.971954902029217e-24, 9.99991726969598e-10, 6.695034526835976e-20, -6.584623451657273e-19, 1.0010923118234816e-23, 1.0106023723361995e-24, 1.3785381695738808e-23, 6.69503452683598e-20, 9.999917271942565e-10, -2.235280119853456e-18, -6.117891855479053e-23, 1.4600923518491566e-23, -1.7766706053949676e-24, -6.584623451657274e-19, -2.2352801198534555e-18, 9.999975347323876e-10)",-0.04107057080117104,-0.04992077690163494,-0.059504419155400674,0.012442395148604823,-0.002523006722805314,-0.013914255678125216,"(0.17864200089954585, -1.0207272734126379e-05, -0.00022333158732176493, 4.4575640615148477e-10, -6.583763228103131e-09, 4.020573617429038e-07, -1.0207272734126999e-05, 0.17860805104362784, -0.000440867667796682, 6.68201248162889e-09, -2.92954554313116e-10, -4.784272691099244e-07, -0.00022333158732176507, -0.000440867667796682, 0.07774008736483053, -1.4600163545457389e-08, 2.1305598022414364e-08, 9.864473354959457e-10, 4.457564061515518e-10, 6.682012481629078e-09, -1.4600163545457498e-08, 0.0173879869739536, 2.575654914329994e-06, 0.00029354674018273433, -6.583763228102955e-09, -2.92954554313322e-10, 2.130559802241427e-08, 2.575654914329995e-06, 0.017390935966626647, 0.0004201332838761106, 4.0205736174290274e-07, -4.784272691099234e-07, 9.864473354959846e-10, 0.00029354674018273433, 0.00042013328387611055, 0.22669360294483296)"
2025/09/16/14:06:50.638789,281813,1758049610,636041880,odom,base_link,1.2923058273851609,0.8902232049012393,-0.06367478105022442,0.0008398078928454336,-0.018245778567372584,-0.949661632823207,0.3127445753817866,"(9.999992701059177e-10, 4.658095798982487e-21, 1.930611544388732e-19, 4.0043388812571706e-24, 9.462633515093182e-24, -5.805727518464134e-23, 4.65809579898103e-21, 9.999992700963667e-10, -4.703578688772003e-19, -3.648963119374768e-24, 8.675640304604439e-25, 1.3859288257510307e-23, 1.9306115443887337e-19, -4.703578688772001e-19, 9.999987757280801e-10, -9.681836725790835e-24, 1.336405888019529e-23, -1.7171391907563507e-24, 4.004338881257183e-24, -3.648963119374829e-24, -9.681836725790888e-24, 9.9999752793002e-10, 6.447426041529008e-20, -6.271586815872647e-19, 9.462633515093081e-24, 8.675640304604657e-25, 1.336405888019523e-23, 6.447426041529007e-20, 9.99997528156517e-10, -2.2119566374121413e-18, -5.805727518464122e-23, 1.3859288257510292e-23, -1.7171391907563404e-24, -6.271586815872644e-19, -2.211956637412142e-18, 9.9999927460041e-10)",-0.04113802486151403,-0.05045635344455935,-0.05626483331248065,0.012482265813142442,-0.002446484195069757,-0.013753555777099039,"(0.17864310835207717, -1.05586859710575e-05, -0.00022768921765232753, 4.479362244615314e-10, -6.343187485507232e-09, 3.818971642146727e-07, -1.0558685971059431e-05, 0.17860789971733482, -0.0004680527486491683, 6.476605589914443e-09, -3.5431208123290934e-10, -4.543992949520621e-07, -0.00022768921765232766, -0.0004680527486491683, 0.07774072959533729, -1.426415445127493e-08, 2.079325636703145e-08, 1.0441286305421243e-09, 4.4793622446159645e-10, 6.476605589914625e-09, -1.4264154451275038e-08, 0.017388013483669983, 2.6536336785016263e-06, 0.0002994821169640255, -6.343187485507062e-09, -3.543120812331091e-10, 2.0793256367031355e-08, 2.653633678501627e-06, 0.01739113476494232, 0.00044598267166807385, 3.818971642146717e-07, -4.5439929495206114e-07, 1.044128630542161e-09, 0.0002994821169640255, 0.0004459826716680738, 0.22669132694173402)"
2025/09/16/14:06:50.648735,281814,1758049610,642666817,odom,base_link,1.2921668293554363,0.8907533882372515,-0.0627491804922689,0.0008839064379721007,-0.018288763492158893,-0.9496699856469178,0.31271657807145375,"(9.999985082304121e-10, 4.786458770395953e-21, 1.9867054835856515e-19, 4.73716681907283e-24, 1.0434236384398009e-23, -5.711116981708988e-23, 4.786458770397726e-21, 9.999985082207151e-10, -4.783622973148316e-19, -4.735551848969105e-24, 1.7141372915927336e-24, 1.3547286842464248e-23, 1.9867054835856524e-19, -4.783622973148314e-19, 9.999975057569747e-10, -1.1673067753061265e-23, 1.4946639283165655e-23, -1.6872550882110374e-24, 4.737166819072842e-24, -4.735551848969166e-24, -1.167306775306132e-23, 9.999949878195257e-10, 6.51935433245244e-20, -6.294359200281718e-19, 1.0434236384397915e-23, 1.7141372915927556e-24, 1.49466392831656e-23, 6.51935433245244e-20, 9.999949880532576e-10, -2.2619111768303343e-18, -5.711116981708976e-23, 1.3547286842464233e-23, -1.687255088211029e-24, -6.294359200281717e-19, -2.2619111768303347e-18, 9.999985128688235e-10)",-0.041155700649070724,-0.05070402177311442,-0.054674096239943244,0.012497323860826996,-0.0024052473448929685,-0.013697453365496964,"(0.1786238399446606, -1.0726508236323217e-05, -0.000229753109517106, 4.4844342787397225e-10, -6.2273257371928376e-09, 3.7222850082385384e-07, -1.0726508236324735e-05, 0.1785880027303283, -0.00048142539457019206, 6.377236828787091e-09, -3.8260757812671716e-10, -4.4287641338374496e-07, -0.00022975310951710613, -0.000481425394570192, 0.0777387383633788, -1.410000433646661e-08, 2.0543100697499507e-08, 1.0704039862758996e-09, 4.484434278740363e-10, 6.377236828787271e-09, -1.4100004336466717e-08, 0.017387768032282563, 2.692483544398825e-06, 0.0003022943247939215, -6.2273257371926705e-09, -3.8260757812691393e-10, 2.0543100697499415e-08, 2.692483544398826e-06, 0.017390977808905084, 0.00045871077360913257, 3.7222850082385284e-07, -4.4287641338374406e-07, 1.0704039862759352e-09, 0.0003022943247939215, 0.0004587107736091325, 0.22664007542095294)"
2025/09/16/14:06:50.659461,281815,1758049610,658607721,odom,base_link,1.2922280964914883,0.8917654061124125,-0.06365708747407753,0.0008988355526417515,-0.01838925967722142,-0.9497023105478029,0.3126124574666494,"(0.0016396067127399548, 1.2420402975272469e-08, 3.1028364790747906e-07, 2.8488618337251866e-12, 6.936377202405127e-12, -1.4404618448622323e-10, 1.242040297527617e-08, 0.0016395817139799214, -7.423622990657913e-07, -2.5659496223573508e-12, 5.298920454215685e-13, 3.4404326994110295e-11, 3.102836479074794e-07, -7.423622990657922e-07, 0.0009763564247283828, -4.285227325503712e-12, 5.95073898680288e-12, -2.596483138688199e-12, 2.8488618337251983e-12, -2.565949622357398e-12, -4.285227325503738e-12, 0.00048265058668103865, 1.5141577843558483e-08, -4.847652459339448e-07, 6.936377202405051e-12, 5.298920454215829e-13, 5.950738986802855e-12, 1.514157784355848e-08, 0.00048270542337442113, -1.7591715182349539e-06, -1.4404618448622292e-10, 3.440432699411026e-11, -2.596483138688184e-12, -4.847652459339448e-07, -1.759171518234954e-06, 0.0016516310736157075)",-0.04155866138422515,-0.050803218179385365,-0.054919093991358255,0.012497323860826996,-0.0024052473448929685,-0.013697453365496964,"(0.18363147847894357, -1.0785345841044402e-05, -0.00023154684397349624, 4.488128779276331e-10, -6.2401311982477655e-09, 3.732173439847838e-07, -1.0785345841045918e-05, 0.18359544584464457, -0.0004853743145070265, 6.390894749396149e-09, -3.8413900007277946e-10, -4.440000130574057e-07, -0.00023154684397349638, -0.00048537431450702644, 0.07934284760431827, -1.412635323740025e-08, 2.0556358344370394e-08, 1.0727146352207555e-09, 4.4881287792769727e-10, 6.390894749396329e-09, -1.412635323740036e-08, 0.01754717707845566, 2.692483544398825e-06, 0.0003022943247939215, -6.240131198247598e-09, -3.841390000729765e-10, 2.0556358344370298e-08, 2.692483544398826e-06, 0.01755038685507818, 0.00045871077360913257, 3.732173439847828e-07, -4.440000130574048e-07, 1.072714635220791e-09, 0.0003022943247939215, 0.0004587107736091325, 0.23461052772960772)"
2025/09/16/14:06:50.668770,281816,1758049610,668612957,odom,base_link,1.2922689294240601,0.8924030125077314,-0.064229096227486,0.0009082083036349156,-0.018452335009030436,-0.9497225884830214,0.31254710271493685,"(0.002715811921157315, 3.31425552082692e-08, 8.287340739008254e-07, 1.623431789126907e-07, 2.2532640962065579e-07, -1.0780807941638421e-06, 3.3142555208287647e-08, 0.0027157444713320064, -1.9823163053254006e-06, -2.2325461438858134e-07, 1.6476189772074444e-07, 6.840159071194799e-08, 8.287340739008257e-07, -1.9823163053254015e-06, 0.001609761687349413, -2.3727274618071804e-07, 1.9975456228493366e-07, -7.944703281816017e-10, 1.6234317891269068e-07, -2.2325461438858126e-07, -2.3727274618071801e-07, 0.0007901175194106405, 4.051212022305488e-08, -1.3027679087107577e-06, 2.253264096206558e-07, 1.6476189772074444e-07, 1.9975456228493366e-07, 4.051212022305487e-08, 0.0007902642281863222, -4.698551059401067e-06, -1.0780807941638417e-06, 6.840159071194799e-08, -7.944703281816018e-10, -1.302767908710758e-06, -4.698551059401067e-06, 0.0027478469020797095)",-0.041811577841513486,-0.05086547834882884,-0.055072865706380925,0.012497323860826996,-0.0024052473448929685,-0.013697453365496964,"(0.18678906197280454, -1.082236140224761e-05, -0.0002326765792167792, 4.4904476155937477e-10, -6.248168487148172e-09, 3.738379868595303e-07, -1.0822361402249125e-05, 0.18675290641053788, -0.0004878609179944346, 6.3994670806260014e-09, -3.8510019003354136e-10, -4.44705235239323e-07, -0.0002326765792167793, -0.0004878609179944346, 0.08035976345201086, -1.4142891004225159e-08, 2.0564679445624288e-08, 1.0741649034334785e-09, 4.49044761559439e-10, 6.399467080626181e-09, -1.414289100422527e-08, 0.01764722943517563, 2.692483544398825e-06, 0.0003022943247939215, -6.248168487148004e-09, -3.851001900337386e-10, 2.0564679445624192e-08, 2.692483544398826e-06, 0.01765043921179815, 0.00045871077360913257, 3.738379868595293e-07, -4.447052352393221e-07, 1.074164903433514e-09, 0.0003022943247939215, 0.0004587107736091325, 0.23961314556560626)"
2025/09/16/14:06:50.688782,281817,1758049610,685989857,odom,base_link,1.2913982870145946,0.8940800427324159,-0.056894547524978294,0.0008735691990007372,-0.018080763926064582,-0.9497042089707506,0.3126247564028566,"(9.999992656308133e-10, 4.655651388848457e-21, 1.908922524183901e-19, 3.6536502482326845e-24, 8.673988311858075e-24, -5.309767182582223e-23, 4.655651388847226e-21, 9.999992656214668e-10, -4.55891314366863e-19, -3.384642195531555e-24, 9.88415082954897e-25, 1.1690397562134e-23, 1.9089225241839026e-19, -4.5589131436686285e-19, 9.999987682697344e-10, -9.463421814656222e-24, 1.2630912674400437e-23, -1.5437480229020753e-24, 3.653650248232695e-24, -3.384642195531601e-24, -9.463421814656274e-24, 9.99997513013456e-10, 6.132148965977376e-20, -5.999081112346819e-19, 8.673988311857995e-24, 9.884150829549243e-25, 1.2630912674400403e-23, 6.132148965977376e-20, 9.999975132379225e-10, -2.1938594238891164e-18, -5.30976718258221e-23, 1.1690397562133993e-23, -1.5437480229020706e-24, -5.999081112346819e-19, -2.193859423889118e-18, 9.999992701218262e-10)",-0.041340490411337416,-0.05197924338647655,-0.044745229153105984,0.01195632791392486,-0.002288407892961872,-0.012826812946952286,"(0.17861649309848054, -1.16796505741377e-05, -0.00024193728004064447, 4.5904497387877377e-10, -6.394587275934918e-09, 3.548073705479315e-07, -1.1679650574137769e-05, 0.1785769716246538, -0.0005633778946733734, 6.647300141437637e-09, -5.299656632722611e-10, -4.072284701187668e-07, -0.00024193728004064455, -0.0005633778946733733, 0.07773946878636359, -1.3685567910507977e-08, 1.946720313809116e-08, 9.242871058196869e-10, 4.5904497387882196e-10, 6.647300141437771e-09, -1.3685567910508065e-08, 0.017387682698861297, 2.9458419773063015e-06, 0.00031867852708502664, -6.394587275934824e-09, -5.29965663272425e-10, 1.9467203138091103e-08, 2.945841977306302e-06, 0.01739149291367811, 0.0005358923759525033, 3.548073705479305e-07, -4.072284701187658e-07, 9.24287105819697e-10, 0.0003186785270850266, 0.0005358923759525032, 0.22660977896173204)"
2025/09/16/14:06:50.698941,281818,1758049610,696016312,odom,base_link,1.2912275793144714,0.8948220013671955,-0.05555134191795326,0.0009011428966757083,-0.017936958441382104,-0.9497150526025485,0.3126000197112764,"(9.9999902021702e-10, 4.6041757830395976e-21, 1.8856498573111131e-19, 3.739334610024129e-24, 8.603347279329354e-24, -5.1274968666539715e-23, 4.6041757830408006e-21, 9.999990202077028e-10, -4.540298167043508e-19, -3.5769478764500285e-24, 1.2025968492834725e-24, 1.1257338488487936e-23, 1.8856498573111117e-19, -4.540298167043507e-19, 9.999983591589672e-10, -1.0044793339588226e-23, 1.2983972203506419e-23, -1.4571488748642866e-24, 3.73933461002414e-24, -3.576947876450074e-24, -1.0044793339588271e-23, 9.999966947077196e-10, 6.128465663976147e-20, -6.044128726421764e-19, 8.60334727932928e-24, 1.2025968492834975e-24, 1.2983972203506386e-23, 6.128465663976147e-20, 9.999966949296368e-10, -2.1907401615462957e-18, -5.127496866653959e-23, 1.1257338488487915e-23, -1.4571488748642809e-24, -6.044128726421762e-19, -2.1907401615462957e-18, 9.999990247776683e-10)",-0.041358437955056664,-0.052214459133429446,-0.04252146056714147,0.011739391065642849,-0.0021943820561440164,-0.012667158039320722,"(0.1786033993453861, -1.1866104952181877e-05, -0.00024451860686624475, 4.576898986633023e-10, -6.225353002152775e-09, 3.4134507555743333e-07, -1.1866104952181892e-05, 0.1785631693559782, -0.0005808018024498695, 6.496129732932882e-09, -5.59055622802217e-10, -3.917516809452392e-07, -0.00024451860686624486, -0.0005808018024498692, 0.07773827931770758, -1.3447291508878915e-08, 1.911139817090509e-08, 9.554731705295384e-10, 4.576898986633494e-10, 6.496129732933013e-09, -1.3447291508879001e-08, 0.017387512620694965, 3.0033915641309706e-06, 0.00032212420369813206, -6.225353002152683e-09, -5.59055622802377e-10, 1.9111398170905036e-08, 3.003391564130971e-06, 0.017391462158936825, 0.0005521761732804025, 3.413450755574324e-07, -3.917516809452382e-07, 9.554731705295477e-10, 0.000322124203698132, 0.0005521761732804024, 0.2265749118015057)"
2025/09/16/14:06:50.708889,281819,1758049610,708696604,odom,base_link,1.2912647108328579,0.8956491978058203,-0.05611896502961157,0.0009126309482599404,-0.01801192287933084,-0.9497388294261653,0.31252342891239143,"(0.0012968101458349284, 7.480081481185472e-09, 1.8561492345035397e-07, 1.6962991373833026e-12, 4.000938566260139e-12, -8.242475583779343e-11, 7.480081481183152e-09, 0.001296795086733497, -4.4438666636564904e-07, -1.5882322044070804e-12, 4.833373271923604e-13, 1.8124142365771032e-11, 1.8561492345035407e-07, -4.443866663656493e-07, 0.0007733931897019642, -2.760347911202045e-12, 3.6340099825923832e-12, -1.4021786437257755e-12, 1.696299137383307e-12, -1.588232204407102e-12, -2.7603479112020588e-12, 0.00038320781605898833, 8.910744981495225e-09, -2.9411101300253925e-07, 4.000938566260106e-12, 4.833373271923739e-13, 3.6340099825923735e-12, 8.910744981495226e-09, 0.00038324034951680886, -1.0757137372906268e-06, -8.24247558377932e-11, 1.8124142365771e-11, -1.4021786437257698e-12, -2.9411101300253925e-07, -1.0757137372906268e-06, 0.0013044302916495525)",-0.04167638107443927,-0.05229599696132399,-0.04265328918216503,0.011739391065642849,-0.0021943820561440164,-0.012667158039320722,"(0.18258440516251445, -1.19178917788915e-05, -0.00024604745295845714, 4.58016577542073e-10, -6.235582301571758e-09, 3.4206123306335865e-07, -1.191789177889151e-05, 0.18254400053841482, -0.0005846262398760604, 6.507279583344323e-09, -5.605993344057191e-10, -3.9253439086246035e-07, -0.00024604745295845725, -0.0005846262398760601, 0.07901269053554845, -1.3466093168002387e-08, 1.911747015331557e-08, 9.56529462710716e-10, 4.580165775421201e-10, 6.5072795833444534e-09, -1.3466093168002475e-08, 0.017514315541990132, 3.0033915641309706e-06, 0.00032212420369813206, -6.235582301571666e-09, -5.605993344058792e-10, 1.9117470153315517e-08, 3.003391564130971e-06, 0.017518265080231993, 0.0005521761732804025, 3.4206123306335765e-07, -3.925343908624593e-07, 9.565294627107251e-10, 0.000322124203698132, 0.0005521761732804024, 0.232915057866264)"
2025/09/16/14:06:50.730406,281820,1758049610,730000496,odom,base_link,1.2913333559898206,0.8970459485328378,-0.057076727159949464,0.0009319248619161042,-0.01813786974556349,-0.949778749965241,0.3123947427720397,"(0.0036073758425913113, 5.4382155744785254e-08, 1.3534144356424268e-06, 2.1645101671726116e-07, 3.031672529258224e-07, -1.9106359165831528e-06, 5.438215574479658e-08, 0.003607263579536552, -3.2396161170413176e-06, -2.9880425760753484e-07, 2.2032472090182616e-07, 9.285063127425274e-08, 1.3534144356424275e-06, -3.23961611704132e-06, 0.0021303558558263616, -4.2025114315788957e-07, 3.430579295517053e-07, -1.6892769955508054e-09, 2.1645101671726114e-07, -2.988042576075349e-07, -4.2025114315788957e-07, 0.001039682537410259, 6.519365274193469e-08, -2.1572549592545057e-06, 3.031672529258223e-07, 2.203247209018261e-07, 3.430579295517053e-07, 6.519365274193473e-08, 0.0010399205202677377, -7.846631841713613e-06, -1.9106359165831523e-06, 9.285063127425272e-08, -1.6892769955508052e-09, -2.1572549592545057e-06, -7.846631841713611e-06, 0.003662747520657263)",-0.042210550622853914,-0.052432986951199266,-0.04287477166586213,0.011739391065642849,-0.0021943820561440164,-0.012667158039320722,"(0.18931343500870404, -1.2005163286884578e-05, -0.00024862760125795056, 4.585654238561193e-10, -6.252768332399682e-09, 3.4326443422800947e-07, -1.200516328688458e-05, 0.1892727361266767, -0.0005910787435010373, 6.526012212535152e-09, -5.631928918059434e-10, -3.9384940533370775e-07, -0.00024862760125795067, -0.0005910787435010369, 0.08118200116671913, -1.3497681440089966e-08, 1.9127671563267406e-08, 9.583041169901018e-10, 4.585654238561664e-10, 6.5260122125352825e-09, -1.3497681440090055e-08, 0.017727354463346334, 3.0033915641309706e-06, 0.00032212420369813206, -6.2527683323995905e-09, -5.631928918061037e-10, 1.9127671563267353e-08, 3.003391564130971e-06, 0.017731304001588195, 0.0005521761732804025, 3.4326443422800847e-07, -3.938494053337067e-07, 9.583041169901106e-10, 0.000322124203698132, 0.0005521761732804024, 0.24356700393407407)"
2025/09/16/14:06:50.751104,281821,1758049610,742701530,odom,base_link,1.2905269862930613,0.8981652855566524,-0.04936666318475628,0.000631126674629336,-0.01664186014352407,-0.9497847556401825,0.31246050650218626,"(9.999990206251836e-10, 4.0066223226535735e-21, 1.6459826176722997e-19, 3.722567597756706e-24, 8.455253478825383e-24, -5.422014992975623e-23, 4.006622322653567e-21, 9.999990206168179e-10, -4.100963542715267e-19, -3.4756800188995096e-24, 1.3846055360987002e-24, 9.850841112617852e-24, 1.6459826176722994e-19, -4.100963542715266e-19, 9.999983598276354e-10, -1.0315192512883991e-23, 1.2682875509533399e-23, -1.3878347499291411e-24, 3.722567597756712e-24, -3.475680018899549e-24, -1.0315192512884085e-23, 9.999966960502316e-10, 5.4036442808650947e-20, -5.765610807423371e-19, 8.455253478825273e-24, 1.3846055360987014e-24, 1.2682875509533364e-23, 5.4036442808650935e-20, 9.999966962373145e-10, -2.013526495242171e-18, -5.422014992975607e-23, 9.850841112617927e-24, -1.38783474992914e-24, -5.76561080742337e-19, -2.013526495242172e-18, 9.99999025195616e-10)",-0.04149244351945198,-0.053114732766262635,-0.032477497359867366,0.009920411982815217,-0.0019706529542031148,-0.011944611418113234,"(0.1786531294279966, -1.2522447580263664e-05, -0.0002548845553635384, 5.038403248942499e-10, -6.956002802641724e-09, 3.7340302996523446e-07, -1.2522447580265678e-05, 0.17861041602533445, -0.0006530401916329691, 7.3181597303370675e-09, -6.266506187775693e-10, -3.9776293016389846e-07, -0.00025488455536353845, -0.0006530401916329687, 0.07774565337760206, -1.3801495870319717e-08, 1.8584074772480595e-08, 5.398675230945154e-10, 5.038403248942871e-10, 7.3181597303371776e-09, -1.3801495870319896e-08, 0.01738817819771847, 3.257137430880197e-06, 0.00033573202968550063, -6.956002802641521e-09, -6.26650618777755e-10, 1.8584074772480538e-08, 3.257137430880197e-06, 0.017392757905011085, 0.0006187702087350314, 3.7340302996523277e-07, -3.9776293016389815e-07, 5.398675230945229e-10, 0.00033573202968550063, 0.0006187702087350314, 0.22669426437196014)"
2025/09/16/14:06:50.758805,281822,1758049610,756000519,odom,base_link,1.2903348209118164,0.8990523815122492,-0.04762084681322015,0.0005557027808293941,-0.01617426783395792,-0.9497967725910152,0.31244867583356156,"(9.999992655540675e-10, 3.8369924594887935e-21, 1.57885783971392e-19, 3.3703277532901735e-24, 7.717601748791694e-24, -5.137433077924056e-23, 3.8369924594885505e-21, 9.999992655460205e-10, -3.952404760515734e-19, -3.108703946333471e-24, 1.1990001754239393e-24, 9.353511514541801e-24, 1.5788578397139227e-19, -3.9524047605157386e-19, 9.999987681299442e-10, -9.453371549407415e-24, 1.18602688683475e-23, -1.2769014959499976e-24, 3.370327753290181e-24, -3.1087039463335097e-24, -9.453371549407512e-24, 9.999975127423576e-10, 5.149488308266472e-20, -5.614782106253622e-19, 7.717601748791588e-24, 1.1990001754239415e-24, 1.1860268868347472e-23, 5.149488308266472e-20, 9.999975129196489e-10, -1.9517508515108424e-18, -5.13743307792404e-23, 9.35351151454187e-24, -1.276901495949999e-24, -5.614782106253623e-19, -1.951750851510843e-18, 9.999992700538638e-10)",-0.041462136729821956,-0.05325693733986077,-0.02973057938619877,0.00930612128569855,-0.0018708678055690212,-0.0116212915064801,"(0.17865331888820027, -1.261911653074295e-05, -0.0002573184137021407, 4.991360595856922e-10, -6.724207211968889e-09, 3.5478914014026725e-07, -1.2619116530743904e-05, 0.17861032708983834, -0.0006695665995966588, 7.101368062005233e-09, -6.492508763685987e-10, -3.779014803148056e-07, -0.0002573184137021408, -0.0006695665995966586, 0.07774602610927671, -1.3485260942914532e-08, 1.8133629875145077e-08, 5.782517036659256e-10, 4.991360595857283e-10, 7.10136806200534e-09, -1.348526094291471e-08, 0.017388194489483123, 3.3199202353611244e-06, 0.0003388771140936717, -6.724207211968692e-09, -6.492508763687787e-10, 1.8133629875145024e-08, 3.3199202353611244e-06, 0.017392928731415062, 0.000633725913165716, 3.547891401402656e-07, -3.779014803148053e-07, 5.782517036659324e-10, 0.0003388771140936717, 0.000633725913165716, 0.22669470375498663)"
2025/09/16/14:06:50.768862,281823,1758049610,768635750,odom,base_link,1.2903625201244167,0.8998946776953446,-0.04802240692109413,0.0005640294845285889,-0.01623376154493851,-0.9498187633809325,0.3123787182033352,"(0.00129210831065555, 5.989623119913131e-09, 1.4925603258352397e-07, 1.6028316498112046e-12, 3.6281988007122485e-12, -8.228116497875996e-11, 5.9896231199226095e-09, 0.0012920956130184672, -3.784536538816519e-07, -1.4858277237996755e-12, 5.852558800041588e-13, 1.4963718519083018e-11, 1.4925603258352373e-07, -3.78453653881652e-07, 0.0007705972125594319, -2.772993865269322e-12, 3.4449655964710063e-12, -1.181775986722897e-12, 1.6028316498112084e-12, -1.4858277237996945e-12, -2.7729938652693495e-12, 0.00038183593813721095, 7.328833106117675e-09, -2.7329222265997837e-07, 3.6281988007121992e-12, 5.852558800041595e-13, 3.4449655964709974e-12, 7.328833106117674e-09, 0.00038186068866882805, -9.36863064310611e-07, -8.228116497875973e-11, 1.4963718519083128e-11, -1.1817759867228969e-12, -2.7329222265997837e-07, -9.368630643106111e-07, 0.0012996927390849199)",-0.04177577859335561,-0.05333961676479192,-0.02979699002065022,0.00930612128569855,-0.0018708678055690212,-0.0116212915064801,"(0.18262025027983517, -1.26739141950685e-05, -0.0002589282761179244, 4.995679743456826e-10, -6.735571679392272e-09, 3.5553308004770353e-07, -1.2673914195069447e-05, 0.1825770728027196, -0.0006739715680711728, 7.113855249629203e-09, -6.509208057052742e-10, -3.786556384874613e-07, -0.0002589282761179244, -0.0006739715680711726, 0.07901591302052786, -1.3505311312992772e-08, 1.8137727790109844e-08, 5.773332253288429e-10, 4.995679743457187e-10, 7.11385524962931e-09, -1.350531131299295e-08, 0.01751454679966379, 3.3199202353611244e-06, 0.0003388771140936717, -6.735571679392075e-09, -6.509208057054543e-10, 1.813772779010979e-08, 3.3199202353611244e-06, 0.017519281041595728, 0.000633725913165716, 3.555330800477019e-07, -3.78655638487461e-07, 5.773332253288496e-10, 0.0003388771140936717, 0.000633725913165716, 0.23301231926401983)"
2025/09/16/14:06:50.791523,281824,1758049610,788620234,odom,base_link,1.290411826109783,0.9012332836258979,-0.048659525844845036,0.0005771953589046178,-0.016327859978204688,-0.9498535274450302,0.3122680647044831,"(0.003454433153337391, 4.034068837267029e-08, 1.009394316171768e-06, 1.422559664672139e-07, 2.0139980929884655e-07, -1.8183988661041524e-06, 4.034068837269252e-08, 0.003454345111020405, -2.5588215359433815e-06, -1.9794679503273506e-07, 1.4588436719202768e-07, 6.645636571067742e-08, 1.009394316171768e-06, -2.5588215359433824e-06, 0.0020412286912014402, -4.0488158494228687e-07, 3.2210647320374095e-07, -1.272605694936739e-09, 1.4225596646721388e-07, -1.9794679503273506e-07, -4.048815849422869e-07, 0.0009971584741175312, 4.971626564515856e-08, -1.8582097370997808e-06, 2.0139980929884655e-07, 1.4588436719202766e-07, 3.2210647320374105e-07, 4.9716265645158534e-08, 0.0009973263068508102, -6.336734802085391e-06, -1.8183988661041532e-06, 6.645636571067743e-08, -1.2726056949367397e-09, -1.8582097370997808e-06, -6.336734802085391e-06, 0.0035055528675163876)",-0.04227184951650555,-0.053470386484717074,-0.029902028245994677,0.00930612128569855,-0.0018708678055690212,-0.0116212915064801,"(0.18893111630951512, -1.2760837645975606e-05, -0.0002614854222893312, 5.002511113201175e-10, -6.753546262830558e-09, 3.567097308700527e-07, -1.2760837645976544e-05, 0.18888764433098526, -0.0006809666620779393, 7.133605580858519e-09, -6.535620455522339e-10, -3.798484510052018e-07, -0.0002614854222893312, -0.0006809666620779392, 0.08104981549589836, -1.353702393414018e-08, 1.8144209247771964e-08, 5.758805162056522e-10, 5.002511113201536e-10, 7.133605580858626e-09, -1.3537023934140361e-08, 0.01771439163685251, 3.3199202353611244e-06, 0.0003388771140936717, -6.75354626283036e-09, -6.535620455524141e-10, 1.814420924777191e-08, 3.3199202353611244e-06, 0.01771912587878445, 0.000633725913165716, 3.56709730870051e-07, -3.7984845100520147e-07, 5.758805162056588e-10, 0.0003388771140936717, 0.000633725913165716, 0.24300456112345586)"
2025/09/16/14:06:50.815453,281825,1758049610,802672625,odom,base_link,1.289663076569555,0.9022055864246341,-0.041445362175924066,-5.798332281125272e-05,-0.014201527887439933,-0.9498418183944632,0.31240811972913884,"(9.999990175387177e-10, 2.9531979777049678e-21, 1.1729414293998254e-19, 3.398662695746382e-24, 7.216180031153934e-24, -5.356299578693941e-23, 2.953197977706911e-21, 9.999990175319038e-10, -3.358354999459686e-19, -3.0714793291223793e-24, 1.4242158297623265e-24, 8.137546663587733e-24, 1.172941429399825e-19, -3.358354999459688e-19, 9.999983546719043e-10, -1.0389930423204292e-23, 1.209486730626522e-23, -1.0608814143081569e-24, 3.3986626957463946e-24, -3.071479329122417e-24, -1.038993042320445e-23, 9.999966857493074e-10, 4.364164486829381e-20, -5.525538612932172e-19, 7.216180031153884e-24, 1.4242158297623327e-24, 1.2094867306265215e-23, 4.3641644868293816e-20, 9.999966858767284e-10, -1.6749719474548169e-18, -5.356299578693979e-23, 8.137546663587678e-24, -1.0608814143081593e-24, -5.525538612932173e-19, -1.6749719474548165e-18, 9.999990221185713e-10)",-0.04142945477671785,-0.05388892991231557,-0.02024181899271299,0.006693959028748607,-0.001784460553822397,-0.010440010067753677,"(0.17867617264229343, -1.2756423201745279e-05, -0.0002646606525114385, 5.099601727000006e-10, -6.9010664759493115e-09, 3.781230587300979e-07, -1.2756423201745023e-05, 0.17863319845194972, -0.000716259512501363, 7.3252139793972725e-09, -6.78882684534087e-10, -3.7988950836290874e-07, -0.0002646606525114385, -0.000716259512501363, 0.07774974914651228, -1.3737048063586022e-08, 1.759439391455975e-08, 3.0777748735841875e-10, 5.099601727000675e-10, 7.325213979397362e-09, -1.373704806358631e-08, 0.017388554698374626, 3.514723652260904e-06, 0.00034821823885252166, -6.901066475949108e-09, -6.788826845342449e-10, 1.7594393914559745e-08, 3.514723652260904e-06, 0.01739375634532968, 0.000675024827341473, 3.7812305873010124e-07, -3.7988950836291064e-07, 3.07777487358425e-10, 0.00034821823885252166, 0.0006750248273414731, 0.22675548754814337)"
2025/09/16/14:06:50.818763,281826,1758049610,816003323,odom,base_link,1.2976713122001078,0.8982752597044769,-0.0683043868696984,-0.0038454634343028,-0.005659595246068285,-0.9499587178826023,0.31230052147165643,"(9.999992673445481e-10, 2.745409054736005e-21, 1.0739689598056022e-19, 3.118676518936947e-24, 6.5539726351096254e-24, -5.073986195799743e-23, 2.7454090547357802e-21, 9.999992673380818e-10, -3.1838959511471223e-19, -2.7895772118880785e-24, 1.2862579012124592e-24, 7.726364319446023e-24, 1.0739689598056032e-19, -3.183895951147121e-19, 9.999987711042193e-10, -9.496751020981255e-24, 1.1272187400315957e-23, -9.490752125770692e-25, 3.1186765189369575e-24, -2.7895772118881167e-24, -9.496751020981407e-24, 9.99997518703429e-10, 4.119159508391238e-20, -5.41939726637343e-19, 6.55397263510957e-24, 1.2862579012124636e-24, 1.1272187400315954e-23, 4.119159508391239e-20, 9.999975188193643e-10, -1.5940453305196593e-18, -5.073986195799779e-23, 7.726364319445982e-24, -9.490752125770722e-25, -5.419397266373431e-19, -1.5940453305196591e-18, 9.999992718527346e-10)",-0.04857267874381368,-0.040641560681069486,-0.05454477183639168,-0.004051396225555593,-0.0028367454097019363,-0.0092419914188674,"(0.17867553742211095, -1.271536567039203e-05, -0.00026651626980898923, 5.039522620684454e-10, -6.682119142931445e-09, 3.592368720021894e-07, -1.2715365670392086e-05, 0.17863302663972977, -0.0007246521562666818, 7.1080887789866545e-09, -6.840747462098344e-10, -3.608821285961196e-07, -0.0002665162698089892, -0.0007246521562666817, 0.07774982509141937, -1.3422129502191561e-08, 1.7164969081250056e-08, 3.3110003827347414e-10, 5.039522620685103e-10, 7.1080887789867405e-09, -1.3422129502191843e-08, 0.01738856716008998, 3.5585381342689545e-06, 0.0003505535470368777, -6.6821191429312485e-09, -6.840747462099874e-10, 1.7164969081250056e-08, 3.5585381342689545e-06, 0.017393859268813382, 0.000681985583518333, 3.5923687200219256e-07, -3.608821285961214e-07, 3.311000382734799e-10, 0.0003505535470368777, 0.000681985583518333, 0.22675719084888807)"
2025/09/16/14:06:50.828779,281827,1758049610,822663307,odom,base_link,1.297654748134019,0.8986717462671058,-0.0674783766124169,-0.003963774976754649,-0.005312379223413618,-0.9499663262168433,0.3122819978304775,"(9.999985161769657e-10, 1.1207593342604735e-21, -9.743382251832443e-20, 4.5974418742651454e-24, 5.230362405421352e-24, -4.992311670626029e-23, 1.1207593342613371e-21, 9.999985161738631e-10, -9.548423547080271e-20, -4.506374334470399e-24, 2.973879311886853e-24, 7.755322078820003e-24, -9.743382251832438e-20, -9.548423547080282e-20, 9.999975189714433e-10, -1.0663273009116331e-23, 1.3343379574659095e-23, 2.1622367852034716e-25, 4.597441874265156e-24, -4.506374334470436e-24, -1.0663273009116477e-23, 9.999950143003376e-10, 1.3281864380721694e-20, -6.895243276238899e-19, 5.23036240542128e-24, 2.9738793118868586e-24, 1.33433795746591e-23, 1.3281864380721704e-20, 9.999950142889472e-10, -3.488925999811933e-19, -4.992311670626065e-23, 7.755322078819962e-24, 2.162236785203513e-25, -6.895243276238904e-19, -3.4889259998119345e-19, 9.999985208399844e-10)",-0.048538194231962394,-0.040762900266784884,-0.05310200730254287,-0.004459490547601816,-0.00283028717455794,-0.00913622406992195,"(0.17865552713528124, -1.2514446369550191e-05, -0.0002685675814627707, 5.035293847235754e-10, -6.592826874392923e-09, 3.5010834089426506e-07, -1.2514446369549883e-05, 0.17861398333739073, -0.000717504138493255, 6.9972260695914095e-09, -6.660424106672994e-10, -3.516918028919907e-07, -0.0002685675814627707, -0.000717504138493255, 0.07774731425232209, -1.3266447929324413e-08, 1.6953326435490122e-08, 3.049818885693694e-10, 5.035293847236394e-10, 6.997226069591494e-09, -1.3266447929324691e-08, 0.0173883219311878, 3.557526662490452e-06, 0.0003533207900835332, -6.592826874392729e-09, -6.6604241066745e-10, 1.6953326435490122e-08, 3.557526662490452e-06, 0.017393555511624165, 0.0006742734908604583, 3.5010834089426813e-07, -3.5169180289199247e-07, 3.049818885693747e-10, 0.0003533207900835332, 0.0006742734908604583, 0.22671204953858837)"
2025/09/16/14:06:50.838728,281828,1758049610,838612556,odom,base_link,1.297890862815989,0.8996460374926811,-0.06834043112764349,-0.003995932809442134,-0.0052859306082953614,-0.9499891747980548,0.31221252253088383,"(0.0016404997425502191, 2.876814591172985e-09, -1.6175220841645176e-07, 2.800923753015298e-12, 2.9210711672343138e-12, -1.2593570551500599e-10, 2.87681459117166e-09, 0.0016404920921677577, -1.344140322746778e-07, -2.458946041020107e-12, 1.5565970936054379e-12, 1.9448422283596183e-11, -1.6175220841645184e-07, -1.3441403227467787e-07, 0.0009768558471557603, -4.0171706862041835e-12, 5.065129676936307e-12, 3.953831500395263e-13, 2.8009237530153075e-12, -2.4589460410201336e-12, -4.017170686204255e-12, 0.00048290655069732727, 2.760288194104948e-09, -5.358423620207672e-07, 2.9210711672342584e-12, 1.5565970936054399e-12, 5.065129676936308e-12, 2.760288194104949e-09, 0.0004829035207758893, -2.3412989583905557e-07, -1.2593570551500692e-10, 1.9448422283596086e-11, 3.953831500395325e-13, -5.358423620207672e-07, -2.3412989583905563e-07, 0.0016526029924992908)",-0.048949535424467956,-0.040830512592011196,-0.05332787447547662,-0.004459490547601816,-0.00283028717455794,-0.00913622406992195,"(0.18366588025468722, -1.2582711094659792e-05, -0.00027069346883827074, 5.041047795179956e-10, -6.606834194138827e-09, 3.5103364701281273e-07, -1.2582711094659472e-05, 0.1836241114897528, -0.000723434256578831, 7.012691373465784e-09, -6.681290649297793e-10, -3.5257618064312984e-07, -0.00027069346883827074, -0.000723434256578831, 0.07935233148317086, -1.329190700432921e-08, 1.6955116825118318e-08, 3.022791345962979e-10, 5.041047795180597e-10, 7.012691373465869e-09, -1.3291907004329489e-08, 0.01754781442386358, 3.557526662490452e-06, 0.0003533207900835332, -6.606834194138633e-09, -6.681290649299299e-10, 1.6955116825118318e-08, 3.557526662490452e-06, 0.017553048004299947, 0.0006742734908604583, 3.510336470128158e-07, -3.525761806431316e-07, 3.0227913459630297e-10, 0.0003533207900835332, 0.0006742734908604583, 0.23468667417237743)"
2025/09/16/14:06:50.848737,281829,1758049610,848617554,odom,base_link,1.2980413875285217,0.9002596130287506,-0.0688830719896477,-0.004016105916804381,-0.005269339859038677,-0.9500035042660617,0.31216893957105607,"(0.0027167271162610515, 7.46073246044888e-09, -4.3219989967914225e-07, 1.536063696879102e-07, 2.124279807712204e-07, -1.0369739939794115e-06, 7.460732460465894e-09, 0.0027167062507232687, -3.580559987507421e-07, -2.1151673354085292e-07, 1.5625999730348342e-07, 2.5451761495643875e-07, -4.3219989967914273e-07, -3.580559987507422e-07, 0.0016102219691769156, -1.9656247908652288e-07, 2.3561911301618262e-07, 1.7460250261750228e-10, 1.5360636968791015e-07, -2.1151673354085294e-07, -1.965624790865228e-07, 0.000790370813160287, 7.344893963832274e-09, -1.4436418897779911e-06, 2.124279807712204e-07, 1.5625999730348345e-07, 2.3561911301618267e-07, 7.3448939638322745e-09, 0.000790362367396895, -6.217233617734324e-07, -1.0369739939794108e-06, 2.5451761495643875e-07, 1.7460250261750233e-10, -1.443641889777991e-06, -6.217233617734325e-07, 0.002748959359821718)",-0.049207570610462686,-0.04087292594431622,-0.053469561423051835,-0.004459490547601816,-0.00283028717455794,-0.00913622406992195,"(0.1868234515645498, -1.2625632607921525e-05, -0.00027203154986444374, 5.04465725869841e-10, -6.61562101496245e-09, 3.516140934663934e-07, -1.2625632607921198e-05, 0.18678154136466454, -0.0007271660109331499, 7.022392790767033e-09, -6.694380274906306e-10, -3.531309526466697e-07, -0.0002720315498644437, -0.0007271660109331498, 0.08036926930034075, -1.3307877535056028e-08, 1.6956239940257602e-08, 3.005836914049864e-10, 5.044657258699051e-10, 7.022392790767117e-09, -1.330787753505631e-08, 0.01764786439639776, 3.557526662490452e-06, 0.0003533207900835332, -6.615621014962257e-09, -6.694380274907811e-10, 1.6956239940257602e-08, 3.557526662490452e-06, 0.017653097976834127, 0.0006742734908604583, 3.516140934663965e-07, -3.5313095264667143e-07, 3.0058369140499135e-10, 0.0003533207900835332, 0.0006742734908604583, 0.23968917279908641)"
2025/09/16/14:06:50.869824,281830,1758049610,862670660,odom,base_link,1.2974969150427338,0.9010059833889614,-0.06241663459946247,-0.004601358995401772,-0.003319134268910933,-0.9500114858724517,0.3121633988050438,"(9.999990185103985e-10, 1.0430632620852834e-21, -1.2774971555743776e-19, 3.8536958266209475e-24, 3.7443004246254784e-24, -4.749411186191604e-23, 1.0430632620826748e-21, 9.999990185081662e-10, -4.748268918700005e-20, -3.603940342018782e-24, 2.3810625517782397e-24, 7.811777029914768e-24, -1.2774971555743774e-19, -4.7482689187000064e-20, 9.99998356286826e-10, -9.39325943090413e-24, 1.1643778006365008e-23, 4.150256137913134e-25, 3.853695826620929e-24, -3.6039403420188205e-24, -9.393259430904256e-24, 9.99996689010771e-10, 5.603570654015481e-21, -6.742942443793798e-19, 3.744300424625393e-24, 2.3810625517782375e-24, 1.1643778006365042e-23, 5.603570654015474e-21, 9.999966889946842e-10, -9.798373305611055e-20, -4.749411186191608e-23, 7.811777029914767e-24, 4.150256137913145e-25, -6.742942443793798e-19, -9.798373305611058e-20, 9.999990231000234e-10)",-0.04821779621597032,-0.04150004594462852,-0.04448706652113664,-0.006752202539962799,-0.0027460090269197804,-0.008591092780443945,"(0.17862922374983717, -1.1274407531249846e-05, -0.0002800855057846626, 5.043198053706587e-10, -6.966253940358063e-09, 3.3228951260332473e-07, -1.127440753125043e-05, 0.17859313831425316, -0.0006708070056453387, 7.243553705319912e-09, -5.436049734766323e-10, -3.4015941707749986e-07, -0.00028008550578466265, -0.0006708070056453386, 0.07774306438316644, -1.2870768806411488e-08, 1.632215658545564e-08, 3.634411223176712e-10, 5.043198053707781e-10, 7.2435537053199544e-09, -1.2870768806411711e-08, 0.017388044654435404, 3.52976676942867e-06, 0.00036869495160107624, -6.966253940357852e-09, -5.43604973476776e-10, 1.632215658545571e-08, 3.52976676942867e-06, 0.017392899022564818, 0.0006249066230295549, 3.3228951260332494e-07, -3.401594170775e-07, 3.6344112231767505e-10, 0.0003686949516010763, 0.0006249066230295548, 0.2266779060498625)"
2025/09/16/14:06:50.878778,281831,1758049610,876013756,odom,base_link,1.2974480392273162,0.9017916918077356,-0.060705090921094024,-0.004890841545275588,-0.002659824404078387,-0.9500262273271771,0.31212044533097993,"(9.999992680365507e-10, 1.0341352981017077e-21, -1.3539124928197567e-19, 3.467709502169276e-24, 3.153104308074781e-24, -4.4986332430672526e-23, 1.034135298100722e-21, 9.999992680345617e-10, -3.480036858163781e-20, -3.1673103871572206e-24, 2.0955436925659574e-24, 7.389817239803257e-24, -1.3539124928197574e-19, -3.4800368581637794e-20, 9.999987722544183e-10, -8.67191011470986e-24, 1.0757681250122375e-23, 4.429013553110346e-25, 3.4677095021692534e-24, -3.167310387157255e-24, -8.671910114709976e-24, 9.999975210329567e-10, 3.5585846004024264e-21, -6.687933197775525e-19, 3.1531043080746997e-24, 2.0955436925659548e-24, 1.0757681250122415e-23, 3.558584600402424e-21, 9.999975210166004e-10, -3.0104858126693134e-20, -4.4986332430672555e-23, 7.389817239803255e-24, 4.429013553110357e-25, -6.687933197775523e-19, -3.010485812669318e-20, 9.999992725546267e-10)",-0.048124536047445245,-0.04175155859704105,-0.041659540607196004,-0.007525017214466771,-0.002804351522710768,-0.008431257634152341,"(0.17863064824084288, -1.0819741509457759e-05, -0.00028363083235418665, 5.013847824518188e-10, -6.7856576366099505e-09, 3.156968182183509e-07, -1.0819741509457268e-05, 0.17859625795813414, -0.0006524732081244401, 7.0211524006494685e-09, -5.059934583503496e-10, -3.231367931952742e-07, -0.00028363083235418676, -0.00065247320812444, 0.07774278131628772, -1.2572560977087435e-08, 1.5919873021778387e-08, 3.007079501999479e-10, 5.013847824519348e-10, 7.02115240064951e-09, -1.2572560977087653e-08, 0.017388077189206024, 3.508165576049242e-06, 0.0003733817999677261, -6.785657636609746e-09, -5.059934583504888e-10, 1.591987302177846e-08, 3.508165576049242e-06, 0.01739278776838281, 0.0006059586382917128, 3.156968182183511e-07, -3.231367931952743e-07, 3.0070795019995117e-10, 0.00037338179996772617, 0.0006059586382917128, 0.2266920521639346)"
2025/09/16/14:06:50.888688,281832,1758049610,882658005,odom,base_link,1.2974195482125137,0.9021903276629211,-0.059843073647825186,-0.005035165578153659,-0.00233120891998161,-0.9500352263533771,0.31209338547982635,"(9.999985126166037e-10, 1.072988129418596e-21, -1.5171525803387535e-19, 3.9954578588262356e-24, 3.718925214776594e-24, -4.434815119327157e-23, 1.0729881294182783e-21, 9.999985126148586e-10, -2.0108174417274185e-20, -3.927204485664866e-24, 2.6927137832754006e-24, 7.311694856314578e-24, -1.5171525803387537e-19, -2.0108174417274288e-20, 9.999975130439028e-10, -1.0363343144892376e-23, 1.2647807895776726e-23, 5.064125304536276e-25, 3.995457858826215e-24, -3.927204485664901e-24, -1.0363343144892498e-23, 9.99995002446756e-10, 8.122059593461004e-22, -6.902020478705776e-19, 3.718925214776512e-24, 2.692713783275398e-24, 1.2647807895776774e-23, 8.1220595934609935e-22, 9.999950024295475e-10, 6.123300494838581e-20, -4.434815119327157e-23, 7.31169485631458e-24, 5.064125304536286e-25, -6.90202047870578e-19, 6.123300494838582e-20, 9.999985172789857e-10)",-0.048078776017651856,-0.04189381735107715,-0.04024935414130687,-0.007908775883492003,-0.0028334415614176545,-0.008379164015592773,"(0.17861163916654088, -1.0581687663891263e-05, -0.0002854582738688201, 4.998411851144686e-10, -6.697744382869032e-09, 3.076936664283044e-07, -1.0581687663890909e-05, 0.17857807251849836, -0.0006426657298951251, 6.912327862783608e-09, -4.869829317310701e-10, -3.1492639468941703e-07, -0.00028545827386882024, -0.000642665729895125, 0.07774033623823175, -1.2426050811332122e-08, 1.5722389658790074e-08, 2.689761576657232e-10, 4.998411851145829e-10, 6.912327862783648e-09, -1.2426050811332338e-08, 0.017387836796072392, 3.4950623137633217e-06, 0.00037581218566311726, -6.69774438286883e-09, -4.869829317312071e-10, 1.5722389658790147e-08, 3.4950623137633217e-06, 0.01739247189765453, 0.0005958740223190063, 3.0769366642830463e-07, -3.1492639468941713e-07, 2.6897615766572624e-10, 0.0003758121856631173, 0.0005958740223190063, 0.22664903197437028)"
2025/09/16/14:06:50.898726,281833,1758049610,898616552,odom,base_link,1.2976378915840139,0.9031811149781817,-0.06049584440146077,-0.005076180414173578,-0.0022786456954583217,-0.9500561222821463,0.3120294932861455,"(0.0016414704513404608, 2.8442330878104175e-09, -2.4715211480325646e-07, 2.5180401987160858e-12, 2.0066581352224818e-12, -1.1182842825403924e-10, 2.8442330878143602e-09, 0.0016414662525827235, -1.895381429691607e-08, -2.2465313719106582e-12, 1.5101703350498959e-12, 1.8361912918278075e-11, -2.4715211480325636e-07, -1.8953814296916113e-08, 0.000977436148600641, -3.847228491170526e-12, 4.753821293841981e-12, 8.357800289071241e-13, 2.5180401987160684e-12, -2.2465313719106837e-12, -3.847228491170581e-12, 0.00048319060126105466, -1.4998325328467883e-10, -5.405920357416452e-07, 2.0066581352224204e-12, 1.5101703350498935e-12, 4.753821293842e-12, -1.4998325328467893e-10, 0.0004831865758818822, 8.319006678622613e-08, -1.118284282540393e-10, 1.8361912918278066e-11, 8.357800289071253e-13, -5.405920357416452e-07, 8.31900667862261e-08, 0.0016535850432457138)",-0.04848465821867377,-0.041963924030030485,-0.04039166383525608,-0.007908775883492003,-0.0028334415614176545,-0.008379164015592773,"(0.18362481065590827, -1.0638681891672197e-05, -0.0002877285277190714, 5.004188999769214e-10, -6.712050620464131e-09, 3.0849888200318877e-07, -1.0638681891671824e-05, 0.1835910654922956, -0.0006478726003522495, 6.927564729518458e-09, -4.885642885441935e-10, -3.1571274269467306e-07, -0.0002877285277190716, -0.0006478726003522494, 0.07934626292076145, -1.244770077313797e-08, 1.5720070154033557e-08, 2.6683651280336276e-10, 5.004188999770361e-10, 6.9275647295185e-09, -1.2447700773138185e-08, 0.017547422271994025, 3.4950623137633217e-06, 0.00037581218566311726, -6.712050620463929e-09, -4.885642885443305e-10, 1.5720070154033633e-08, 3.4950623137633217e-06, 0.017552057373576162, 0.0005958740223190063, 3.08498882003189e-07, -3.157127426946731e-07, 2.668365128033656e-10, 0.0003758121856631173, 0.0005958740223190063, 0.23462830577045182)"
