time,.header.seq,.header.stamp.secs,.header.stamp.nsecs,.header.frame_id,.child_frame_id,.pose.pose.position.x,.pose.pose.position.y,.pose.pose.position.z,.pose.pose.orientation.x,.pose.pose.orientation.y,.pose.pose.orientation.z,.pose.pose.orientation.w,.pose.covariance,.twist.twist.linear.x,.twist.twist.linear.y,.twist.twist.linear.z,.twist.twist.angular.x,.twist.twist.angular.y,.twist.twist.angular.z,.twist.covariance
2025/09/16/14:07:40.688868,285901,1758049660,682267189,odom,base_link,1.1324915879533028,0.7505620126979962,0.023831339356363775,0.0014710098314260987,-0.01291366421176222,-0.9193205974317523,0.3932946891891977,"(9.999985186027802e-10, 3.028675931612445e-21, 1.7548142337768863e-19, -7.728361278531276e-25, -3.237834246471192e-24, 4.567759423212459e-23, 3.0286759316148414e-21, 9.99998518599775e-10, -2.575448395506285e-19, -9.936727585402516e-25, -2.70934218454687e-24, 3.966352227843e-23, 1.7548142337768854e-19, -2.575448395506286e-19, 9.999975230096032e-10, 1.7576420053968035e-23, -1.4712837675128532e-24, -5.067742829593402e-25, -7.728361278531109e-25, -9.936727585402248e-25, 1.757642005396829e-23, 9.999950223425887e-10, 2.9665326008901646e-20, -4.059169105179814e-19, -3.237834246471182e-24, -2.7093421845468568e-24, -1.4712837675128113e-24, 2.9665326008901646e-20, 9.999950224520682e-10, -1.532511565577344e-18, 4.567759423212458e-23, 3.966352227843015e-23, -5.067742829593518e-25, -4.059169105179813e-19, -1.5325115655773442e-18, 9.999985232685896e-10)",0.011095550450700764,0.07189552988863157,0.010249854105209887,0.008226366846444766,-0.0003178341786966465,-0.00870750085784099,"(0.17877647356490003, -1.1831580309925861e-05, -0.00036118012260116686, -4.707894307590005e-10, -4.166277623145127e-09, -5.922505495334681e-07, -1.1831580309926307e-05, 0.1787456039914993, -0.0007130251481618237, 2.9637470175931457e-09, -3.996899805885967e-11, 5.49443441401806e-08, -0.00036118012260116686, -0.0007130251481618239, 0.07776804336338075, 2.107030387117932e-08, -1.0493317117434586e-09, 5.18526512806479e-11, -4.70789430759097e-10, 2.963747017593128e-09, 2.1070303871179782e-08, 0.01739471319099921, 3.978105938346099e-06, 0.00046939806022736806, -4.166277623145198e-09, -3.9968998058889885e-11, -1.0493317117433815e-09, 3.9781059383461e-06, 0.017398535178445244, 0.0006653438722354091, -5.922505495334691e-07, 5.4944344140179436e-08, 5.18526512806133e-11, 0.00046939806022736806, 0.0006653438722354092, 0.22696493106329213)"
2025/09/16/14:07:40.698745,285902,1758049660,692267895,odom,base_link,1.1317262661344196,0.7575333640437061,-0.007457376008624577,0.0004801855716492058,-0.006032351344084011,-0.9190453807025264,0.39410527574294957,"(9.999990176654333e-10, 2.8807849869646164e-21, 1.6681557127605608e-19, -6.31611467875794e-25, -2.9185390247875393e-24, 4.3701513551883136e-23, 2.880784986964518e-21, 9.999990176625365e-10, -2.4659468325518598e-19, -1.0454470981512793e-24, -2.4159990306189164e-24, 3.795919908071484e-23, 1.6681557127605594e-19, -2.465946832551858e-19, 9.999983548710155e-10, 1.5474038389846616e-23, -1.1554153676047907e-24, -4.831262586519734e-25, -6.316114678757783e-25, -1.0454470981512525e-24, 1.5474038389846872e-23, 9.999966861460094e-10, 2.8198006883896736e-20, -3.9585465391502997e-19, -2.9185390247875305e-24, -2.4159990306189057e-24, -1.1554153676047484e-24, 2.8198006883896724e-20, 9.999966862483225e-10, -1.4752130655255163e-18, 4.370151355188312e-23, 3.7959199080714995e-23, -4.831262586519841e-25, -3.958546539150297e-19, -1.4752130655255157e-18, 9.999990222565252e-10)",0.002475001994196931,0.05930766337998826,-0.02988754362214649,0.00044165297595899895,0.0017673708594559045,-0.0046146403886747475,"(0.17875782359411999, -1.1717721005978267e-05, -0.00035871026333200663, -4.586813833240573e-10, -4.094481301032119e-09, -5.69842132987002e-07, -1.1717721005978249e-05, 0.17872705175331588, -0.0007175524972037566, 2.894942542569266e-09, -3.7016592837042404e-11, 5.28768740054888e-08, -0.0003587102633320066, -0.0007175524972037567, 0.07776586013827579, 2.0718116661061674e-08, -1.0379013533201435e-09, 5.438360958454596e-11, -4.5868138332415175e-10, 2.8949425425692487e-09, 2.071811666106213e-08, 0.01739445426828281, 3.995254565648105e-06, 0.0004658570445449732, -4.094481301032189e-09, -3.701659283707191e-11, -1.0379013533200676e-09, 3.9952545656481055e-06, 0.01739834666580459, 0.0006691054406374257, -5.698421329870029e-07, 5.287687400548768e-08, 5.438360958451295e-11, 0.0004658570445449732, 0.0006691054406374258, 0.2269216337766748)"
2025/09/16/14:07:40.708751,285903,1758049660,708644867,odom,base_link,1.1324048234775836,0.7568290312577721,-0.007936825277315642,0.000495139384498884,-0.006029953937341986,-0.9190602432220366,0.39407063303569634,"(0.0016857807343127742, 3.993018130793555e-09, 7.928948725471239e-08, 5.214875422410348e-13, -2.419815263873485e-13, 1.1652015928251415e-10, 3.993018130809114e-09, 0.0016857761277074546, -8.69108910183835e-08, -1.109445264296063e-12, -8.360214820699534e-15, 1.0177982731009504e-10, 7.928948725471233e-08, -8.691089101838356e-08, 0.0010036078741612004, 6.5610690255915305e-12, -3.224893858250164e-13, -4.191511353686219e-13, 5.214875422410485e-13, -1.1094452642960411e-12, 6.5610690255916525e-12, 0.0004959754130801399, 1.4390201746945316e-09, -1.1070564393884657e-07, -2.4198152638734043e-13, -8.360214820684768e-15, -3.224893858249961e-13, 1.439020174694532e-09, 0.000495979785672024, -4.649208701441356e-07, 1.1652015928251405e-10, 1.017798273100954e-10, -4.1915113536863484e-13, -1.1070564393884654e-07, -4.6492087014413546e-07, 0.0016985574979227404)",0.0024826630613043604,0.05933884766613734,-0.030048139999562875,0.00044165297595899895,0.0017673708594559045,-0.0046146403886747475,"(0.18390284483944364, -1.1783954658897452e-05, -0.00036154414822969907, -4.5932224736239567e-10, -4.103714276800978e-09, -5.713803909693696e-07, -1.1783954658897443e-05, 0.1838719007280819, -0.0007235203222775001, 2.901397177630749e-09, -3.696683592827752e-11, 5.303690537958182e-08, -0.00036154414822969907, -0.0007235203222775002, 0.0794142172940141, 2.0780596116886728e-08, -1.051132122026678e-09, 5.239128711806667e-11, -4.593222473624903e-10, 2.9013971776307316e-09, 2.0780596116887185e-08, 0.01755822399026767, 3.995254565648105e-06, 0.0004658570445449732, -4.103714276801048e-09, -3.6966835928306937e-11, -1.0511321220266022e-09, 3.9952545656481055e-06, 0.017562116387789452, 0.0006691054406374257, -5.713803909693704e-07, 5.30369053795807e-08, 5.2391287118033697e-11, 0.0004658570445449732, 0.0006691054406374258, 0.23511011987591796)"
2025/09/16/14:07:40.728700,285904,1758049660,728604317,odom,base_link,1.1332321698333077,0.7559699355317061,-0.008524694265803583,0.0005133643806250754,-0.006027032234538008,-0.9190783548854692,0.39402841131126076,"(0.003872831563428973, 2.097530505538348e-08, 3.9858352499966033e-07, 2.1505125740513836e-07, 2.024535857935253e-07, 1.5230006314317822e-06, 2.097530505540537e-08, 0.0038728086761640654, -4.371122567227837e-07, -2.0194520297577557e-07, 2.1275118229274575e-07, 1.4668129470115401e-06, 3.985835249996598e-07, -4.3711225672278344e-07, 0.002284575814857913, 5.977935986691245e-07, -2.5982629615962342e-08, -2.1973468639953907e-10, 2.150512574051384e-07, -2.019452029757755e-07, 5.977935986691242e-07, 0.0011131250823263397, 7.187808076184907e-09, -5.34292835563896e-07, 2.024535857935253e-07, 2.1275118229274575e-07, -2.5982629615962342e-08, 7.187808076184921e-09, 0.00111314715850668, -2.326397136066245e-06, 1.5230006314317824e-06, 1.46681294701154e-06, -2.1973468639953912e-10, -5.342928355638958e-07, -2.3263971360662444e-06, 0.003936506116710946)",0.0024919999938122304,0.05937685354325564,-0.03024386698066333,0.00044165297595899895,0.0017673708594559045,-0.0046146403886747475,"(0.19021405305273953, -1.186493610927807e-05, -0.0003650121462542426, -4.601033009922331e-10, -4.1149669744202214e-09, -5.732551442850179e-07, -1.1864936109278074e-05, 0.1901828983214351, -0.0007308241019302717, 2.909263769984907e-09, -3.690619465044725e-11, 5.3231943762367837e-08, -0.00036501214625424256, -0.0007308241019302718, 0.08145142125169594, 2.085674301052263e-08, -1.0672571334262447e-09, 4.996314229926072e-11, -4.6010330099232796e-10, 2.9092637699848895e-09, 2.085674301052309e-08, 0.017757818487948336, 3.995254565648105e-06, 0.0004658570445449732, -4.114966974420291e-09, -3.690619465047656e-11, -1.0672571334261692e-09, 3.9952545656481055e-06, 0.017761710885470117, 0.0006691054406374257, -5.732551442850186e-07, 5.323194376236672e-08, 4.9963142299227803e-11, 0.0004658570445449732, 0.0006691054406374258, 0.24508984475995116)"
2025/09/16/14:07:40.738770,285905,1758049660,728928089,odom,base_link,1.1355802436549856,0.7538567730049675,-0.002738483072600018,-0.00015702041787661603,-0.00414197603091803,-0.9192710070734483,0.39360339802054,"(9.9996913325263e-10, 1.2881044831931834e-21, 2.866242989337882e-20, 6.68458262671037e-24, 5.5573627616900485e-24, 5.2218054057711505e-23, 1.288104483191564e-21, 9.999691332510798e-10, -3.348393202207933e-20, -7.127695922220166e-24, 6.076775515539384e-24, 4.690230972142697e-23, 2.866242989337878e-20, -3.348393202207938e-20, 9.999485486413139e-10, 4.634551698201716e-23, -1.9866006074366265e-24, -2.619484852666472e-25, 6.684582626710413e-24, -7.127695922220141e-24, 4.63455169820173e-23, 9.998970804805864e-10, 5.089072112043305e-21, -1.2794426938607246e-19, 5.557362761690063e-24, 6.076775515539408e-24, -1.9866006074365865e-24, 5.089072112043304e-21, 9.998970804923863e-10, -4.461527370237589e-19, 5.2218054057711417e-23, 4.6902309721426825e-23, -2.6194848526665256e-25, -1.2794426938607234e-19, -4.461527370237586e-19, 9.999691380747385e-10)",0.0023670446487485015,0.06505799439442095,-0.022876400466840627,-0.0018578778946706986,0.0019065311136448515,-0.006621045351835856,"(0.17882379150547745, -1.0611641629248768e-05, -0.00033865642446775663, -3.5944013534183496e-10, -5.238957355885911e-09, -6.383577666074002e-07, -1.0611641629251185e-05, 0.17879590741890536, -0.000689994996991833, 4.169016407105827e-09, -2.2322458071453532e-11, 5.207706928417488e-08, -0.00033865642446775663, -0.0006899949969918333, 0.07777240617709447, 2.1663646940608658e-08, -1.0661626152330527e-09, 2.573749978700975e-10, -3.594401353419505e-10, 4.1690164071058606e-09, 2.1663646940608896e-08, 0.017395177564691115, 3.866736660055352e-06, 0.0004376123671627669, -5.238957355885973e-09, -2.2322458071468803e-11, -1.0661626152329805e-09, 3.866736660055353e-06, 0.017399006345333208, 0.0006396255838979903, -6.383577666073983e-07, 5.20770692841753e-08, 2.5737499787005387e-10, 0.0004376123671627669, 0.0006396255838979904, 0.22711870086538652)"
2025/09/16/14:07:40.748735,285906,1758049660,742258787,odom,base_link,1.1369936460308343,0.7525118594683341,-0.0010027778891589295,-0.00041326976739653517,-0.0034756757548789928,-0.9193537414427649,0.3934163786388871,"(9.999992673589892e-10, 1.1992991414520103e-21, 5.39992846448963e-21, 8.935792186366488e-25, 4.028590137877288e-25, 4.5731248997271695e-23, 1.1992991414544901e-21, 9.999992673575137e-10, -9.342070739746472e-21, -1.6484842518806993e-24, 6.089072263517488e-25, 4.0764093254454157e-23, 5.399928464489622e-21, -9.342070739746497e-21, 9.999987710987163e-10, 1.4445699931036363e-23, -6.844018164795519e-25, -2.5827854261746877e-25, 8.935792186366828e-25, -1.6484842518806773e-24, 1.444569993103649e-23, 9.999975186976225e-10, 4.2125063298281834e-21, -1.1830134550739422e-19, 4.028590137877412e-25, 6.089072263517712e-25, -6.84401816479513e-25, 4.212506329828187e-21, 9.999975187043696e-10, -2.990787190963355e-19, 4.57312489972716e-23, 4.076409325445401e-23, -2.5827854261747414e-25, -1.183013455073943e-19, -2.9907871909633546e-19, 9.999992718972896e-10)",0.002321678761354761,0.0670132879811485,-0.020370451987360906,-0.00266563575472982,0.0019205023882505794,-0.007306915461833948,"(0.1788165069504648, -1.0214624416320926e-05, -0.00033142729036568757, -3.2964678357726805e-10, -5.060448272855439e-09, -6.064788247587416e-07, -1.0214624416324101e-05, 0.17878971419358736, -0.0006758124751051331, 4.047717313254984e-09, -2.380296244644203e-11, 4.9487632431862456e-08, -0.00033142729036568757, -0.0006758124751051333, 0.07777113057410226, 2.1184970081782237e-08, -1.050484337481567e-09, 2.3769898359179945e-10, -3.296467835773804e-10, 4.047717313255017e-09, 2.1184970081782468e-08, 0.017395055762771585, 3.809469858475977e-06, 0.0004274952617214175, -5.0604482728554976e-09, -2.3802962446456785e-11, -1.0504843374814968e-09, 3.8094698584759777e-06, 0.01739883031228331, 0.0006249335784559638, -6.064788247587398e-07, 4.948763243186285e-08, 2.3769898359175783e-10, 0.0004274952617214175, 0.0006249335784559639, 0.22710924394356016)"
2025/09/16/14:07:40.758743,285907,1758049660,752259016,odom,base_link,1.1380568736916787,0.751498163269768,0.0002976413580544357,-0.0005746684614040109,-0.0029524312952602452,-0.9194170244719705,0.3932725365655658,"(9.999990176227121e-10, 1.1650692845225302e-21, -9.894818916799514e-21, 9.811261084895438e-25, 6.962941873168724e-25, 4.417240737463606e-23, 1.1650692845221544e-21, 9.999990176212765e-10, 4.767847175349199e-21, -1.6890194800248696e-24, 8.77827249014384e-25, 3.935419767861481e-23, -9.894818916799496e-21, 4.767847175349248e-21, 9.999983547835964e-10, 1.5260181458801168e-23, -7.1045603348719165e-25, -2.5509101621202438e-25, 9.811261084895778e-25, -1.6890194800248476e-24, 1.5260181458801297e-23, 9.999966859812145e-10, 3.794346325808684e-21, -1.1865568720209497e-19, 6.962941873168844e-25, 8.778272490144044e-25, -7.104560334871538e-25, 3.794346325808685e-21, 9.99996685985713e-10, -2.0969790567987241e-19, 4.4172407374635955e-23, 3.9354197678614676e-23, -2.5509101621202966e-25, -1.1865568720209495e-19, -2.0969790567987234e-19, 9.999990222316579e-10)",0.002289629941906614,0.06846044250895687,-0.018508311660931007,-0.0032789176738523733,0.0019741237345011044,-0.007827703820317805,"(0.17879658298770768, -9.921355905473357e-06, -0.0003261036056365119, -3.088173462518176e-10, -4.927951149558108e-09, -5.835389312295906e-07, -9.921355905475857e-06, 0.17877059881708024, -0.0006641686641875298, 3.959181728031039e-09, -2.503974180140299e-11, 4.762405118052118e-08, -0.000326103605636512, -0.0006641686641875301, 0.07776846500709549, 2.083181733338231e-08, -1.0388436893534612e-09, 2.2435864723716852e-10, -3.0881734625192755e-10, 3.9591817280310715e-09, 2.083181733338254e-08, 0.017394773754871546, 3.7644855585708647e-06, 0.00042006567878311306, -4.927951149558165e-09, -2.503974180141736e-11, -1.0388436893533925e-09, 3.7644855585708655e-06, 0.017398500431857186, 0.0006129683093072797, -5.835389312295889e-07, 4.762405118052157e-08, 2.2435864723712842e-10, 0.00042006567878311306, 0.0006129683093072799, 0.22706565723624303)"
2025/09/16/14:07:40.768715,285908,1758049660,768610001,odom,base_link,1.1388412087108222,0.7506958233286746,2.032684360651996e-08,-0.00057018103629356,-0.002921474568527131,-0.9194422779962582,0.3932137298124044,"(0.0016830400174366307, 3.163889941300719e-09, -3.431528635338818e-08, 6.405550259652727e-13, 5.311156567704959e-13, 1.179553401651442e-10, 3.1638899412799467e-09, 0.0016830361518383075, 2.757135177246655e-08, -1.1962912545323876e-12, 6.555941376164761e-13, 1.0498426628785106e-10, -3.431528635338819e-08, 2.7571351772466697e-08, 0.0010019823620504862, 6.716240654769683e-12, -3.2062472396858893e-13, -4.0610856752457353e-13, 6.405550259653002e-13, -1.1962912545323704e-12, 6.716240654769744e-12, 0.0004951810646425181, 8.364606311547776e-10, -9.281814565654448e-08, 5.311156567705048e-13, 6.555941376164918e-13, -3.206247239685706e-13, 8.36460631154778e-10, 0.0004951818841528466, -1.151171921226676e-07, 1.1795534016514397e-10, 1.0498426628785065e-10, -4.061085675245821e-13, -9.281814565654449e-08, -1.1511719212266757e-07, 0.0016958075356574124)",0.002296675138669672,0.068517766454687,-0.01859365112655015,-0.0032789176738523733,0.0019741237345011044,-0.007827703820317805,"(0.18393352385999867, -9.97657567619537e-06, -0.00032862573149364016, -3.090547911638982e-10, -4.939608228489392e-09, -5.851153787460343e-07, -9.97657567619788e-06, 0.18390739653781582, -0.0006695882144223771, 3.9687220753424984e-09, -2.4961684648831816e-11, 4.776630332369773e-08, -0.00032862573149364027, -0.0006695882144223776, 0.07941417450638884, 2.0895766924689244e-08, -1.0515378264343351e-09, 2.2353163379618084e-10, -3.0905479116400853e-10, 3.96872207534253e-09, 2.0895766924689473e-08, 0.017558283600605188, 3.7644855585708647e-06, 0.00042006567878311306, -4.9396082284894485e-09, -2.496168464884612e-11, -1.0515378264342667e-09, 3.7644855585708655e-06, 0.017562010277590828, 0.0006129683093072797, -5.851153787460326e-07, 4.776630332369812e-08, 2.235316337961407e-10, 0.00042006567878311306, 0.0006129683093072799, 0.23524114952292516)"
2025/09/16/14:07:40.778835,285909,1758049660,778640747,odom,base_link,1.1393226013170576,0.7502032001652491,-0.00018328502368739367,-0.0005674286282072449,-0.002902483641579301,-0.9194577678647862,0.3931776528829776,"(0.0027636128220436445, 8.655008000095967e-09, -8.97222489945953e-08, 6.675516811245228e-08, 6.297799065871044e-08, 8.540041979504623e-07, 8.655008000062402e-09, 0.002763602714888104, 7.245919437104472e-08, -6.233858672904316e-08, 6.591926555023263e-08, 8.345424121629464e-07, -8.972224899459539e-08, 7.245919437104505e-08, 0.0016376495573560048, 3.428472969404288e-07, -1.1762867682240983e-08, -9.286381698809351e-11, 6.675516811245228e-08, -6.233858672904314e-08, 3.4284729694042877e-07, 0.0008035758686677081, 2.182487754844088e-09, -2.323356905435753e-07, 6.297799065871042e-08, 6.591926555023265e-08, -1.1762867682240986e-08, 2.1824877548440893e-09, 0.0008035780740661258, -3.0057915031497396e-07, 8.540041979504623e-07, 8.345424121629464e-07, -9.286381698809355e-11, -2.323356905435753e-07, -3.0057915031497386e-07, 0.002797035951768775)",0.002300997115867662,0.06855293265297455,-0.018646003848113393,-0.0032789176738523733,0.0019741237345011044,-0.007827703820317805,"(0.1870997004429496, -1.0010529311544614e-05, -0.0003301775428555372, -3.092004551574395e-10, -4.946759431078987e-09, -5.860824731294907e-07, -1.001052931154713e-05, 0.18707348510241753, -0.0006729229289851285, 3.974574738501211e-09, -2.4913799366859048e-11, 4.7853569945177786e-08, -0.0003301775428555373, -0.0006729229289851289, 0.08043406157436374, 2.093499772047037e-08, -1.0593252272489416e-09, 2.2302429051612901e-10, -3.0920045515755003e-10, 3.9745747385012425e-09, 2.09349977204706e-08, 0.017658591065204798, 3.7644855585708647e-06, 0.00042006567878311306, -4.946759431079042e-09, -2.491379936687331e-11, -1.0593252272488733e-09, 3.7644855585708655e-06, 0.017662317742190438, 0.0006129683093072797, -5.860824731294889e-07, 4.7853569945178176e-08, 2.2302429051608884e-10, 0.00042006567878311306, 0.0006129683093072799, 0.24025652275290563)"
2025/09/16/14:07:40.798808,285910,1758049660,788966656,odom,base_link,1.142005800650605,0.7478976254131523,0.005101177773217602,-0.001503309073347937,-0.0012123518720690129,-0.919660507350055,0.3927095892455487,"(9.99998517690192e-10, 1.1409508772650203e-21, -6.052884224684679e-20, 9.69840063818643e-25, 1.288870329420992e-24, 4.283947069142027e-23, 1.1409508772657849e-21, 9.999985176889482e-10, 4.407605307653923e-20, -1.722798542183234e-24, 1.395004345794445e-24, 3.8461809838703055e-23, -6.052884224684677e-20, 4.407605307653927e-20, 9.99997521480279e-10, 1.737144518465434e-23, -7.438019057566334e-25, -2.8910533154247207e-25, 9.6984006381867e-25, -1.7227985421832087e-24, 1.7371445184654438e-23, 9.999950192978837e-10, 2.376867186029019e-21, -1.4335382381468884e-19, 1.2888703294209885e-24, 1.3950043457944641e-24, -7.438019057565988e-25, 2.3768671860290192e-21, 9.99995019300168e-10, 7.010471319433521e-20, 4.2839470691420165e-23, 3.8461809838702914e-23, -2.8910533154247676e-25, -1.433538238146888e-19, 7.010471319433524e-20, 9.99998522368045e-10)",0.0019635009681321955,0.07355784929567004,-0.011728114254226634,-0.00546904053540441,0.0017317444355688615,-0.009829896386241025,"(0.17875260833023904, -8.894972689072728e-06, -0.00030750172091974134, -2.3875291769341674e-10, -4.772335520114974e-09, -5.635904984155532e-07, -8.89497268907258e-06, 0.1787294123167758, -0.0006178251867184632, 3.968926338948688e-09, -2.7138648437025032e-11, 4.3307326168141344e-08, -0.00030750172091974156, -0.0006178251867184634, 0.07776199307388577, 2.0453716404923466e-08, -1.0187619816973017e-09, 2.684016061688627e-10, -2.3875291769352154e-10, 3.968926338948697e-09, 2.0453716404923625e-08, 0.017394095821551107, 3.59411041321034e-06, 0.00039430705954382396, -4.772335520115005e-09, -2.7138648437072863e-11, -1.01876198169724e-09, 3.5941104132103407e-06, 0.017397621471530605, 0.0005659468211909049, -5.635904984155518e-07, 4.330732616814182e-08, 2.684016061688287e-10, 0.00039430705954382396, 0.000565946821190905, 0.226979385184976)"
2025/09/16/14:07:40.808857,285911,1758049660,802266359,odom,base_link,1.1434251064654737,0.7466106419134318,0.006868377288250242,-0.00176347857842335,-0.0006168761172044207,-0.9197531505029457,0.39249286840280956,"(9.999992656047546e-10, 1.124312128805342e-21, -6.681773667370447e-20, 7.058369002574378e-25, 1.108793448085887e-24, 4.034733758579845e-23, 1.124312128809324e-21, 9.99999265603578e-10, 4.9121574860155894e-20, -1.4489917173546277e-24, 1.1924485554142016e-24, 3.6176260558061825e-23, -6.681773667370448e-20, 4.912157486015592e-20, 9.999987681838749e-10, 1.412512084355073e-23, -6.454562433036701e-25, -2.8186718536262055e-25, 7.05836900257464e-25, -1.4489917173546046e-24, 1.412512084355082e-23, 9.999975128700236e-10, 2.094334666330883e-21, -1.4431197094184753e-19, 1.1087934480858827e-24, 1.1924485554142194e-24, -6.454562433036367e-25, 2.0943346663308855e-21, 9.999975128726214e-10, 1.1111521191187655e-19, 4.0347337585798404e-23, 3.6176260558061696e-23, -2.8186718536262505e-25, -1.443119709418476e-19, 1.1111521191187664e-19, 9.999992701378347e-10)",0.0018417922122470906,0.07524340271363722,-0.009299948995654513,-0.006175973668874643,0.0017101730489979194,-0.010557837388450727,"(0.17874829373867998, -8.534893476460311e-06, -0.00030150909979214215, -2.1862024846850215e-10, -4.597412616842622e-09, -5.355108679081371e-07, -8.534893476459854e-06, 0.1787260261939805, -0.0005983006943468009, 3.855795436745245e-09, -2.9218465844325814e-11, 4.115916725682183e-08, -0.00030150909979214237, -0.0005983006943468012, 0.07776094407914524, 2.0000621946353367e-08, -1.0036183821864167e-09, 2.547886861894029e-10, -2.18620248468604e-10, 3.855795436745254e-09, 2.0000621946353522e-08, 0.017393991724926443, 3.529133386362883e-06, 0.0003860901421738041, -4.597412616842652e-09, -2.9218465844372227e-11, -1.0036183821863568e-09, 3.5291333863628837e-06, 0.01739742711942494, 0.0005463968092463451, -5.355108679081357e-07, 4.115916725682228e-08, 2.547886861893705e-10, 0.0003860901421738041, 0.0005463968092463452, 0.22697781650288915)"
2025/09/16/14:07:40.818780,285912,1758049660,818619728,odom,base_link,1.1442926690847068,0.7457366771154539,0.0067158860824274415,-0.001770379941530164,-0.0005650927147191045,-0.9197870845227382,0.39241338607423687,"(0.0016832790012937255, 3.2094209916830325e-09, -1.345404254783929e-07, 5.153767140001546e-13, 9.786485964810706e-13, 1.080863129230683e-10, 3.2094209916882214e-09, 0.001683275901809801, 1.0153930784328609e-07, -1.1194969606192555e-12, 1.0285818671712603e-12, 9.680967224659484e-11, -1.3454042547839287e-07, 1.015393078432862e-07, 0.001002130761806797, 6.6006669942484055e-12, -3.0552687731535505e-13, -4.695092128648748e-13, 5.153767140001758e-13, -1.1194969606192357e-12, 6.600666994248446e-12, 0.0004952538770543879, 3.726470710574109e-10, -1.230541810436206e-07, 9.786485964810667e-13, 1.0285818671712742e-12, -3.055268773153391e-13, 3.7264707105741106e-10, 0.0004952547983996681, 1.6011320892513247e-07, 1.0808631292306812e-10, 9.680967224659447e-11, -4.695092128648823e-13, -1.2305418104362056e-07, 1.601132089251325e-07, 0.0016960399987128608)",0.0018474897131703753,0.07531990069889145,-0.009325876970814486,-0.006175973668874643,0.0017101730489979194,-0.010557837388450727,"(0.18388586734961096, -8.58176440924682e-06, -0.00030380414582754976, -2.1862544615058298e-10, -4.608112896426174e-09, -5.369479172279934e-07, -8.581764409246365e-06, 0.18386347887642138, -0.0006030862864125729, 3.865008364887104e-09, -2.9157964496300794e-11, 4.128110920784544e-08, -0.00030380414582755, -0.0006030862864125731, 0.07940686401793745, 2.006005420167789e-08, -1.0156795418550391e-09, 2.5433509963530306e-10, -2.1862544615068513e-10, 3.865008364887113e-09, 2.0060054201678045e-08, 0.017557525412517996, 3.529133386362883e-06, 0.0003860901421738041, -4.608112896426203e-09, -2.9157964496347226e-11, -1.0156795418549794e-09, 3.5291333863628837e-06, 0.017560960807016492, 0.0005463968092463451, -5.36947917227992e-07, 4.128110920784589e-08, 2.5433509963527064e-10, 0.0003860901421738041, 0.0005463968092463452, 0.23515450088246678)"
2025/09/16/14:07:40.842639,285913,1758049660,818925858,odom,base_link,1.1452080006125513,0.745018899849722,0.009088309018474548,-0.0021526452223368524,8.497849969058685e-05,-0.9198664250503793,0.39222585198101906,"(9.999994171501419e-10, 1.1365626393505722e-21, -7.970258600613947e-20, 1.2186856897133881e-21, 1.1338577705897001e-21, 9.40472043936608e-21, 1.136562639352268e-21, 9.999994171490519e-10, 6.017168985005925e-20, -1.1010491843115477e-21, 1.1828604780164962e-21, 9.328528366920438e-21, -7.970258600613946e-20, 6.017168985005928e-20, 9.9999902084906e-10, 2.2174581041146943e-20, -5.543051423075718e-22, 4.78464525356665e-26, 1.2186856897133887e-21, -1.1010491843115479e-21, 2.2174581041146946e-20, 9.99998018289425e-10, 1.5663248931061817e-21, -1.4604433084165323e-19, 1.1338577705897e-21, 1.1828604780164962e-21, -5.543051423075716e-22, 1.5663248931061858e-21, 9.999980182931648e-10, 1.9058529236917117e-19, 9.404720439366085e-21, 9.32852836692044e-21, 4.784645253566384e-26, -1.460443308416532e-19, 1.9058529236917127e-19, 9.999994216137855e-10)",0.001659869091394354,0.07727534705709259,-0.0062893202864072704,-0.007035061692668062,0.0015966329819461673,-0.01141744967284143,"(0.17876318372723216, -8.095528328565697e-06, -0.00029430054576749104, -1.9595626679474765e-10, -4.385839315957492e-09, -5.024804131891366e-07, -8.095528328563903e-06, 0.17874200343804486, -0.0005728369265682778, 3.719508177144649e-09, -3.175918489863992e-11, 3.862682324158534e-08, -0.00029430054576749126, -0.000572836926568278, 0.0777620157424818, 1.9447663846379205e-08, -9.84994251268023e-10, 2.4003247421015363e-10, -1.9595626679484637e-10, 3.7195081771446576e-09, 1.9447663846379357e-08, 0.017394128058010678, 3.446505953229873e-06, 0.0003762581746251305, -4.38583931595752e-09, -3.175918489868444e-11, -9.84994251267965e-10, 3.446505953229874e-06, 0.01739744617452267, 0.0005210681967385082, -5.024804131891353e-07, 3.8626823241585747e-08, 2.400324742101231e-10, 0.0003762581746251305, 0.0005210681967385083, 0.22702614606776922)"
2025/09/16/14:07:40.842692,285914,1758049660,838635921,odom,base_link,1.1462845695489396,0.743939911307357,0.008961582934890754,-0.002165366286621925,0.00015468437827535048,-0.9199105774675552,0.3921221961645335,"(0.0020406963810981533, 4.844124792260688e-09, -2.3989608135504736e-07, 6.54605095290399e-13, 1.5294046927383593e-12, 1.4733244352929007e-10, 4.844124792275891e-09, 0.0020406923493621063, 1.7752929996671743e-07, -1.5286499407122815e-12, 1.5728131691170273e-12, 1.3179998636173942e-10, -2.3989608135504736e-07, 1.775292999667176e-07, 0.0012130462720742923, 9.108521547541037e-12, -4.266132790804957e-13, -6.955650114364906e-13, 6.546050952904293e-13, -1.528649940712254e-12, 9.108521547541093e-12, 0.0005980605255271503, 2.353932021945337e-10, -1.9723697352261834e-07, 1.5294046927383537e-12, 1.5728131691170463e-12, -4.266132790804732e-13, 2.353932021945339e-10, 0.0005980626399143216, 3.5268244276395333e-07, 1.4733244352928983e-10, 1.3179998636173896e-10, -6.955650114365007e-13, -1.972369735226183e-07, 3.526824427639534e-07, 0.0020592044128326264)",0.0016660805084574345,0.07737443587597828,-0.006297443284743666,-0.007035061692668062,0.0015966329819461673,-0.01141744967284143,"(0.18495905478696775, -8.148851207705303e-06, -0.00029698817117977065, -1.958950656797774e-10, -4.397998456442656e-09, -5.040967611109046e-07, -8.1488512077035e-06, 0.1849377365575338, -0.0005783156916938133, 3.7301219745008426e-09, -3.1697187530886206e-11, 3.876438179786617e-08, -0.00029698817117977086, -0.0005783156916938135, 0.0797483422727762, 1.9515400315177742e-08, -9.992300314315614e-10, 2.3948430268998335e-10, -1.9589506567987647e-10, 3.730121974500851e-09, 1.9515400315177894e-08, 0.01759122869735394, 3.446505953229873e-06, 0.0003762581746251305, -4.397998456442683e-09, -3.1697187530930745e-11, -9.992300314315037e-10, 3.446505953229874e-06, 0.017594546813865932, 0.0005210681967385082, -5.040967611109034e-07, 3.876438179786658e-08, 2.3948430268995285e-10, 0.0003762581746251305, 0.0005210681967385083, 0.2368811780349323)"
2025/09/16/14:07:40.860180,285915,1758049660,858612776,odom,base_link,1.1473768044099695,0.742844616442046,0.008832760832161037,-0.002178259393925998,0.0002253337964690916,-0.9199553108866607,0.39201713021514795,"(0.004254224565515009, 2.225209961029679e-08, -9.87380367490263e-07, 5.833574137103575e-08, 5.477262526832102e-08, 2.3539667436495222e-06, 2.2252099610327232e-08, 0.004254208157562984, 7.313853665268111e-07, -5.185868966548675e-08, 5.7002741572535554e-08, 2.3474003861048695e-06, -9.873803674902632e-07, 7.313853665268117e-07, 0.002505914041447702, 9.354912210120153e-07, -2.0262505653402174e-08, -6.119122222514003e-10, 5.833574137103575e-08, -5.1858689665486746e-08, 9.354912210120152e-07, 0.001218084622265417, 8.964005047872354e-10, -7.904049769645174e-07, 5.477262526832101e-08, 5.7002741572535554e-08, -2.0262505653402174e-08, 8.964005047872318e-10, 0.0012180935232169528, 1.4608765616524371e-06, 2.3539667436495222e-06, 2.34740038610487e-06, -6.119122222514002e-10, -7.904049769645172e-07, 1.4608765616524374e-06, 0.004330204805254082)",0.0016723760016750281,0.07747486593580184,-0.006305676233910332,-0.007035061692668062,0.0015966329819461673,-0.01141744967284143,"(0.19128330036362196, -8.20308161805848e-06, -0.0002997241942210761, -1.9583303616215015e-10, -4.4103221799470885e-09, -5.057349875052076e-07, -8.203081618056671e-06, 0.19126184185429254, -0.0005838933659536481, 3.7408794375065046e-09, -3.1634350982601267e-11, 3.890380231162225e-08, -0.0002997241942210763, -0.0005838933659536483, 0.08179246626409255, 1.9584053647513058e-08, -1.0136585034785279e-09, 2.3892871126015937e-10, -1.958330361622496e-10, 3.740879437506513e-09, 1.958405364751321e-08, 0.017790997240597347, 3.446505953229873e-06, 0.0003762581746251305, -4.410322179947115e-09, -3.1634350982645824e-11, -1.0136585034784704e-09, 3.446505953229874e-06, 0.01779431535710934, 0.0005210681967385082, -5.057349875052063e-07, 3.890380231162265e-08, 2.3892871126012887e-10, 0.0003762581746251305, 0.0005210681967385083, 0.24686960519710271)"
2025/09/16/14:07:40.868827,285916,1758049660,862267733,odom,base_link,1.1497759755068406,0.7409557756647753,0.014945290804274687,-0.0031171056486320086,0.0014577545685231109,-0.9201434328531698,0.3915663693183793,"(9.999972817794892e-10, 1.2061611554135035e-21, -1.178570761777775e-19, 3.4048445636079723e-25, 1.5568911107373895e-24, 4.9483346031025285e-23, 1.2061611554154855e-21, 9.999972817787044e-10, 7.99342525743346e-20, -1.5125513640048417e-24, 1.5754754042700005e-24, 4.600595028017394e-23, -1.1785707617777746e-19, 7.993425257433467e-20, 9.999954615412303e-10, 1.4992469359115492e-23, -5.897155108911163e-25, -4.1149537670010808e-25, 3.4048445636082133e-25, -1.512551364004825e-24, 1.499246935911561e-23, 9.999908993571922e-10, -4.744364330105499e-22, -1.977478157436046e-19, 1.5568911107373827e-24, 1.5754754042700197e-24, -5.8971551089108805e-25, -4.744364330105485e-22, 9.999908993654444e-10, 3.8505463556477228e-19, 4.9483346031025226e-23, 4.600595028017422e-23, -4.114953767001102e-25, -1.977478157436045e-19, 3.8505463556477247e-19, 9.999972865406362e-10)",0.0011861673208541348,0.08232467219048366,0.001537632255552828,-0.008747926149561578,0.0011512405569636562,-0.013457095329141498,"(0.17884324168493235, -7.011684160110066e-06, -0.0002775749821163202, -1.3406707896500944e-10, -4.1962891613165375e-09, -6.69682363569311e-07, -7.0116841601127175e-06, 0.1788245397124197, -0.0005046768028735444, 3.769533546133476e-09, -3.100036583013619e-11, 3.806463025960781e-08, -0.0002775749821163204, -0.0005046768028735446, 0.07776995263682956, 2.183705103572846e-08, -9.428606554649348e-10, 4.681906247369087e-10, -1.3406707896510291e-10, 3.769533546133482e-09, 2.1837051035728685e-08, 0.017395074471575227, 3.233629454738039e-06, 0.00035368901634864013, -4.1962891613165615e-09, -3.100036583017903e-11, -9.428606554648835e-10, 3.23362945473804e-06, 0.017398084754545056, 0.0004539741949954691, -6.696823635693128e-07, 3.8064630259605346e-08, 4.681906247368962e-10, 0.00035368901634864013, 0.0004539741949954692, 0.22724733650261963)"
2025/09/16/14:07:40.889777,285917,1758049660,872262239,odom,base_link,1.1508142943692683,0.740060866189472,0.01631551757266327,-0.003391384734291808,0.0016823378486315417,-0.9202155573336,0.3913936589805192,"(9.99999017052296e-10, 1.3234220183723516e-21, -1.4011502609619516e-19, 2.2214803120446697e-25, 1.7097761289488e-24, 4.7843852526861024e-23, 1.3234220183717935e-21, 9.999990170516808e-10, 9.302900368623993e-20, -1.4611331075155903e-24, 1.7049495370117358e-24, 4.4430279170851225e-23, -1.4011502609619516e-19, 9.302900368623993e-20, 9.999983538327064e-10, 1.6433946094126297e-23, -5.981661504819633e-25, -4.471208847880977e-25, 2.2214803120449075e-25, -1.4611331075155743e-24, 1.643394609412642e-23, 9.999966840748695e-10, -2.061808910639713e-21, -2.2374057968855035e-19, 1.7097761289487945e-24, 1.704949537011756e-24, -5.981661504819354e-25, -2.0618089106397104e-21, 9.999966840874373e-10, 4.955330572114378e-19, 4.784385252686098e-23, 4.4430279170851507e-23, -4.471208847880989e-25, -2.2374057968855025e-19, 4.95533057211438e-19, 9.99999021671803e-10)",0.0010475552760272249,0.0833129568831909,0.0033125958749930682,-0.009060308495312927,0.0009538804354961977,-0.013990346621249277,"(0.17882241027758466, -6.753104096110782e-06, -0.00027458491757282797, -1.2539606850364285e-10, -4.062008186590949e-09, -6.443620167485928e-07, -6.753104096113543e-06, 0.17880417469303617, -0.0004871004881866932, 3.6899700541001604e-09, -3.2797999029285284e-11, 3.66301786900918e-08, -0.00027458491757282824, -0.0004871004881866933, 0.07776724569781758, 2.1475691696322348e-08, -9.321994006783412e-10, 4.5783516904163426e-10, -1.2539606850373434e-10, 3.689970054100166e-09, 2.1475691696322573e-08, 0.017394799173691154, 3.18306695227077e-06, 0.0003497216730884497, -4.0620081865909725e-09, -3.279799902932698e-11, -9.32199400678291e-10, 3.1830669522707702e-06, 0.017397732368163006, 0.00043674111142316896, -6.443620167485945e-07, 3.6630178690089424e-08, 4.578351690416221e-10, 0.0003497216730884497, 0.00043674111142316907, 0.22719705711855823)"
2025/09/16/14:07:40.889824,285918,1758049660,878951073,odom,base_link,1.1514965291573636,0.7394671443110155,0.017232436331412783,-0.0035435131624623373,0.0017769221406600177,-0.9202707912072737,0.3912620054553108,"(9.999985226658872e-10, 1.3571942501356676e-21, -1.509515974204498e-19, 1.1130186381345958e-25, 1.6942223627723853e-24, 4.696004252173804e-23, 1.3571942501376534e-21, 9.999985226653936e-10, 9.486482967676727e-20, -1.4047010169199017e-24, 1.6798445694095382e-24, 4.360494908699721e-23, -1.509515974204498e-19, 9.486482967676732e-20, 9.999975297708352e-10, 1.8648622775363946e-23, -6.170385070058755e-25, -4.729259705158198e-25, 1.1130186381348314e-25, -1.404701016919886e-24, 1.864862277536407e-23, 9.999950358744283e-10, -3.103694938570254e-21, -2.5156532828235866e-19, 1.6942223627723805e-24, 1.6798445694095574e-24, -6.170385070058476e-25, -3.1036949385702508e-21, 9.9999503588842e-10, 5.37468563492408e-19, 4.696004252173801e-23, 4.360494908699747e-23, -4.729259705158211e-25, -2.515653282823585e-19, 5.37468563492408e-19, 9.999985273542615e-10)",0.0009650474269052408,0.08394303432734634,0.004492986975917747,-0.009195164764836044,0.0008303908097458737,-0.01442313982991077,"(0.17879906615635172, -6.5773709390456064e-06, -0.0002728265999432775, -1.2082436770112221e-10, -3.974067335784632e-09, -6.279018451834207e-07, -6.577370939048305e-06, 0.17878112679045013, -0.00047517206634650684, 3.63767391925985e-09, -3.395676068079902e-11, 3.569765808046547e-08, -0.0002728265999432778, -0.00047517206634650695, 0.0777643306862856, 2.1236642380708605e-08, -9.251117602091628e-10, 4.522931696170035e-10, -1.2082436770121238e-10, 3.6376739192598553e-09, 2.123664238070883e-08, 0.017394489925030256, 3.149383491013332e-06, 0.00034741167276945565, -3.974067335784655e-09, -3.395676068083997e-11, -9.251117602091133e-10, 3.1493834910133325e-06, 0.017397371161400048, 0.0004250593988139561, -6.279018451834224e-07, 3.569765808046316e-08, 4.522931696169915e-10, 0.00034741167276945565, 0.00042505939881395624, 0.22713980284918653)"
2025/09/16/14:07:40.898726,285919,1758049660,898614645,odom,base_link,1.1526735462572926,0.7383073463659472,0.01731161847154781,-0.0035716116814391644,0.001862814984040981,-0.9203261292102494,0.3911311664943256,"(0.0020357301484944658, 5.372132435141018e-09, -3.6857938135678586e-07, 1.4311248087050727e-13, 2.0798562072483892e-12, 1.7988077528883138e-10, 5.372132435121291e-09, 0.0020357284817259934, 2.2377650034004918e-07, -1.7356393379079395e-12, 2.0604518534852435e-12, 1.6675257572516485e-10, -3.6857938135678564e-07, 2.2377650034004934e-07, 0.0012101166238497056, 9.895152894002838e-12, -3.93393370286599e-13, -1.1549873885927224e-12, 1.431124808705343e-13, -1.7356393379079215e-12, 9.895152894002926e-12, 0.0005966348113027012, -1.3288133311008784e-09, -3.163401507052597e-07, 2.0798562072483824e-12, 2.0604518534852666e-12, -3.9339337028657985e-13, -1.328813331100878e-09, 0.0005966399397950202, 6.544547120960372e-07, 1.7988077528883117e-10, 1.6675257572516597e-10, -1.1549873885927254e-12, -3.1634015070525975e-07, 6.544547120960373e-07, 0.0020541806681380692)",0.0009687708357998303,0.0840640509922221,0.004566393753768534,-0.009195164764836044,0.0008303908097458737,-0.01442313982991077,"(0.1849803859341835, -6.619662797565722e-06, -0.0002752750738648427, -1.205334501804025e-10, -3.984795864645386e-09, -6.299571581392174e-07, -6.6196627975684344e-06, 0.1849623322739763, -0.0004795392865831104, 3.6479575493395934e-09, -3.390911660126117e-11, 3.5823113387368657e-08, -0.00027527507386484296, -0.0004795392865831105, 0.07974591708331341, 2.1318791205073837e-08, -9.383151069066438e-10, 4.531047447595938e-10, -1.20533450180493e-10, 3.6479575493395988e-09, 2.1318791205074062e-08, 0.01759112564814427, 3.149383491013332e-06, 0.00034741167276945565, -3.984795864645409e-09, -3.3909116601302134e-11, -9.383151069065948e-10, 3.1493834910133325e-06, 0.01759400688451406, 0.0004250593988139561, -6.299571581392191e-07, 3.5823113387366334e-08, 4.5310474475958193e-10, 0.00034741167276945565, 0.00042505939881395624, 0.2369715890048872)"
2025/09/16/14:07:40.908772,285920,1758049660,908617020,odom,base_link,1.1532727449968483,0.7377165556317745,0.017352293902418863,-0.003585907693804145,0.0019065055324010251,-0.9203542683370479,0.3910646075221377,"(0.003125270072134311, 1.3038077545387972e-08, -8.462267629201559e-07, -1.6036984814054952e-08, -1.6348809599167365e-08, 1.2403761445125404e-06, 1.3038077545348063e-08, 0.0031252663285827337, 5.148249511569637e-07, 1.849172649332326e-08, -1.696885551624572e-08, 1.2579650549372065e-06, -8.462267629201556e-07, 5.14824951156964e-07, 0.0018492741837653807, 5.049124075251616e-07, -5.625631042878179e-09, -4.09845249277675e-10, -1.6036984814054955e-08, 1.8491726493323254e-08, 5.049124075251617e-07, 0.0009053095691856487, -3.090000782501413e-09, -7.197664488130591e-07, -1.634880959916737e-08, -1.696885551624573e-08, -5.625631042878178e-09, -3.0900007825013955e-09, 0.0009053214858572164, 1.5071387868330273e-06, 1.2403761445125404e-06, 1.257965054937206e-06, -4.098452492776751e-10, -7.197664488130591e-07, 1.5071387868330275e-06, 0.003167471830277136)",0.0009706648421454467,0.0841256091873301,0.004603733972636968,-0.009195164764836044,0.0008303908097458737,-0.01442313982991077,"(0.18814131959495822, -6.641230253014992e-06, -0.00027652464303541636, -1.203854676069347e-10, -3.990253202884794e-09, -6.310026451890451e-07, -6.641230253017711e-06, 0.18812320765105578, -0.00048176803447231724, 3.6531885785331124e-09, -3.388488123213293e-11, 3.5886929410290864e-08, -0.00027652464303541663, -0.0004817680344723173, 0.08076545566113767, 2.1360578287566646e-08, -9.450313239906016e-10, 4.535175730343085e-10, -1.203854676070254e-10, 3.6531885785331178e-09, 2.136057828756687e-08, 0.017691149394634748, 3.149383491013332e-06, 0.00034741167276945565, -3.990253202884817e-09, -3.3884881232173904e-11, -9.450313239905528e-10, 3.1493834910133325e-06, 0.01769403063100454, 0.0004250593988139561, -6.310026451890468e-07, 3.588692941028854e-08, 4.535175730342967e-10, 0.00034741167276945565, 0.00042505939881395624, 0.24197277632941114)"
2025/09/16/14:07:40.918748,285921,1758049660,918618679,odom,base_link,1.1538722508526298,0.7371252763646646,0.017393259241941586,-0.003600202657954853,0.00195019294290513,-0.9203823987014483,0.39099805044127184,"(0.004252316329291673, 2.5487466701834955e-08, -1.528471482633946e-06, -4.088474101368942e-08, -4.093132989504599e-08, 3.180340391107609e-06, 2.5487466701778422e-08, 0.0042523097672283435, 9.297155017848149e-07, 4.6605244210346714e-08, -4.24831935276823e-08, 3.2248338827523236e-06, -1.5284714826339457e-06, 9.297155017848153e-07, 0.0025046899178996153, 1.2744121005595003e-06, -1.413810920361286e-08, -1.374689140689615e-09, -4.088474101368942e-08, 4.6605244210346694e-08, 1.2744121005595e-06, 0.001217492300230248, -5.661798672148359e-09, -1.2960104241314524e-06, -4.093132989504599e-08, -4.248319352768231e-08, -1.4138109203612856e-08, -5.661798672148378e-09, 0.0012175139685295165, 2.7289271302016614e-06, 3.180340391107609e-06, 3.2248338827523227e-06, -1.3746891406896147e-09, -1.2960104241314524e-06, 2.7289271302016614e-06, 0.004328593744685776)",0.0009725587130533343,0.08418716298049819,0.00464107152135889,-0.009195164764836044,0.0008303908097458737,-0.01442313982991077,"(0.19131328882742807, -6.662833000604028e-06, -0.00027777688113751753, -1.2023749561549255e-10, -3.995710150877624e-09, -6.320480574775649e-07, -6.6628330006067545e-06, 0.1912951185062312, -0.0004840015117732026, 3.658419233663094e-09, -3.386064759604184e-11, 3.5950740869819065e-08, -0.00027777688113751775, -0.0004840015117732027, 0.0817927661510656, 2.1402362381923984e-08, -9.517470608073259e-10, 4.5393037178825416e-10, -1.2023749561558342e-10, 3.6584192336630994e-09, 2.140236238192421e-08, 0.017791165988567854, 3.149383491013332e-06, 0.00034741167276945565, -3.995710150877647e-09, -3.386064759608282e-11, -9.517470608072773e-10, 3.1493834910133325e-06, 0.017794047224937645, 0.0004250593988139561, -6.320480574775666e-07, 3.595074086981674e-08, 4.5393037178824237e-10, 0.00034741167276945565, 0.00042505939881395624, 0.2469736060260664)"
2025/09/16/14:07:40.929643,285922,1758049660,922284603,odom,base_link,1.14919556443242,0.74174307552537,-0.005082274299336609,-0.005798205004704034,-0.0005020054506454455,-0.9207549173150104,0.3900980787564575,"(9.999972899591906e-10, 1.2872833666403547e-21, -1.637333739347701e-19, -4.808712095003185e-25, 1.831992817219208e-24, 5.967339265266781e-23, 1.2872833666388858e-21, 9.99997289959049e-10, 8.660874951952957e-20, -1.5643675113249722e-24, 1.815836188853398e-24, 5.696882209898181e-23, -1.6373337393476998e-19, 8.660874951952952e-20, 9.999954751841625e-10, 1.7532870419157822e-23, -5.452411081659609e-25, -7.289533230215499e-25, -4.808712095002984e-25, -1.5643675113249614e-24, 1.753287041915779e-23, 9.999909266494406e-10, -5.256004082828961e-21, -3.163504837837884e-19, 1.8319928172192086e-24, 1.8158361888534035e-24, -5.4524110816593405e-25, -5.256004082828959e-21, 9.999909266638553e-10, 5.788955985871143e-19, 5.96733926526679e-23, 5.696882209898183e-23, -7.289533230215523e-25, -3.1635048378378836e-19, 5.788955985871142e-19, 9.99997294713666e-10)",0.0005496400850547382,0.07260657735090942,-0.02450804730746373,-0.007557815556556132,-0.0026236407267153784,-0.019084353252886942,"(0.17879011658309585, -5.500045880277582e-06, -0.000263060638923835, -9.687291052175767e-11, -3.00400301277592e-09, -8.172424328565231e-07, -5.500045880277522e-06, 0.1787739377171864, -0.00040121631943388123, 2.947926570145229e-09, -4.6982996678224816e-11, 3.3591990207546985e-08, -0.00026306063892383514, -0.0004012163194338813, 0.07776204590072774, 2.413148249381433e-08, -8.588863904243193e-10, 4.988776197807692e-10, -9.687291052183026e-11, 2.9479265701452537e-09, 2.413148249381428e-08, 0.017394306216862998, 2.93896061696088e-06, 0.00033477626462774697, -3.004003012775927e-09, -4.6982996678241037e-11, -8.588863904242711e-10, 2.9389606169608805e-06, 0.017396875128187637, 0.0003533547167198906, -8.172424328565243e-07, 3.359199020754754e-08, 4.988776197807663e-10, 0.00033477626462774697, 0.0003533547167198907, 0.22713006953190623)"
2025/09/16/14:07:40.938818,285923,1758049660,935134649,odom,base_link,1.1501358745363899,0.7406330708141794,-0.003354712205957035,-0.006043274374286571,-0.0006059442455252884,-0.9208526882911598,0.3898633582851206,"(9.999992393088604e-10, 6.545377940025618e-22, -1.8344620276725651e-19, -8.155059939223929e-25, 1.764233781375815e-24, 5.67339813102715e-23, 6.545377939995936e-22, 9.999992393093151e-10, -1.299750633362872e-20, -2.992450022232409e-24, 1.7910364209469645e-24, 5.399078687661484e-23, -1.8344620276725656e-19, -1.29975063336287e-20, 9.999987243447169e-10, 1.6234260154836852e-23, -5.360502611512522e-25, -1.3630344924247255e-24, -8.155059939223746e-25, -2.9924500222323985e-24, 1.6234260154836826e-23, 9.99997425194733e-10, -8.56377751152358e-21, -7.006949855356781e-19, 1.7642337813758137e-24, 1.7910364209469715e-24, -5.360502611512264e-25, -8.563777511523584e-21, 9.999974251814318e-10, 3.56311459617615e-19, 5.673398131027163e-23, 5.399078687661492e-23, -1.3630344924247286e-24, -7.006949855356781e-19, 3.5631145961761496e-19, 9.999992438646432e-10)",0.0008409169106349357,0.07352846499539467,-0.021979082603744766,-0.007502653319998645,-0.002911449276931221,-0.01968925415359544,"(0.17878159720564463, -5.1433046929108866e-06, -0.0002671891911236389, -1.2681398465924762e-10, -2.8696603658646544e-09, -7.778644844584358e-07, -5.143304692909626e-06, 0.17876621694993378, -0.00038378788352933315, 2.8697548422948066e-09, -4.774447912045157e-11, 3.197836314574383e-08, -0.00026718919112363903, -0.00038378788352933315, 0.07776079092737144, 2.362531990370189e-08, -8.463177822040124e-10, 5.320722204756512e-10, -1.2681398465931824e-10, 2.8697548422948306e-09, 2.3625319903701844e-08, 0.017394207852264185, 2.8975497344073915e-06, 0.00034093753276083705, -2.8696603658646606e-09, -4.7744479120467284e-11, -8.463177822039657e-10, 2.897549734407392e-06, 0.01739667153434998, 0.0003366801765165809, -7.778644844584371e-07, 3.197836314574437e-08, 5.320722204756485e-10, 0.00034093753276083705, 0.000336680176516581, 0.22711091983485815)"
2025/09/16/14:07:40.948720,285924,1758049660,938923836,odom,base_link,1.150398135013968,0.7402994040264341,-0.0028418361269892858,-0.006107670064933836,-0.0006435146713169809,-0.9208773840157416,0.38980395824512837,"(9.999973786930263e-10, 5.859846554602039e-22, -1.9213331349165359e-19, 9.463904240649637e-26, 2.6614157907433406e-24, 5.695358924071486e-23, 5.859846554609259e-22, 9.999973786935772e-10, -2.1324395011317082e-20, -3.92525976128812e-24, 2.715738896600211e-24, 5.419110304157984e-23, -1.9213331349165363e-19, -2.1324395011317046e-20, 9.99995623086104e-10, 2.380069926969639e-23, -6.6197611042828295e-25, -1.4096861175474663e-24, 9.463904240651354e-26, -3.925259761288108e-24, 2.3800699269696354e-23, 9.999912225007875e-10, -9.336436200268214e-21, -7.565932478967812e-19, 2.6614157907433376e-24, 2.7157388966002163e-24, -6.619761104282571e-25, -9.336436200268216e-21, 9.999912224842898e-10, 3.5975148010279384e-19, 5.695358924071497e-23, 5.41911030415799e-23, -1.4096861175474683e-24, -7.565932478967814e-19, 3.5975148010279394e-19, 9.99997383444637e-10)",0.0009534044786892261,0.07378718696375532,-0.021232777635046954,-0.007475498967936195,-0.0029907707394461725,-0.019819496750585953,"(0.17876387521417092, -5.037997395426243e-06, -0.0002685863688038887, -1.3607129926075634e-10, -2.831387424121978e-09, -7.6651924050095e-07, -5.037997395425035e-06, 0.17874873556605225, -0.0003787246962818213, 2.846973818884242e-09, -4.793037997613297e-11, 3.1513476272427175e-08, -0.0002685863688038888, -0.0003787246962818213, 0.0777586517728074, 2.3477503934599538e-08, -8.426280300119645e-10, 5.423407450871639e-10, -1.360712992608264e-10, 2.8469738188842655e-09, 2.3477503934599492e-08, 0.017393981432666947, 2.885555355930073e-06, 0.00034301306247146065, -2.831387424121984e-09, -4.7930379976148547e-11, -8.426280300119182e-10, 2.8855553559300734e-06, 0.01739641380689183, 0.0003318323453858599, -7.665192405009513e-07, 3.151347627242771e-08, 5.423407450871613e-10, 0.00034301306247146065, 0.00033183234538586, 0.22706672020119353)"
2025/09/16/14:07:40.958871,285925,1758049660,958614588,odom,base_link,1.1514242348015562,0.7392714399133682,-0.00326607797507252,-0.006163338532276867,-0.0005883977602600746,-0.920953294591648,0.3896237880661314,"(0.002038624849984634, 2.213283770644459e-09, -4.540764536154128e-07, -1.2902174904115456e-12, 1.8196754690318373e-12, 2.1707665264080353e-10, 2.213283770642423e-09, 0.0020386270794627136, -5.521016806006372e-08, -3.375668908194977e-12, 1.8421421858617305e-12, 2.0628093669499504e-10, -4.54076453615413e-07, -5.521016806006382e-08, 0.001211830242479466, 1.062479448978629e-11, -3.7729834287136023e-13, -3.332586724970543e-12, -1.2902174904115256e-12, -3.375668908194967e-12, 1.0624794489786271e-11, 0.0005974767094137596, -3.3342364576690627e-09, -9.016336335105513e-07, 1.819675469031836e-12, 1.8421421858617374e-12, -3.772983428713423e-13, -3.334236457669063e-09, 0.0005974705809397248, 4.1944596422697533e-07, 2.1707665264080397e-10, 2.0628093669499527e-10, -3.3325867249705504e-12, -9.016336335105513e-07, 4.1944596422697533e-07, 0.0020571260953469125)",0.0009570190851685873,0.07387168759947504,-0.021355264286387225,-0.007475498967936195,-0.0029907707394461725,-0.019819496750585953,"(0.18495366542361183, -5.069457421846953e-06, -0.00027100013680521963, -1.3585140164583016e-10, -2.8381861015735214e-09, -7.690594797031648e-07, -5.0694574218457445e-06, 0.18493843136279145, -0.0003820338090477377, 2.8544920893478857e-09, -4.7937230456795754e-11, 3.162318753774417e-08, -0.00027100013680521974, -0.00038203380904773776, 0.07974297035769917, 2.357735422973209e-08, -8.547195737912465e-10, 5.434464752929683e-10, -1.3585140164590047e-10, 2.8544920893479093e-09, 2.3577354229732045e-08, 0.017590888952961136, 2.885555355930073e-06, 0.00034301306247146065, -2.8381861015735268e-09, -4.793723045681128e-11, -8.547195737912005e-10, 2.8855553559300734e-06, 0.01759332132718602, 0.0003318323453858599, -7.69059479703166e-07, 3.162318753774471e-08, 5.434464752929659e-10, 0.00034301306247146065, 0.00033183234538586, 0.236912096215903)"
2025/09/16/14:07:40.968723,285926,1758049660,968623161,odom,base_link,1.1519459818329152,0.7387482766878558,-0.0034827460576685562,-0.006191636675012062,-0.0005603851876564061,-0.9209918631485782,0.3895322035696616,"(0.0031289308229809536, 5.603567428788588e-09, -1.0421169295812351e-06, 9.641376563161708e-08, 9.10194190997406e-08, 1.0999924776009372e-06, 5.6035674287713934e-09, 0.0031289360299843827, -1.254762831540194e-07, -8.769275516073211e-08, 9.376144903965643e-08, 1.0974162902794697e-06, -1.0421169295812351e-06, -1.254762831540194e-07, 0.001851430822935728, 4.4392313225193904e-07, -7.2165004249430405e-09, -1.033427802735949e-09, 9.641376563161705e-08, -8.769275516073207e-08, 4.43923132251939e-07, 0.0009063641147274615, -7.751803377993812e-09, -2.0854311184568955e-06, 9.101941909974062e-08, 9.376144903965646e-08, -7.216500424943043e-09, -7.751803377993785e-09, 0.0009063496178945076, 9.678284114709888e-07, 1.0999924776009368e-06, 1.09741629027947e-06, -1.0334278027359492e-09, -2.0854311184568955e-06, 9.678284114709888e-07, 0.0031712275149638402)",0.0009588563463704072,0.07391463826102657,-0.021417522784935618,-0.007475498967936195,-0.0029907707394461725,-0.019819496750585953,"(0.18811653939740677, -5.085488257867406e-06, -0.00027223107798408843, -1.3573963032062962e-10, -2.841641787932944e-09, -7.703506528796141e-07, -5.085488257866197e-06, 0.18810125722966548, -0.0003837211360017831, 2.858313536220875e-09, -4.7940712474107294e-11, 3.167895246051526e-08, -0.00027223107798408854, -0.00038372113600178314, 0.08076315029883445, 2.3628106939407345e-08, -8.608655607424202e-10, 5.440085047195198e-10, -1.3573963032070006e-10, 2.8583135362208987e-09, 2.3628106939407296e-08, 0.01769097468828218, 2.885555355930073e-06, 0.00034301306247146065, -2.841641787932949e-09, -4.794071247412279e-11, -8.608655607423744e-10, 2.8855553559300734e-06, 0.017693407062507063, 0.0003318323453858599, -7.703506528796153e-07, 3.167895246051581e-08, 5.440085047195176e-10, 0.00034301306247146065, 0.00033183234538586, 0.24191638298195525)"
2025/09/16/14:07:40.988755,285927,1758049660,982272387,odom,base_link,1.1530413627461513,0.7364049557437212,0.003002368005303536,-0.006759524822811484,-0.0015018514665261279,-0.9211161792647278,0.3892262035925793,"(9.999990183081832e-10, 2.753431043997739e-22, -1.9008802815666136e-19, -1.0481758862764707e-24, 1.5037365914205196e-24, 5.309641598228702e-23, 2.7534310440005724e-22, 9.999990183088452e-10, -4.9692762795784717e-20, -3.1048728350313727e-24, 1.5303092130282958e-24, 5.065177399578473e-23, -1.9008802815666133e-19, -4.9692762795784705e-20, 9.999983559366965e-10, 1.7004927409810884e-23, -6.0919115945368e-25, -1.5265711011529634e-24, -1.0481758862764654e-24, -3.1048728350313477e-24, 1.7004927409810834e-23, 9.999966883149737e-10, -8.452730507186665e-21, -8.45757711436715e-19, 1.5037365914205135e-24, 1.5303092130283039e-24, -6.0919115945365675e-25, -8.45273050718667e-21, 9.999966882894656e-10, 2.9105905651298926e-19, 5.30964159822869e-23, 5.0651773995784774e-23, -1.5265711011529645e-24, -8.457577114367149e-19, 2.9105905651298926e-19, 9.999990229244382e-10)",0.0027289918220176194,0.07635237300073817,-0.012893485113033974,-0.006678323232602707,-0.0039887364140911,-0.020860794003955685,"(0.17875675811278957, -3.938534261211194e-06, -0.0002854358735371177, -2.2239774783162723e-10, -2.878553211160839e-09, -7.264564768860128e-07, -3.938534261208516e-06, 0.17874427712148572, -0.0003251529754820432, 3.0567601692186057e-09, -4.1115569870641384e-11, 2.7692452510347604e-08, -0.00028543587353711776, -0.0003251529754820432, 0.07775704541227275, 2.3047091366178696e-08, -7.971369555849264e-10, 4.120742584876712e-10, -2.2239774783168606e-10, 3.0567601692185528e-09, 2.3047091366178614e-08, 0.017393936434385956, 2.750917755414661e-06, 0.0003675931602434886, -2.878553211160846e-09, -4.111556987066731e-11, -7.971369555848846e-10, 2.7509177554146615e-06, 0.01739602102771502, 0.0002811140848952499, -7.264564768860125e-07, 2.7692452510346628e-08, 4.12074258487658e-10, 0.00036759316024348866, 0.00028111408489524996, 0.22705584712619137)"
2025/09/16/14:07:40.999074,285928,1758049660,992263556,odom,base_link,1.1535428762680813,0.7354575995512478,0.0043612936199735365,-0.006827698936348661,-0.0017836042063215395,-0.9211627444826743,0.3891136073955999,"(9.999990167091573e-10, 1.6768390641276564e-22, -1.897650250986966e-19, -1.1070625452180977e-24, 1.3537187342950091e-24, 5.113163408975029e-23, 1.6768390641585449e-22, 9.999990167098073e-10, -6.122104085240453e-20, -3.0391786233520326e-24, 1.3815458127203336e-24, 4.8745212727876874e-23, -1.8976502509869666e-19, -6.122104085240453e-20, 9.999983532737244e-10, 1.6832244247965643e-23, -6.285830140243784e-25, -1.5216116482670387e-24, -1.1070625452180922e-24, -3.039178623352009e-24, 1.68322442479656e-23, 9.999966829922913e-10, -7.770229119255015e-21, -8.83315074477907e-19, 1.3537187342950038e-24, 1.3815458127203415e-24, -6.285830140243557e-25, -7.770229119255015e-21, 9.999966829630025e-10, 2.606635467817251e-19, 5.1131634089750203e-23, 4.8745212727876915e-23, -1.5216116482670408e-24, -8.833150744779065e-19, 2.6066354678172523e-19, 9.999990213235118e-10)",0.0033157912074187083,0.07683356453716456,-0.011010679406484142,-0.006372142348471207,-0.004164572625361222,-0.021000910575838378,"(0.1787385261171362, -3.7155220911719024e-06, -0.0002904332206985456, -2.4911552660898363e-10, -2.788481444141159e-09, -6.990099738471314e-07, -3.7155220911687053e-06, 0.1787267004215519, -0.00031441950586808025, 2.992813442316847e-09, -4.123275499876252e-11, 2.6650345796391032e-08, -0.00029043322069854564, -0.0003144195058680803, 0.07775475440486206, 2.2668550916661773e-08, -7.879737857920388e-10, 4.484469465514229e-10, -2.4911552660904117e-10, 2.9928134423167953e-09, 2.266855091666169e-08, 0.01739371222437276, 2.723622701143765e-06, 0.00037478195805323383, -2.7884814441411657e-09, -4.123275499878779e-11, -7.879737857919981e-10, 2.7236227011437654e-06, 0.017395715816731872, 0.00027105964073713325, -6.990099738471311e-07, 2.6650345796390096e-08, 4.4844694655141015e-10, 0.0003747819580532339, 0.0002710596407371333, 0.2270113746448215)"
2025/09/16/14:07:41.008762,285929,1758049661,8618832,odom,base_link,1.1544043363201473,0.7345405749960945,0.004179147625558225,-0.006879034747185455,-0.0017500188585732861,-0.9212294157561872,0.3889549843625298,"(0.0016834755301949429, 2.4376344706007924e-10, -3.0850348825447256e-07, -1.0613572366197024e-12, 9.135754133010774e-13, 1.3660226869678949e-10, 2.437634470799307e-10, 0.0016834771234548326, -1.1760875952900243e-07, -2.380501768864546e-12, 9.350463285032505e-13, 1.3014907008448133e-10, -3.0850348825447267e-07, -1.1760875952900232e-07, 0.0010022521292040725, 7.374754529394523e-12, -2.8447375688890175e-13, -2.51132749923371e-12, -1.0613572366196983e-12, -2.3805017688645276e-12, 7.3747545293945e-12, 0.0004953210814764317, -1.6690985192818234e-09, -7.480311860505641e-07, 9.135754133010733e-13, 9.350463285032567e-13, -2.844737568888909e-13, -1.6690985192818225e-09, 0.0004953130946699802, 1.8622155924708986e-07, 1.366022686967892e-10, 1.3014907008448146e-10, -2.5113274992337126e-12, -7.480311860505641e-07, 1.8622155924708991e-07, 0.0016962644272929402)",0.0033256375721966527,0.0769119260705816,-0.011046223145811145,-0.006372142348471207,-0.004164572625361222,-0.021000910575838378,"(0.1838766901922235, -3.734035066624237e-06, -0.0002926443574362671, -2.4925675232367615e-10, -2.7940598476017885e-09, -7.009192685008633e-07, -3.734035066621035e-06, 0.18386480552595402, -0.0003165913719774493, 2.999485394940021e-09, -4.1222559313847225e-11, 2.67266161758082e-08, -0.00029264435743626716, -0.00031659137197744935, 0.07940081052382504, 2.274669254125842e-08, -7.97330930484048e-10, 4.4875686999459114e-10, -2.4925675232373384e-10, 2.999485394939969e-09, 2.2746692541258338e-08, 0.01755726498545064, 2.723622701143765e-06, 0.00037478195805323383, -2.7940598476017947e-09, -4.122255931387248e-11, -7.973309304840076e-10, 2.7236227011437654e-06, 0.017559268577809754, 0.00027105964073713325, -7.009192685008629e-07, 2.6726616175807265e-08, 4.4875686999457853e-10, 0.0003747819580532339, 0.0002710596407371333, 0.23518901269871553)"
