time,.header.seq,.header.stamp.secs,.header.stamp.nsecs,.header.frame_id,.child_frame_id,.pose.pose.position.x,.pose.pose.position.y,.pose.pose.position.z,.pose.pose.orientation.x,.pose.pose.orientation.y,.pose.pose.orientation.z,.pose.pose.orientation.w,.pose.covariance,.twist.twist.linear.x,.twist.twist.linear.y,.twist.twist.linear.z,.twist.twist.angular.x,.twist.twist.angular.y,.twist.twist.angular.z,.twist.covariance
2025/09/16/13:50:20.973408,201186,1758048620,971493959,odom,base_link,-0.1214233037624433,0.6381952755183068,0.005820812261650196,-0.011798380511054977,0.00794624283184766,-0.8198290699556959,0.5724316129440724,"(9.999992655262023e-10, 2.363382300658131e-21, -3.186496622052181e-19, 4.21476121227964e-25, 2.023109377728572e-24, 1.9856367426190076e-23, 2.363382300657633e-21, 9.999992655373e-10, -3.1429985692910515e-20, 1.987116328204338e-24, -5.302424632070513e-24, -7.920169897240654e-23, -3.1864966220521816e-19, -3.142998569291043e-20, 9.9999876808505e-10, -2.089129461763015e-23, -1.377135863745368e-23, -1.5978537763417055e-24, 4.214761212279785e-25, 1.9871163282043552e-24, -2.0891294617630198e-23, 9.99997512662432e-10, -5.210440290183932e-20, -6.710359531469727e-19, 2.0231093777285755e-24, -5.3024246320705345e-24, -1.3771358637453794e-23, -5.210440290183931e-20, 9.999975127882126e-10, 1.669150572650297e-18, 1.9856367426189918e-23, -7.920169897240658e-23, -1.5978537763417163e-24, -6.710359531469729e-19, 1.669150572650297e-18, 9.99999270023116e-10)",0.05487218119710511,-0.11329919517433329,-0.032019028450172515,-0.005915280520618977,-0.0016742868400347018,-0.026078856205446806,"(0.17875224316187008, 5.060778344273613e-06, -0.0001507940687753485, 2.856246653979671e-10, -5.3157623686318725e-09, 6.677089795362813e-07, 5.060778344274525e-06, 0.17864405297123312, 0.0012711694338886897, 2.1281135773324242e-09, -2.1124487318585748e-09, 4.5577806299489396e-07, -0.00015079406877534837, 0.0012711694338886901, 0.07778654661149989, -2.9358788570600843e-08, -2.036437198427854e-08, -3.0050120799050234e-09, 2.856246653979111e-10, 2.128113577332434e-09, -2.9358788570600926e-08, 0.017391261514044857, -2.561102406540438e-06, 0.00019479273448265287, -5.315762368631834e-09, -2.112448731858488e-09, -2.036437198427876e-08, -2.561102406540438e-06, 0.01740589140244404, -0.0011857259434456288, 6.677089795362822e-07, 4.5577806299489253e-07, -3.005012079905145e-09, 0.0001947927344826529, -0.0011857259434456286, 0.22660266913426336)"
2025/09/16/13:50:20.983427,201187,1758048620,981496572,odom,base_link,-0.12302620675527316,0.6388441912675226,0.008568505424992396,-0.010984656072285152,0.006585229663864179,-0.8198771265177563,0.5723962521664818,"(9.999990178444968e-10, 2.108913512344038e-21, -2.6212336462062647e-19, 5.7629188539844265e-25, 1.7628947527263984e-24, 1.9123590092144264e-23, 2.108913512344738e-21, 9.99999017854142e-10, -5.596589030491737e-20, 1.868582347903073e-24, -3.934349446100925e-24, -7.6588158978448e-23, -2.6212336462062637e-19, -5.59658903049174e-20, 9.999983551893911e-10, -2.225902905138196e-23, -1.4252849918580924e-23, -1.2404269917858231e-24, 5.762918853984567e-25, 1.868582347903089e-24, -2.2259029051381995e-23, 9.99996686793022e-10, -4.5275816961357794e-20, -6.891978625566491e-19, 1.7628947527264057e-24, -3.934349446100949e-24, -1.4252849918581045e-23, -4.5275816961357776e-20, 9.999966868784997e-10, 1.414786314859978e-18, 1.9123590092144097e-23, -7.658815897844805e-23, -1.2404269917858345e-24, -6.891978625566492e-19, 1.414786314859978e-18, 9.999990224146763e-10)",0.05395256910591916,-0.11453277026995758,-0.02824570488451295,-0.00405880695850245,-0.0017911234558188958,-0.026036250972749704,"(0.17873435340385715, 5.2971690368258755e-06, -0.0001561876563164047, 3.074966179812607e-10, -5.191399957271993e-09, 6.424341170405845e-07, 5.297169036826237e-06, 0.17862882168599736, 0.001263211205658179, 2.096747268648878e-09, -2.063562918913258e-09, 4.385201712316352e-07, -0.00015618765631640459, 0.0012632112056581795, 0.07778414426697854, -2.886905463000936e-08, -2.0033238717919782e-08, -2.931585101084348e-09, 3.07496617981206e-10, 2.0967472686488884e-09, -2.8869054630009444e-08, 0.01739104351377279, -2.626202214365007e-06, 0.00020246115113015545, -5.191399957271954e-09, -2.0635629189131732e-09, -2.0033238717919998e-08, -2.626202214365007e-06, 0.01740564820284419, -0.0011764533688777006, 6.424341170405853e-07, 4.3852017123163384e-07, -2.9315851010844655e-09, 0.00020246115113015548, -0.0011764533688777004, 0.22657432588841797)"
2025/09/16/13:50:20.993347,201188,1758048620,993215561,odom,base_link,-0.12451243575402542,0.638712278584329,0.008274931124674324,-0.011007876749984285,0.006597048894391895,-0.8199641692941085,0.5722709731142799,"(0.0011964838787704914, 2.7986320153688227e-09, -1.8331521726892644e-07, 1.5960778266683376e-13, 6.221933149274047e-13, 2.6269034141674485e-11, 2.798632015363501e-09, 0.0011964960309125406, -6.451157831371213e-08, 8.225314232548612e-13, -1.3840306641929765e-12, -1.0519605524409708e-10, -1.8331521726892665e-07, -6.451157831371226e-08, 0.0007138717924846656, -5.32410811081337e-12, -3.415479357367204e-12, -8.227471153423572e-13, 1.5960778266683977e-13, 8.225314232548684e-13, -5.324108110813382e-12, 0.00035396188989298316, -5.051216439897192e-09, -2.9804040422030874e-07, 6.22193314927408e-13, -1.3840306641929864e-12, -3.4154793573672336e-12, -5.051216439897191e-09, 0.0003539692094506325, 5.099165374979367e-07, 2.626903414167427e-11, -1.0519605524409715e-10, -8.22747115342367e-13, -2.980404042203087e-07, 5.099165374979368e-07, 0.0012030116771816137)",0.05403250127970641,-0.1145688271116815,-0.028361028377469524,-0.00405880695850245,-0.0017911234558188958,-0.026036250972749704,"(0.18241297778243076, 5.319647010362718e-06, -0.00015702877109254783, 3.0785621044386825e-10, -5.201038893661118e-09, 6.436417640685048e-07, 5.319647010363092e-06, 0.18230701583692757, 0.001270891623429522, 2.101078781055693e-09, -2.067064430765164e-09, 4.3933557366505776e-07, -0.00015702877109254773, 0.0012708916234295225, 0.07896172317808041, -2.8932300189240422e-08, -2.0087482208213518e-08, -2.9446656831329e-09, 3.0785621044381355e-10, 2.101078781055703e-09, -2.8932300189240505e-08, 0.01750823339795858, -2.626202214365007e-06, 0.00020246115113015545, -5.201038893661078e-09, -2.067064430765079e-09, -2.0087482208213733e-08, -2.626202214365007e-06, 0.01752283808702998, -0.0011764533688777006, 6.436417640685056e-07, 4.393355736650564e-07, -2.944665683133018e-09, 0.00020246115113015548, -0.0011764533688777004, 0.23243382009770752)"
2025/09/16/13:50:21.003390,201189,1758048621,3290415,odom,base_link,-0.12579080211521834,0.6385986714772359,0.008021546934856166,-0.01102783962190261,0.006607209355799086,-0.8200389845466515,0.5721632593600352,"(0.00226485976175892, 9.506672620985081e-09, -6.403538431570171e-07, 8.502562409703164e-08, 3.123396863410935e-08, 1.3974825231479223e-07, 9.506672620982465e-09, 0.002264903925085955, -2.2411448755050615e-07, -3.519232749937195e-08, 8.345333484703122e-08, -1.5721599534681725e-06, -6.40353843157017e-07, -2.2411448755050636e-07, 0.0013449397787787792, -4.132043010311316e-07, -1.9500085428302586e-07, 1.3086314594318636e-10, 8.502562409703167e-08, -3.519232749937194e-08, -4.1320430103113164e-07, 0.0006620985316463828, -1.766901648910342e-08, -1.047270073390596e-06, 3.123396863410934e-08, 8.34533348470312e-08, -1.9500085428302588e-07, -1.7669016489103422e-08, 0.0006621239552234871, 1.7800573450158364e-06, 1.3974825231479225e-07, -1.5721599534681727e-06, 1.308631459431861e-10, -1.0472700733905958e-06, 1.7800573450158368e-06, 0.0022875798159870844)",0.054101219239296415,-0.11459982530020972,-0.028460172373601315,-0.00405880695850245,-0.0017911234558188958,-0.026036250972749704,"(0.1855878190260448, 5.339009042994045e-06, -0.00015775403760741495, 3.0816535329765963e-10, -5.20932551980795e-09, 6.446799822944285e-07, 5.339009042994428e-06, 0.18548148650539317, 0.0012775113343903508, 2.1048025968914458e-09, -2.0700746923224647e-09, 4.4003657788919744e-07, -0.00015775403760741484, 0.001277511334390351, 0.07998263723779124, -2.8986672609976223e-08, -2.013411551990034e-08, -2.9559111036693e-09, 3.081653532976049e-10, 2.1048025968914565e-09, -2.898667260997631e-08, 0.01760898193692953, -2.626202214365007e-06, 0.00020246115113015545, -5.209325519807909e-09, -2.0700746923223795e-09, -2.0134115519900555e-08, -2.626202214365007e-06, 0.01762358662600093, -0.0011764533688777006, 6.446799822944294e-07, 4.4003657788919606e-07, -2.9559111036694178e-09, 0.00020246115113015548, -0.0011764533688777004, 0.23747124704625489)"
2025/09/16/13:50:21.023441,201190,1758048621,23222446,odom,base_link,-0.12832163808259983,0.638372968265213,0.007517468087115607,-0.011067331262171173,0.0066273156879391865,-0.8201869560388039,0.5719501289529594,"(0.004489578001941504, 3.330375129023664e-08, -2.3998955569169103e-06, 4.0382075614963754e-07, 1.4913947062746997e-07, 6.843701622659096e-07, 3.3303751290236946e-08, 0.0044897586307033575, -8.290821227361417e-07, -1.6438990309125104e-07, 3.9140792408126256e-07, -7.679996908658377e-06, -2.399895556916912e-06, -8.29082122736142e-07, 0.0026417867736528793, -1.9559953407959167e-06, -9.248790467334359e-07, 1.2160909651613328e-09, 4.0382075614963765e-07, -1.6438990309125102e-07, -1.9559953407959167e-06, 0.0012822394920557615, -6.625522060228672e-08, -3.91043623183042e-06, 1.4913947062746992e-07, 3.914079240812625e-07, -9.248790467334359e-07, -6.625522060228668e-08, 0.0012823348620599497, 6.6531491403748416e-06, 6.843701622659095e-07, -7.679996908658377e-06, 1.2160909651613324e-09, -3.91043623183042e-06, 6.653149140374842e-06, 0.004574279556091263)",0.05423717044595293,-0.11466115193388338,-0.028656318271810224,-0.00405880695850245,-0.0017911234558188958,-0.026036250972749704,"(0.19190253069477325, 5.377417311957715e-06, -0.00015919477700624792, 3.087769596994348e-10, -5.2257197321869955e-09, 6.467339871197936e-07, 5.377417311958118e-06, 0.1917954631046174, 0.0012906535754156749, 2.112169772215884e-09, -2.0760301760636645e-09, 4.4142344051887537e-07, -0.00015919477700624782, 0.001290653575415675, 0.08202580172024279, -2.909424268702698e-08, -2.022637458917478e-08, -2.97815897744793e-09, 3.0877695969937997e-10, 2.112169772215895e-09, -2.909424268702707e-08, 0.017808302253244226, -2.626202214365007e-06, 0.00020246115113015545, -5.225719732186953e-09, -2.0760301760635793e-09, -2.0226374589174997e-08, -2.626202214365007e-06, 0.017822906942315624, -0.0011764533688777006, 6.467339871197944e-07, 4.41423440518874e-07, -2.978158977448048e-09, 0.00020246115113015548, -0.0011764533688777004, 0.24743726286198975)"
2025/09/16/13:50:21.033350,201191,1758048621,31491995,odom,base_link,-0.13120804376512735,0.6422265747759963,0.02248006056639126,-0.006286092975681827,-0.0011206539674507255,-0.8200394040556377,0.5722714434303542,"(9.999988083799109e-10, 1.802750386035535e-21, -8.743031253808649e-20, 5.0064945492076775e-25, 1.1699368259807654e-24, 2.0067642356473842e-23, 1.8027503860352776e-21, 9.999988083859547e-10, -1.3258044767565107e-19, 3.352667596235979e-24, -2.853548452212547e-24, -1.116877939309269e-22, -8.743031253808655e-20, -1.3258044767565112e-19, 9.999980060225933e-10, -2.0412098808785178e-23, -1.3181318374730684e-23, 2.382029741996301e-25, 5.0064945492080705e-25, 3.3526675962359925e-24, -2.0412098808785205e-23, 9.999959884238665e-10, -2.2139245354969355e-20, -7.500041168045073e-19, 1.169936825980771e-24, -2.8535484522125343e-24, -1.3181318374730836e-23, -2.2139245354969364e-20, 9.999959884260343e-10, 6.095966273597193e-19, 2.006764235647337e-23, -1.1168779393092674e-22, 2.382029741996382e-25, -7.500041168045075e-19, 6.095966273597192e-19, 9.999988130018134e-10)",0.04948141277720339,-0.12069223283685974,-0.009460938617930563,0.006360356010748805,-0.002368880967665944,-0.025705040920671562,"(0.1787412099179581, 6.002138580042443e-06, -0.00018271414978119244, 5.465619429256545e-10, -6.959548737594775e-09, 9.764423435781994e-07, 6.002138580044152e-06, 0.17864920734177195, 0.0012058642006331144, 4.346190268911806e-09, -1.6372355104568974e-09, 5.724429887405316e-07, -0.0001827141497811923, 0.0012058642006331144, 0.07778272726082203, -3.332801878527095e-08, -2.2234350920113876e-08, -1.6052134946173047e-09, 5.465619429255764e-10, 4.346190268911851e-09, -3.332801878527099e-08, 0.017391170832570222, -2.904256919194714e-06, 0.00023973917038051535, -6.959548737594828e-09, -1.6372355104568238e-09, -2.223435092011414e-08, -2.9042569191947134e-06, 0.01740536206726838, -0.0011139752898087054, 9.764423435781996e-07, 5.724429887405265e-07, -1.6052134946173335e-09, 0.00023973917038051535, -0.0011139752898087052, 0.22667631409536446)"
2025/09/16/13:50:21.043452,201192,1758048621,41494370,odom,base_link,-0.1328529712197362,0.6429115526613499,0.025299324537454346,-0.00525917573615909,-0.0027473816558853514,-0.8200446610955956,0.5722687714467941,"(9.999990178232908e-10, 2.479410059728837e-21, 4.6357225041483294e-20, 6.839253586638944e-25, 6.5967750993157965e-25, 1.932175146356495e-23, 2.4794100597287632e-21, 9.999990178282832e-10, -1.8707441907306062e-19, 3.223881342487695e-24, 5.545391322759311e-25, -1.0838729281283482e-22, 4.635722504148334e-20, -1.8707441907306052e-19, 9.999983551455218e-10, -2.4860490432665953e-23, -1.4878453295690016e-23, 1.063017620212314e-24, 6.839253586639347e-25, 3.2238813424877075e-24, -2.486049043266599e-23, 9.999966867189776e-10, -1.868552057462614e-21, -7.73969383534821e-19, 6.596775099315984e-25, 5.5453913227594e-25, -1.4878453295690157e-23, -1.8685520574626096e-21, 9.999966867013084e-10, 2.321571299985889e-21, 1.932175146356447e-23, -1.0838729281283466e-22, 1.0630176202123143e-24, -7.739693835348217e-19, 2.321571299986018e-21, 9.99999022407744e-10)",0.04862410474770485,-0.12172954978589869,-0.005753788118185523,0.00853751589517153,-0.002458179745488517,-0.025500329630793322,"(0.17872364528348597, 5.805654990976384e-06, -0.00018854521335256942, 5.783958420895977e-10, -6.7225853923840706e-09, 9.395457498714981e-07, 5.805654990976915e-06, 0.178634634802052, 0.0011802748589658497, 4.280732353575933e-09, -1.549252595204069e-09, 5.508039757777591e-07, -0.00018854521335256929, 0.0011802748589658499, 0.07777988793271155, -3.27806368899754e-08, -2.187518817665317e-08, -1.6722653121372304e-09, 5.783958420895214e-10, 4.2807323535759765e-09, -3.278063688997544e-08, 0.01739096097043099, -2.9289613080272407e-06, 0.00024788342947758556, -6.722585392384122e-09, -1.5492525952039975e-09, -2.187518817665343e-08, -2.9289613080272402e-06, 0.017404891333233224, -0.0010877770252685109, 9.395457498714983e-07, 5.508039757777542e-07, -1.6722653121372577e-09, 0.00024788342947758556, -0.0010877770252685106, 0.2266494204223691)"
2025/09/16/13:50:21.053296,201193,1758048621,53212166,odom,base_link,-0.13438912728403504,0.6428679310246936,0.025240709736728283,-0.0052419581316616795,-0.002797430928097876,-0.8201299363355482,0.5721464705662336,"(0.001196361827803245, 4.083434955132766e-09, 8.555378355914068e-08, 2.4401531250445324e-13, 1.6290485801064575e-13, 2.6553101957488382e-11, 4.083434955133922e-09, 0.0011963686360153204, -1.776255565785104e-07, 1.3708685252645566e-12, 7.415111007039256e-13, -1.4890284830382873e-10, 8.555378355914072e-08, -1.7762555657851033e-07, 0.0007137978353710559, -5.956319407841211e-12, -3.5916513883817555e-12, 1.1811874443329035e-12, 2.4401531250446975e-13, 1.3708685252645622e-12, -5.956319407841217e-12, 0.0003539263102223963, 8.955868424297001e-10, -3.323057281802955e-07, 1.629048580106562e-13, 7.415111007039286e-13, -3.5916513883817902e-12, 8.955868424297001e-10, 0.0003539243260647551, -1.0588264572811481e-07, 2.6553101957487746e-11, -1.4890284830382854e-10, 1.1811874443329009e-12, -3.323057281802955e-07, -1.058826457281148e-07, 0.0012029058781479658)",0.04869209808416329,-0.12178024004909836,-0.0057653625427546325,0.00853751589517153,-0.002458179745488517,-0.025500329630793322,"(0.18240188300791987, 5.8300839998271035e-06, -0.00018960367344890612, 5.792912225693937e-10, -6.7353789607551235e-09, 9.413764092145145e-07, 5.830083999827645e-06, 0.18231251445787472, 0.0011873304533653005, 4.289550251902184e-09, -1.55169090422863e-09, 5.518574976598101e-07, -0.00018960367344890598, 0.0011873304533653005, 0.07895731693731833, -3.286218096434997e-08, -2.1937646292000557e-08, -1.6795247928032124e-09, 5.792912225693173e-10, 4.289550251902229e-09, -3.286218096435002e-08, 0.017508138933687824, -2.9289613080272407e-06, 0.00024788342947758556, -6.735378960755174e-09, -1.5516909042285584e-09, -2.193764629200082e-08, -2.9289613080272402e-06, 0.01752206929649006, -0.0010877770252685109, 9.413764092145147e-07, 5.518574976598053e-07, -1.6795247928032397e-09, 0.00024788342947758556, -0.0010877770252685106, 0.2325083185852109)"
2025/09/16/13:50:21.063314,201194,1758048621,63212633,odom,base_link,-0.1357008140812773,0.6428306591315112,0.02519047436500387,-0.005227262838835211,-0.0028401447297064075,-0.820202697686942,0.5720420823752314,"(0.0022567141104201573, 1.4023269721902695e-08, 2.9573369844768014e-07, 1.691404941342182e-08, 6.17149345233387e-09, 4.5882657456379196e-08, 1.4023269721911294e-08, 0.002256739566507752, -6.145901016664037e-07, -1.0873449473289546e-08, 1.7042865358248743e-08, -1.6131757129772976e-06, 2.957336984476803e-07, -6.145901016664034e-07, 0.0013401444335970755, -4.3356726988569167e-07, -1.7378353895437405e-07, 8.60170004813597e-10, 1.6914049413421827e-08, -1.0873449473289546e-08, -4.335672698856917e-07, 0.0006597760767578185, 3.1101153449786354e-09, -1.1587359974537022e-06, 6.171493452333871e-09, 1.704286535824874e-08, -1.73783538954374e-07, 3.110115344978648e-09, 0.0006597689765335837, -3.6671863018542626e-07, 4.588265745637919e-08, -1.6131757129772974e-06, 8.601700048135968e-10, -1.1587359974537022e-06, -3.6671863018542626e-07, 0.002279336324669921)",0.04875012649829508,-0.12182350128231051,-0.005775240650481321,0.00853751589517153,-0.002458179745488517,-0.025500329630793322,"(0.18555323012436772, 5.850972942970532e-06, -0.00019050963251981813, 5.800553784704486e-10, -6.746297537814695e-09, 9.429387719992223e-07, 5.8509729429710825e-06, 0.1854635554076249, 0.0011933671258120401, 4.297075822531602e-09, -1.5537718611757122e-09, 5.527566181803325e-07, -0.000190509632519818, 0.00119336712581204, 0.07997063790797879, -3.293177415633422e-08, -2.1990950712287163e-08, -1.685720343314619e-09, 5.800553784703721e-10, 4.297075822531647e-09, -3.2931774156334265e-08, 0.017608143606691974, -2.9289613080272407e-06, 0.00024788342947758556, -6.746297537814745e-09, -1.5537718611756407e-09, -2.1990950712287428e-08, -2.9289613080272402e-06, 0.01762207396949421, -0.0010877770252685109, 9.429387719992225e-07, 5.527566181803275e-07, -1.6857203433146462e-09, 0.00024788342947758556, -0.0010877770252685106, 0.23750855223541842)"
2025/09/16/13:50:21.073386,201195,1758048621,73268652,odom,base_link,-0.13702040494296694,0.6427931130188339,0.025139771808807734,-0.005212485849549557,-0.0028830957618287112,-0.8202758481395217,0.5719371038052039,"(0.0033602560849535987, 2.995501707244463e-08, 6.360089286791892e-07, 4.879979582387042e-08, 1.7820920387979195e-08, 1.343361771651337e-07, 2.99550170724658e-08, 0.0033603164217659697, -1.3264076098902393e-06, -3.031029397619829e-08, 4.9550801305324114e-08, -4.722653075256327e-06, 6.360089286791895e-07, -1.3264076098902387e-06, 0.001986196334353313, -1.2490383231479007e-06, -5.010445446377015e-07, 3.62595471901369e-09, 4.8799795823870406e-08, -3.031029397619829e-08, -1.249038323147901e-06, 0.0009708717692278664, 6.737524984458845e-09, -2.5086160108043855e-06, 1.7820920387979195e-08, 4.9550801305324094e-08, -5.010445446377014e-07, 6.737524984458892e-09, 0.0009708562068338692, -7.920390811455793e-07, 1.3433617716513373e-07, -4.7226530752563256e-06, 3.625954719013689e-09, -2.5086160108043855e-06, -7.920390811455793e-07, 0.003409153296101657)",0.04880847725407647,-0.12186700282705772,-0.005785173630042563,0.00853751589517153,-0.002458179745488517,-0.025500329630793322,"(0.18873341799485951, 5.872015238136208e-06, -0.0001914230608443666, 5.808237791760081e-10, -6.757276766404959e-09, 9.445098135425148e-07, 5.8720152381367665e-06, 0.18864343487612142, 0.001199451378645186, 4.304643196902984e-09, -1.555864377616624e-09, 5.536607332194215e-07, -0.00019142306084436644, 0.0011994513786451858, 0.08099747148200485, -3.300175393107522e-08, -2.2044551232941554e-08, -1.6919503094481296e-09, 5.808237791759315e-10, 4.304643196903028e-09, -3.300175393107527e-08, 0.01770870379498543, -2.9289613080272407e-06, 0.00024788342947758556, -6.757276766405008e-09, -1.5558643776165524e-09, -2.2044551232941822e-08, -2.9289613080272402e-06, 0.017722634157787666, -0.0010877770252685109, 9.44509813542515e-07, 5.536607332194165e-07, -1.6919503094481569e-09, 0.00024788342947758556, -0.0010877770252685106, 0.24253656165009127)"
2025/09/16/13:50:21.083431,201196,1758048621,78151703,odom,base_link,-0.15133274436273408,0.6461209024316883,-0.016486221869615368,-0.004328608852502457,-0.010783204675236836,-0.8198236110644083,0.5724982378869368,"(9.999979698269756e-10, 3.9679970392395995e-21, 1.8873738620490767e-19, 8.563748430287145e-25, 1.4175320482433876e-25, 1.7479930521251406e-23, 3.967997039240875e-21, 9.999979698307515e-10, -2.883547463721198e-19, 4.6222163691322324e-24, 4.656221775621349e-24, -1.193700993934995e-22, 1.8873738620490775e-19, -2.883547463721198e-19, 9.999966083650856e-10, -2.3978612726813117e-23, -1.4217992905451584e-23, 3.0177583838652852e-24, 8.563748430287515e-25, 4.622216369132211e-24, -2.3978612726813364e-23, 9.99993193039841e-10, 3.0151323455311255e-20, -9.876047594363914e-19, 1.4175320482437395e-25, 4.6562217756213226e-24, -1.4217992905451687e-23, 3.0151323455311273e-20, 9.999931930317213e-10, -7.31694118453982e-19, 1.7479930521250915e-23, -1.193700993934985e-22, 3.0177583838652647e-24, -9.876047594363914e-19, -7.3169411845398185e-19, 9.999979745198653e-10)",0.05012744664614103,-0.14769893662597147,-0.05936090659725643,0.016534825421862468,-0.0068386680517871536,-0.023154158273209872,"(0.17866319718976506, 4.751916335273622e-06, -0.00021055514606320406, 6.843265189793217e-10, -6.0008091960302476e-09, 1.0522304862088956e-06, 4.751916335273395e-06, 0.17858421579378617, 0.0010758062650803864, 4.247531394598416e-09, -1.1912222181146468e-09, 5.727391972403628e-07, -0.0002105551460632039, 0.001075806265080386, 0.07776975636146596, -3.439560734392226e-08, -2.2199453190095767e-08, -3.2757884518761696e-10, 6.843265189792385e-10, 4.247531394598424e-09, -3.43956073439227e-08, 0.017390203588899488, -2.973088283660156e-06, 0.0002784409823121006, -6.000809196030249e-09, -1.1912222181145668e-09, -2.219945319009597e-08, -2.9730882836601554e-06, 0.017403078579730807, -0.0009821669124981812, 1.0522304862088882e-06, 5.727391972403548e-07, -3.2757884518759267e-10, 0.0002784409823121006, -0.0009821669124981808, 0.226557004149133)"
2025/09/16/13:50:21.093420,201197,1758048621,91489315,odom,base_link,-0.15360844120574974,0.6471100442538673,-0.012776057194693775,-0.002929082433866052,-0.013000369865684277,-0.8197987280446755,0.5724966867640223,"(9.999992677242995e-10, 5.752538793024363e-21, 2.5831367545367693e-19, 1.5875404817562004e-24, 1.6131967623268521e-25, 1.661591319851118e-23, 5.752538793024659e-21, 9.999992677262475e-10, -3.9305014906448896e-19, 5.723358007990086e-24, 7.8661029500517e-24, -1.1358488356361037e-22, 2.5831367545367684e-19, -3.930501490644885e-19, 9.999987717670585e-10, -2.4914468099357937e-23, -1.4397488573141895e-23, 4.2361965684996975e-24, 1.5875404817562429e-24, 5.723358007990046e-24, -2.491446809935818e-23, 9.99997520068085e-10, 6.826251097695419e-20, -1.3250809836820555e-18, 1.613196762327294e-25, 7.86610295005165e-24, -1.4397488573142012e-23, 6.82625109769542e-20, 9.999975200652383e-10, -1.1699713923131284e-18, 1.6615913198510717e-23, -1.1358488356360945e-22, 4.236196568499665e-24, -1.3250809836820563e-18, -1.1699713923131284e-18, 9.999992722341477e-10)",0.048994759698008906,-0.14847683768315878,-0.05383844925459987,0.019417961427818906,-0.00692901299052649,-0.02317685237961501,"(0.178662234115503, 3.6584959028084294e-06, -0.0002267657728465335, 7.852429666449618e-10, -5.624116986984489e-09, 9.996917804398356e-07, 3.6584959028077297e-06, 0.1785863707117055, 0.001024430503076024, 4.201836423640877e-09, -1.038953650548886e-09, 5.441273899744064e-07, -0.00022676577284653333, 0.0010244305030760233, 0.07776865745053563, -3.364832948389302e-08, -2.1722304268883825e-08, -6.311853631311586e-10, 7.852429666448802e-10, 4.201836423640884e-09, -3.364832948389346e-08, 0.01739023457874834, -2.980465259857327e-06, 0.00030098623710333994, -5.6241169869844906e-09, -1.0389536505488099e-09, -2.1722304268884023e-08, -2.9804652598573265e-06, 0.017402601262726136, -0.0009309587618640381, 9.996917804398286e-07, 5.441273899743989e-07, -6.311853631311338e-10, 0.00030098623710333994, -0.0009309587618640376, 0.2265666774514619)"
2025/09/16/13:50:21.103319,201198,1758048621,101482153,odom,base_link,-0.1553046850965751,0.6478460424219338,-0.009990166786967757,-0.0018494552026081038,-0.014639345926026556,-0.81977916954825,0.5724896350512323,"(9.999990168589417e-10, 7.226498528789628e-21, 3.3260313367724003e-19, 1.9754916432289552e-24, 6.681511217798273e-26, 1.596639378815259e-23, 7.226498528789199e-21, 9.99999016861376e-10, -4.2474302989327973e-19, 5.353727595064581e-24, 9.789355023733607e-24, -1.0974021778913942e-22, 3.326031336772402e-19, -4.2474302989327993e-19, 9.999983535785779e-10, -2.670125750267046e-23, -1.4946073580329605e-23, 4.5116988355872914e-24, 1.975491643228998e-24, 5.3537275950645444e-24, -2.6701257502670705e-23, 9.999966835924902e-10, 9.006941419951377e-20, -1.3478880370116785e-18, 6.68151121780338e-26, 9.789355023733553e-24, -1.494607358032972e-23, 9.006941419951377e-20, 9.99996683633011e-10, -1.5192713793418987e-18, 1.5966393788152134e-23, -1.0974021778913855e-22, 4.511698835587252e-24, -1.3478880370116785e-18, -1.5192713793418985e-18, 9.999990214378019e-10)",0.04816368824457668,-0.1489896610552637,-0.04972020708385079,0.02156518765582774,-0.006952890035658365,-0.023220722017569244,"(0.178646814921011, 2.671561862022259e-06, -0.0002388260627713935, 8.546572750000038e-10, -5.339203319197682e-09, 9.61917236610126e-07, 2.671561862021274e-06, 0.1785727991947083, 0.0009822102191297168, 4.167553268956853e-09, -9.214577051733167e-10, 5.235549757394372e-07, -0.00023882606277139331, 0.0009822102191297162, 0.07776616280095106, -3.309771952570925e-08, -2.1370684742204952e-08, -8.592733150260098e-10, 8.546572749999235e-10, 4.167553268956861e-09, -3.309771952570968e-08, 0.017390068975172212, -2.9634559229314674e-06, 0.00031772620073668595, -5.3392033191976834e-09, -9.214577051732437e-10, -2.1370684742205147e-08, -2.963455922931467e-06, 0.01740204186594575, -0.0008890136536201756, 9.619172366101192e-07, 5.235549757394299e-07, -8.592733150259845e-10, 0.00031772620073668595, -0.0008890136536201751, 0.22653407976713147)"
2025/09/16/13:50:21.113399,201199,1758048621,113204241,odom,base_link,-0.15713127063213578,0.647901667416807,-0.010601005589501073,-0.0018085276622526666,-0.014766548398827007,-0.8198551405053617,0.5723776959866743,"(0.001196792771132974, 1.1812865861260338e-08, 3.283641748555492e-07, 7.003424092989992e-13, -9.540319775554361e-14, 2.1960683246364276e-11, 1.1812865861259343e-08, 0.001196797154738374, -3.7752537635960903e-07, 2.274026760755723e-12, 4.494761564089363e-12, -1.5081079470098697e-10, 3.283641748555491e-07, -3.775253763596091e-07, 0.000714077153427899, -6.361335498579536e-12, -3.626810895774918e-12, 4.015444745628397e-12, 7.003424092990173e-13, 2.2740267607557066e-12, -6.361335498579597e-12, 0.0003540636377978118, 1.3503421517303188e-08, -5.723558697727821e-07, -9.540319775552024e-14, 4.494761564089333e-12, -3.626810895774943e-12, 1.3503421517303191e-08, 0.00035407393227646344, -7.510403328068905e-07, 2.1960683246363665e-11, -1.5081079470098573e-10, 4.015444745628361e-12, -5.723558697727821e-07, -7.510403328068903e-07, 0.0012033303627491715)",0.048229974593425685,-0.14909625571269242,-0.04992788937984979,0.02156518765582774,-0.006952890035658365,-0.023220722017569244,"(0.18232627128307927, 2.6827446892652356e-06, -0.00024021634933912424, 8.56082087460169e-10, -5.34912893141744e-09, 9.637920950397542e-07, 2.6827446892642514e-06, 0.18225196259165172, 0.0009879048532839575, 4.1760189773919e-09, -9.226625903754116e-10, 5.245533953267325e-07, -0.00024021634933912405, 0.0009879048532839571, 0.07894397451194748, -3.318104532882304e-08, -2.1430694453466103e-08, -8.623218816177207e-10, 8.560820874600885e-10, 4.176018977391908e-09, -3.318104532882347e-08, 0.017507289853773287, -2.9634559229314674e-06, 0.00031772620073668595, -5.349128931417441e-09, -9.226625903753386e-10, -2.1430694453466298e-08, -2.963455922931467e-06, 0.017519262744546824, -0.0008890136536201756, 9.637920950397475e-07, 5.245533953267252e-07, -8.623218816176951e-10, 0.00031772620073668595, -0.0008890136536201751, 0.23239512369718518)"
2025/09/16/13:50:21.123352,201200,1758048621,123290539,odom,base_link,-0.15870395976476837,0.6479495780261458,-0.011128908413405546,-0.0017733093162264632,-0.014875998944029488,-0.8199204865292069,0.5722813606952395,"(0.002266379984378744, 4.133689568393068e-08, 1.1456873669000352e-06, 1.7613826636407053e-07, 6.495202804933217e-08, -5.965093690574465e-08, 4.133689568393157e-08, 0.002266398097781026, -1.3173079452879482e-06, -7.428701489728148e-08, 1.7867955128962634e-07, -1.9355546959994127e-06, 1.145687366900035e-06, -1.317307945287948e-06, 0.0013459107432434155, -5.314956646117118e-07, -1.7729894728029506e-07, 2.3313118034114554e-09, 1.761382663640706e-07, -7.428701489728149e-08, -5.314956646117118e-07, 0.0006625728655098998, 4.726662277928364e-08, -2.0194798760964145e-06, 6.495202804933219e-08, 1.7867955128962634e-07, -1.7729894728029503e-07, 4.726662277928364e-08, 0.0006626081372327063, -2.6229558183332462e-06, -5.965093690574468e-08, -1.935554695999413e-06, 2.331311803411455e-09, -2.0194798760964145e-06, -2.6229558183332462e-06, 0.0022891524872611126)",0.04828701083774203,-0.14918797533565384,-0.050106590098481306,0.02156518765582774,-0.006952890035658365,-0.023220722017569244,"(0.18550460588589365, 2.6923853082329014e-06, -0.00024141603010648056, 8.573080706828694e-10, -5.3576694477286485e-09, 9.654053213722892e-07, 2.6923853082319175e-06, 0.18543004464167315, 0.0009928169485990482, 4.183303316067909e-09, -9.236993366731504e-10, 5.254124878020311e-07, -0.00024141603010648037, 0.0009928169485990477, 0.07996598605301443, -3.325274321152103e-08, -2.1482329950250525e-08, -8.649450278908022e-10, 8.573080706827888e-10, 4.183303316067917e-09, -3.325274321152146e-08, 0.017608152833662204, -2.9634559229314674e-06, 0.00031772620073668595, -5.3576694477286485e-09, -9.236993366730774e-10, -2.1482329950250724e-08, -2.963455922931467e-06, 0.01762012572443574, -0.0008890136536201756, 9.654053213722824e-07, 5.254124878020238e-07, -8.649450278907764e-10, 0.00031772620073668595, -0.0008890136536201751, 0.23743827269163098)"
2025/09/16/13:50:21.143318,201201,1758048621,143210649,odom,base_link,-0.16181281249447296,0.648043985488511,-0.012177410237233156,-0.0017037789531410127,-0.015092167329333502,-0.8200494740059266,0.5720910625111925,"(0.004489701296154884, 1.5445116929122024e-07, 4.256193627654852e-06, 8.366072746381093e-07, 3.092097216791868e-07, -2.939172968625512e-07, 1.5445116929123935e-07, 0.0044897934024251615, -4.901352038043456e-06, -3.4581005764131553e-07, 8.579501043965432e-07, -9.44996799239412e-06, 4.25619362765485e-06, -4.9013520380434546e-06, 0.002642144242036251, -2.514332191626679e-06, -8.404215859040172e-07, 2.108981000694402e-08, 8.366072746381093e-07, -3.4581005764131553e-07, -2.5143321916266792e-06, 0.0012824234260731245, 1.7685162506974664e-07, -7.537876670478974e-06, 3.0920972167918685e-07, 8.57950104396543e-07, -8.404215859040173e-07, 1.7685162506974667e-07, 0.0012825547501385643, -9.777107935798962e-06, -2.939172968625513e-07, -9.449967992394119e-06, 2.1089810006944014e-08, -7.537876670478972e-06, -9.777107935798962e-06, 0.004574494130367718)",0.04839965556647089,-0.1493691186099252,-0.050459518209635595,0.02156518765582774,-0.006952890035658365,-0.023220722017569244,"(0.19181531746222233, 2.7114750243332455e-06, -0.0002437946144782643, 8.597293477007123e-10, -5.374536689858841e-09, 9.685913909458536e-07, 2.7114750243322633e-06, 0.1917402561565575, 0.001002551149894552, 4.197689648196953e-09, -9.257468769147855e-10, 5.271091675184635e-07, -0.00024379461447826412, 0.0010025511498945516, 0.08200780481388764, -3.3394344199520065e-08, -2.1584308378139316e-08, -8.70125656522459e-10, 8.597293477006313e-10, 4.197689648196962e-09, -3.33943441995205e-08, 0.01780735394068735, -2.9634559229314674e-06, 0.00031772620073668595, -5.374536689858839e-09, -9.257468769147125e-10, -2.1584308378139518e-08, -2.963455922931467e-06, 0.017819326831460886, -0.0008890136536201756, 9.685913909458468e-07, 5.271091675184562e-07, -8.701256565224327e-10, 0.00031772620073668595, -0.0008890136536201751, 0.2473983280428883)"
2025/09/16/13:50:21.153417,201202,1758048621,151494980,odom,base_link,-0.16341302932665241,0.651407895299879,0.003930756716601749,0.0032768525136642173,-0.022198450285431312,-0.81963756058344,0.5724428009184471,"(9.999988105227034e-10, 1.1127704831094148e-20, 4.984326802144017e-19, 2.274156713344428e-24, 7.50185244406744e-26, 1.0660753741915286e-23, 1.1127704831097393e-20, 9.999988105275288e-10, -4.803608370197333e-19, 8.069211943446462e-24, 1.788494055935547e-23, -1.5081177734718598e-22, 4.984326802144016e-19, -4.803608370197331e-19, 9.999980096618714e-10, -2.460787987260154e-23, -1.4584694056419686e-23, 8.594296896841836e-24, 2.274156713344458e-24, 8.069211943446417e-24, -2.460787987260207e-23, 9.999959956705365e-10, 1.376187683698363e-19, -1.3426028801771239e-18, 7.501852444079024e-26, 1.7884940559355363e-23, -1.4584694056419915e-23, 1.376187683698363e-19, 9.99995995862485e-10, -2.3237968147253635e-18, 1.06607537419148e-23, -1.5081177734718502e-22, 8.594296896841835e-24, -1.3426028801771239e-18, -2.323796814725363e-18, 9.999988151342955e-10)",0.04416402361288847,-0.15067520712587398,-0.0294404159473855,0.03139477432038608,-0.006916784265088852,-0.023205351538602637,"(0.17866497409186952, -2.6627725163008885e-06, -0.0002954011245252651, 1.4147719323886792e-09, -7.4232298295019575e-09, 1.377140935978696e-06, -2.662772516303805e-06, 0.1785968258676932, 0.0007620763428285692, 7.894330383217854e-09, 1.0849181361223937e-11, 6.195415056778569e-07, -0.00029540112452526487, 0.000762076342828569, 0.07776549639636349, -3.937710762473559e-08, -2.3206979757398082e-08, 5.919216861944641e-09, 1.4147719323886221e-09, 7.894330383217805e-09, -3.93771076247365e-08, 0.017390478296774595, -2.701220294573064e-06, 0.00039537481503166655, -7.4232298295019915e-09, 1.0849181361416596e-11, -2.320697975739849e-08, -2.7012202945730633e-06, 0.017400619607339116, -0.0006727311233576179, 1.3771409359786888e-06, 6.195415056778493e-07, 5.9192168619449955e-09, 0.00039537481503166655, -0.0006727311233576177, 0.22659600781307646)"
2025/09/16/13:50:21.163305,201203,1758048621,163194656,odom,base_link,-0.16523516121790127,0.651517364110677,0.0035255802077218215,0.0033518095347565002,-0.02237170765853151,-0.819711297809668,0.5723300274426231,"(0.0011944477007198586, 2.0766213603271427e-08, 5.364033770246535e-07, 1.2022106745454806e-12, 4.3351083229698095e-15, 1.4491973458171658e-11, 2.076621360327058e-08, 0.0011944597726361742, -4.4803422190371013e-07, 3.224129679039158e-12, 9.514702166190836e-12, -2.0795063605487937e-10, 5.364033770246537e-07, -4.4803422190371013e-07, 0.0007127091522869095, -7.2622269569246235e-12, -4.046525386254358e-12, 7.871729977818111e-12, 1.2022106745454937e-12, 3.2241296790391368e-12, -7.26222695692475e-12, 0.00035338203608857474, 2.2326891756427845e-08, -5.667807424914415e-07, 4.335108323022841e-15, 9.514702166190776e-12, -4.046525386254411e-12, 2.2326891756427845e-08, 0.00035342669491474315, -1.2407892862084226e-06, 1.4491973458171008e-11, -2.0795063605487805e-10, 7.871729977818093e-12, -5.667807424914415e-07, -1.2407892862084226e-06, 0.0012009446127294525)",0.04422127976329212,-0.15078420385094526,-0.029552477583339995,0.03139477432038608,-0.006916784265088852,-0.023205351538602637,"(0.18233743358336674, -2.673864202940625e-06, -0.000297156328585647, 1.417299701400624e-09, -7.4375451251538344e-09, 1.3798757091843476e-06, -2.6738642029435374e-06, 0.18226901935097584, 0.0007662856876934817, 7.910450624230065e-09, 1.1499850787629459e-11, 6.207398199282955e-07, -0.0002971563285856468, 0.0007662856876934816, 0.07894103157868614, -3.9488721152053e-08, -2.327500750072507e-08, 5.947087870925575e-09, 1.4172997014005667e-09, 7.910450624230017e-09, -3.948872115205391e-08, 0.017507475061911314, -2.701220294573064e-06, 0.00039537481503166655, -7.437545125153867e-09, 1.1499850787822344e-11, -2.327500750072548e-08, -2.7012202945730633e-06, 0.017517616372475835, -0.0006727311233576179, 1.3798757091843404e-06, 6.207398199282878e-07, 5.94708787092593e-09, 0.00039537481503166655, -0.0006727311233576177, 0.2324458460699124)"
2025/09/16/13:50:21.173368,201204,1758048621,164848089,odom,base_link,-0.16544103625941048,0.652301549346972,0.007665833895294783,0.004588005702988769,-0.024021592902463723,-0.8195843737699102,0.572436343666509,"(9.99999268586961e-10, 1.4767011068583823e-20, 6.2782667339307e-19, 3.449235642370046e-20, 1.2741785879197567e-20, -9.925550529130935e-21, 1.47670110685835e-20, 9.99999268595492e-10, -5.242731665827982e-19, -1.6127465647196207e-20, 3.454712621389164e-20, -1.6522038570478872e-19, 6.2782667339307e-19, -5.242731665827985e-19, 9.999987732652824e-10, -2.656442310054182e-19, -7.986576067836767e-20, -1.0097235541430133e-22, 3.449235642370045e-20, -1.6127465647196198e-20, -2.6564423100541825e-19, 9.999975229717522e-10, 1.7335499100374383e-19, -1.3365626923648716e-18, 1.2741785879197565e-20, 3.4547126213891645e-20, -7.986576067836762e-20, 1.733549910037438e-19, 9.999975233195829e-10, -2.9135115376445504e-18, -9.925550529130938e-21, -1.6522038570478874e-19, -1.0097235541430129e-22, -1.336562692364872e-18, -2.9135115376445504e-18, 9.999992730818507e-10)",0.04315663557669243,-0.15063680423800277,-0.024159000595959056,0.033736031334521195,-0.006835480570271893,-0.023087365365446273,"(0.1786470933984283, -4.748278567441394e-06, -0.00030960261065578063, 1.5151958167708677e-09, -6.814515896983262e-09, 1.3116976875789553e-06, -4.748278567445139e-06, 0.1785773061228704, 0.0006877871591835105, 7.77022960604436e-09, 2.0980795944675982e-10, 5.894788288739417e-07, -0.00030960261065578047, 0.0006877871591835104, 0.0777631945809544, -3.8586424898806144e-08, -2.2724042256814337e-08, 5.239037179046661e-09, 1.5151958167708106e-09, 7.770229606044313e-09, -3.858642489880705e-08, 0.017390311105556312, -2.528831543471677e-06, 0.0004146863422217839, -6.814515896983291e-09, 2.098079594469423e-10, -2.2724042256814737e-08, -2.5288315434716762e-06, 0.01740001707910289, -0.0006001168469472357, 1.3116976875789488e-06, 5.894788288739345e-07, 5.239037179047001e-09, 0.0004146863422217839, -0.0006001168469472355, 0.2265371875022624)"
2025/09/16/13:50:21.183353,201205,1758048621,183210135,odom,base_link,-0.16829504986287588,0.6524924855655073,0.007113833121567573,0.004718902579977631,-0.02431042260196444,-0.8196984881124959,0.5722596647479561,"(0.0018965571293493302, 5.7532644830568574e-08, 1.4432196895236626e-06, 2.5799743700503375e-12, -1.9935469806566282e-13, 3.385618973247697e-11, 5.753264483055641e-08, 0.001896594249329625, -1.140496145884598e-06, 7.588335877157435e-12, 2.4004313944958985e-11, -4.865266823564955e-10, 1.4432196895236624e-06, -1.1404961458845985e-06, 0.0011282275459424467, -1.60463714913771e-11, -9.388786185767144e-12, 1.9156032255203674e-11, 2.579974370050371e-12, 7.588335877157388e-12, -1.6046371491377406e-11, 0.0005567506410005597, 5.977597807037796e-08, -1.3839427993513877e-06, -1.9935469806553145e-13, 2.4004313944958837e-11, -9.388786185767277e-12, 5.977597807037797e-08, 0.0005568875935578458, -3.346591422854009e-06, 3.385618973247544e-11, -4.865266823564926e-10, 1.915603225520363e-11, -1.383942799351388e-06, -3.3465914228540086e-06, 0.0019124578560275837)",0.04324299327196645,-0.15080735611335044,-0.024296541848762482,0.033736031334521195,-0.006835480570271893,-0.023087365365446273,"(0.18441763680012105, -4.779302392296938e-06, -0.0003125028080195884, 1.5194659000684195e-09, -6.83501879056101e-09, 1.3157721369817882e-06, -4.77930239230068e-06, 0.18434742188921746, 0.0006936262412101326, 7.795051049893441e-09, 2.1142398363081984e-10, 5.912611841016879e-07, -0.00031250280801958823, 0.0006936262412101325, 0.07961288270517103, -3.87558937972183e-08, -2.2827282662280272e-08, 5.278086980561101e-09, 1.5194659000683622e-09, 7.795051049893395e-09, -3.875589379721921e-08, 0.017573931558437172, -2.528831543471677e-06, 0.0004146863422217839, -6.835018790561037e-09, 2.1142398363100262e-10, -2.282728266228068e-08, -2.5288315434716762e-06, 0.01758363753198375, -0.0006001168469472357, 1.3157721369817816e-06, 5.912611841016807e-07, 5.2780869805614415e-09, 0.0004146863422217839, -0.0006001168469472355, 0.23571821014630537)"
2025/09/16/13:50:21.193425,201206,1758048621,193222046,odom,base_link,-0.16985242170158915,0.6525969366121555,0.006810852562137947,0.004790289130421054,-0.02446789847745769,-0.8197606616798816,0.572163291933611,"(0.0029822224208099846, 1.3919052815497032e-07, 3.4768606536183662e-06, 1.5825536398380008e-07, 5.916983203721735e-08, -2.0517262651252852e-07, 1.3919052815494975e-07, 0.0029823165514946213, -2.7463865842919796e-06, -7.270459766873673e-08, 1.674188672533037e-07, -3.0454897272936363e-06, 3.4768606536183654e-06, -2.746386584291979e-06, 0.0017660477241803621, -8.385370276903118e-07, -2.464710143281573e-07, 5.566534290677648e-09, 1.5825536398380003e-07, -7.270459766873673e-08, -8.38537027690312e-07, 0.0008653000288880351, 1.444196192490601e-07, -3.3610294159784664e-06, 5.9169832037217356e-08, 1.6741886725330369e-07, -2.464710143281573e-07, 1.444196192490601e-07, 0.0008656306052296788, -8.066805821391502e-06, -2.0517262651252852e-07, -3.045489727293637e-06, 5.566534290677649e-09, -3.361029415978467e-06, -8.066805821391502e-06, 0.0030203875221791465)",0.04329007983446829,-0.15090034958096074,-0.024371536263286402,0.033736031334521195,-0.006835480570271893,-0.023087365365446273,"(0.18757996435468408, -4.796261143735551e-06, -0.0003140898674597391, 1.5217941644279564e-09, -6.8461980002058935e-09, 1.317993731894185e-06, -4.796261143739292e-06, 0.18750951571610217, 0.0006968198430984763, 7.808584950531678e-09, 2.123051213627357e-10, 5.922330138913257e-07, -0.00031408986745973895, 0.0006968198430984762, 0.0806324860188047, -3.8848296771288905e-08, -2.2883574528213728e-08, 5.299378898019757e-09, 1.521794164427899e-09, 7.808584950531632e-09, -3.884829677128982e-08, 0.01767405067235929, -2.528831543471677e-06, 0.0004146863422217839, -6.84619800020592e-09, 2.1230512136291865e-10, -2.2883574528214138e-08, -2.5288315434716762e-06, 0.01768375664590587, -0.0006001168469472357, 1.3179937318941785e-06, 5.922330138913185e-07, 5.2993788980200986e-09, 0.0004146863422217839, -0.0006001168469472355, 0.24072416584241133)"
2025/09/16/13:50:21.203378,201207,1758048621,203230143,odom,base_link,-0.171410093471953,0.6527015012744727,0.006506717850902211,0.004861648284203206,-0.02462531330023883,-0.8198227762902129,0.5720669312210185,"(0.004104941264532979, 2.5855784384632654e-07, 6.42729885025953e-06, 4.062303014119314e-07, 1.524529218933753e-07, -5.349454114373591e-07, 2.5855784384629493e-07, 0.004105127927215282, -5.077667228821115e-06, -1.8355850913046367e-07, 4.3687673033937474e-07, -7.920312008040784e-06, 6.427298850259532e-06, -5.077667228821117e-06, 0.002419981502486147, -2.146718883607092e-06, -6.316366801990811e-07, 1.9273240861815545e-08, 4.062303014119313e-07, -1.8355850913046362e-07, -2.1467188836070924e-06, 0.001177279798696925, 2.6795846724640657e-07, -6.232929852139158e-06, 1.5245292189337534e-07, 4.3687673033937484e-07, -6.316366801990809e-07, 2.6795846724640657e-07, 0.0011778933148268802, -1.4931355361147065e-05, -5.349454114373591e-07, -7.920312008040786e-06, 1.9273240861815545e-08, -6.2329298521391586e-06, -1.4931355361147064e-05, 0.004175541041354788)",0.04333714845624191,-0.1509933076165828,-0.024446502103747207,0.033736031334521195,-0.006835480570271893,-0.023087365365446273,"(0.1907523612143342, -4.8132437621931515e-06, -0.0003156803606920582, 1.524121541681791e-09, -6.8573729503943364e-09, 1.3202144803436335e-06, -4.813243762196891e-06, 0.19068167854260562, 0.0007000191687168339, 7.822113694538805e-09, 2.1318592336718004e-10, 5.932044733983775e-07, -0.0003156803606920581, 0.0007000191687168339, 0.08165955247877701, -3.89406645383587e-08, -2.2939844946052147e-08, 5.320662702919669e-09, 1.5241215416817334e-09, 7.822113694538759e-09, -3.894066453835961e-08, 0.017774131639308754, -2.528831543471677e-06, 0.0004146863422217839, -6.857372950394362e-09, 2.1318592336736318e-10, -2.2939844946052557e-08, -2.5288315434716762e-06, 0.017783837612855333, -0.0006001168469472357, 1.320214480343627e-06, 5.932044733983703e-07, 5.320662702920011e-09, 0.0004146863422217839, -0.0006001168469472355, 0.24572821418988447)"
2025/09/16/13:50:21.213397,201208,1758048621,211487293,odom,base_link,-0.17196446383854339,0.6553084831781547,0.020762691314852425,0.008259449426692073,-0.02917061048978356,-0.8194675737800455,0.572323118965036,"(9.99998806534998e-10, 1.9216109339794902e-20, 7.577527189547077e-19, 2.9286894501199365e-24, 5.3540542387635955e-25, 4.789072646408523e-24, 1.921610933979546e-20, 9.999988065484875e-10, -5.661232220298912e-19, 9.02305966157126e-24, 3.0006061120998765e-23, -1.6838459550387867e-22, 7.577527189547075e-19, -5.661232220298907e-19, 9.999980030826296e-10, -2.667834568332785e-23, -1.5663977200822713e-23, 1.1889843421252369e-23, 2.92868945011991e-24, 9.023059661571274e-24, -2.6678345683328513e-23, 9.999959824235426e-10, 2.0966949042321897e-19, -1.3202211266052168e-18, 5.354054238764694e-25, 3.0006061120998707e-23, -1.5663977200822745e-23, 2.0966949042321892e-19, 9.999959829807792e-10, -3.577514634339893e-18, 4.789072646408279e-24, -1.6838459550387837e-22, 1.1889843421252396e-23, -1.3202211266052162e-18, -3.577514634339896e-18, 9.999988111157524e-10)",0.039640623013233324,-0.14945288844473273,-0.005950981732237637,0.04007507080057066,-0.006609403453773073,-0.022724213862115695,"(0.1786402545321304, -1.2098235918586082e-05, -0.00035541129637212284, 1.8213859946787643e-09, -5.647548477374953e-09, 1.5641238705641269e-06, -1.2098235918585447e-05, 0.1785610872105731, 0.0004236974315338106, 8.567410203833904e-09, 9.95527542767311e-10, 6.264774626563849e-07, -0.00035541129637212295, 0.00042369743153381043, 0.07776284715916379, -4.2904407172904093e-08, -2.33343859247857e-08, 9.624988519990508e-09, 1.8213859946786899e-09, 8.567410203833694e-09, -4.290440717290523e-08, 0.01739044248616491, -1.7502811418889298e-06, 0.000476276178851483, -5.647548477374992e-09, 9.955275427675215e-10, -2.333438592478577e-08, -1.750281141888929e-06, 0.017399045157756886, -0.00034433425495815665, 1.564123870564125e-06, 6.264774626563818e-07, 9.624988519990857e-09, 0.00047627617885148313, -0.00034433425495815643, 0.22645741389326676)"
2025/09/16/13:50:21.223293,201209,1758048621,221503496,odom,base_link,-0.1732381137792957,0.6559152002496013,0.023583865521786068,0.008891573941198497,-0.030018727375749902,-0.8194573923892301,0.57228436810578,"(9.999990191677643e-10, 2.225905597775521e-20, 8.47025571864874e-19, 3.194101196872544e-24, 5.859158274000879e-25, 4.457913029563726e-24, 2.2259055977754105e-20, 9.999990191855365e-10, -5.933660458441966e-19, 8.332695460594549e-24, 3.246968900898147e-23, -1.6297712180005123e-22, 8.470255718648739e-19, -5.933660458441965e-19, 9.999983575489764e-10, -3.203464216108499e-23, -1.7230556408113404e-23, 1.1960912233082601e-23, 3.1941011968725206e-24, 8.332695460594565e-24, -3.203464216108562e-23, 9.99996691367374e-10, 2.309283080603554e-19, -1.298535069811572e-18, 5.859158274001985e-25, 3.24696890089814e-23, -1.7230556408113434e-23, 2.309283080603554e-19, 9.9999669208152e-10, -3.984619844345244e-18, 4.457913029563507e-24, -1.629771218000509e-22, 1.1960912233082629e-23, -1.2985350698115715e-18, -3.984619844345244e-18, 9.99999023696956e-10)",0.03890228134440768,-0.14887520650707586,-0.00214712295544701,0.0410608441418354,-0.006539764166789848,-0.02264460312119623,"(0.17862569973696524, -1.3894028762781971e-05, -0.000364417832169307, 1.8890604165769094e-09, -5.121375859643256e-09, 1.5047194734521396e-06, -1.3894028762781634e-05, 0.17854238926325045, 0.0003606951604207725, 8.45353970896952e-09, 1.1516157541335767e-09, 6.026360236893408e-07, -0.00036441783216930706, 0.00036069516042077233, 0.07776173242601539, -4.22180304179486e-08, -2.2956791219354205e-08, 8.896612619778705e-09, 1.8890604165768366e-09, 8.453539708969314e-09, -4.2218030417949724e-08, 0.017390301548339152, -1.5260657793093959e-06, 0.000488256791131773, -5.121375859643294e-09, 1.1516157541337816e-09, -2.2956791219354274e-08, -1.526065779309395e-06, 0.017398793344252584, -0.00028354448396630404, 1.504719473452138e-06, 6.026360236893377e-07, 8.89661261977904e-09, 0.0004882567911317731, -0.0002835444839663038, 0.22639634709260112)"
2025/09/16/13:50:21.233344,201210,1758048621,233222723,odom,base_link,-0.17503022623481995,0.6560850766100496,0.023464226500693724,0.009001817665308706,-0.030236653823166707,-0.8195264097088725,0.5721723305386095,"(0.0011964591213535366, 3.2618448516080166e-08, 7.396220181487658e-07, 1.2692744973458152e-12, 2.14356877659386e-13, 6.1158214111888994e-12, 3.2618448516082674e-08, 0.001196486048710309, -5.091489271584521e-07, 3.4496847672039445e-12, 1.3812583307425421e-11, -2.2397821077554965e-10, 7.396220181487664e-07, -5.091489271584521e-07, 0.0007139410717575916, -7.671843499778386e-12, -4.220512165143165e-12, 1.0035730917565408e-11, 1.2692744973458057e-12, 3.4496847672039506e-12, -7.671843499778542e-12, 0.00035397569445724266, 3.024856577227501e-08, -5.464198742772477e-07, 2.143568776594336e-13, 1.3812583307425394e-11, -4.220512165143174e-12, 3.024856577227501e-08, 0.00035407322362817137, -1.740630838017092e-06, 6.115821411188591e-12, -2.2397821077554932e-10, 1.0035730917565424e-11, -5.464198742772477e-07, -1.7406308380170922e-06, 0.0012029233591704424)",0.03894799894889495,-0.14897934595748297,-0.00213401487922348,0.0410608441418354,-0.006539764166789848,-0.02264460312119623,"(0.18230425204229356, -1.3951744976292707e-05, -0.00036661547233673617, 1.8924915256095275e-09, -5.131039383307171e-09, 1.5077137308723802e-06, -1.3951744976292356e-05, 0.18222061466190112, 0.00036227263436193886, 8.470632142189552e-09, 1.1544538241381463e-09, 6.038014477229659e-07, -0.0003666154723367362, 0.00036227263436193865, 0.0789392521456434, -4.234220432441546e-08, -2.3023469705987795e-08, 8.938216931461044e-09, 1.8924915256094547e-09, 8.470632142189348e-09, -4.234220432441659e-08, 0.017507493816710733, -1.5260657793093959e-06, 0.000488256791131773, -5.131039383307207e-09, 1.1544538241383517e-09, -2.3023469705987864e-08, -1.526065779309395e-06, 0.017515985612624164, -0.00028354448396630404, 1.5077137308723785e-06, 6.038014477229628e-07, 8.93821693146138e-09, 0.0004882567911317731, -0.0002835444839663038, 0.23225596051118022)"
2025/09/16/13:50:21.255855,201211,1758048621,253234148,odom,base_link,-0.17809331194352998,0.6563757224652834,0.023258746038234076,0.00919003005032329,-0.030608791938324997,-0.8196441099497778,0.5719809247067488,"(0.003354750839454421, 2.4414541495620275e-07, 5.501172846183921e-06, 6.740982204469565e-08, 2.6837797134135506e-08, -3.6558113318788795e-07, 2.4414541495619814e-07, 0.003354962567899271, -3.7863143119784556e-06, -4.2608100172549994e-08, 8.369085571571611e-08, -3.849136356966077e-06, 5.50117284618392e-06, -3.7863143119784548e-06, 0.0019837273890802223, -1.0650952961041118e-06, -2.8184290644031234e-07, 8.276386506990854e-09, 6.740982204469566e-08, -4.2608100172549994e-08, -1.0650952961041116e-06, 0.000969548919511133, 2.259004299166111e-07, -4.095659652641894e-06, 2.683779713413551e-08, 8.369085571571614e-08, -2.818429064403124e-07, 2.2590042991661114e-07, 0.0009702774434647021, -1.2959448541099725e-05, -3.65581133187888e-07, -3.849136356966077e-06, 8.276386506990857e-09, -4.095659652641894e-06, -1.2959448541099727e-05, 0.0034026548240969675)",0.03902606505572318,-0.14915717157961889,-0.0021116318937137394,0.0410608441418354,-0.006539764166789848,-0.02264460312119623,"(0.1886212735857879, -1.4050577062306804e-05, -0.0003703831080801416, 1.8983503917352504e-09, -5.14754054689929e-09, 1.51282664136411e-06, -1.4050577062306435e-05, 0.18853707648737422, 0.0003649742708467219, 8.499818704623743e-09, 1.1593000333533383e-09, 6.057914933110827e-07, -0.00037038310808014163, 0.0003649742708467217, 0.08097468292829219, -4.255424022516392e-08, -2.313732803078544e-08, 9.00925929417304e-09, 1.8983503917351772e-09, 8.499818704623541e-09, -4.2554240225165057e-08, 0.017707608066893837, -1.5260657793093959e-06, 0.000488256791131773, -5.147540546899324e-09, 1.1593000333535441e-09, -2.3137328030785514e-08, -1.526065779309395e-06, 0.01771609986280727, -0.00028354448396630404, 1.5128266413641082e-06, 6.057914933110797e-07, 9.009259294173376e-09, 0.0004882567911317731, -0.0002835444839663038, 0.2422616730203355)"
2025/09/16/13:50:21.275182,201212,1758048621,271503925,odom,base_link,-0.1788097773715031,0.6586332317848876,0.037767718585357254,0.011111158833821,-0.03256652189131101,-0.8194927588325835,0.5720555759908589,"(9.99999266553087e-10, 2.5456336588171032e-20, 9.153142152367097e-19, 2.7635153890683135e-24, 8.71025859727138e-25, 1.607852496322296e-24, 2.5456336588171255e-20, 9.999992665759823e-10, -6.0009018168161e-19, 7.706353879851002e-24, 3.34498373042442e-23, -1.5452688857895419e-22, 9.1531421523671e-19, -6.000901816816102e-19, 9.999987699691153e-10, -2.972372042065278e-23, -1.6305987488051535e-23, 1.1758709447685864e-23, 2.7635153890683128e-24, 7.706353879851013e-24, -2.972372042065342e-23, 9.999975162543427e-10, 2.4211200020354654e-19, -1.2305219250536851e-18, 8.710258597272494e-25, 3.344983730424414e-23, -1.630598748805162e-23, 2.4211200020354654e-19, 9.999975171424036e-10, -4.368239818578463e-18, 1.6078524963220677e-24, -1.5452688857895402e-22, 1.1758709447685892e-23, -1.2305219250536851e-18, -4.368239818578463e-18, 9.999992709932387e-10)",0.035413585514972715,-0.14463332917543034,0.016525215243598596,0.04371646870348741,-0.005968722166169971,-0.02221077983840016,"(0.17865864037062526, -2.2334124028304232e-05, -0.0004050159744691336, 2.1518936685157755e-09, -2.449991020961328e-09, 1.439628866253825e-06, -2.2334124028304005e-05, 0.17855291102661097, 5.2319475975361255e-05, 7.796742510651267e-09, 1.872196190247053e-09, 5.490149992919636e-07, -0.0004050159744691336, 5.2319475975361025e-05, 0.07776989858453723, -4.204127587168123e-08, -2.2194937014817777e-08, 8.777038524350024e-09, 2.1518936685157035e-09, 7.796742510651126e-09, -4.204127587168239e-08, 0.01739098191648226, -2.734159546237038e-07, 0.0005415051966101899, -2.4499910209613763e-09, 1.8721961902472228e-09, -2.2194937014817932e-08, -2.7341595462370303e-07, 0.017399516194402564, 1.104227458050438e-05, 1.4396288662538238e-06, 5.490149992919607e-07, 8.777038524350416e-09, 0.00054150519661019, 1.1042274580504552e-05, 0.2263532928370866)"
2025/09/16/13:50:21.283414,201213,1758048621,281501770,odom,base_link,-0.17975428753456293,0.6591256853743401,0.040621458639605895,0.011315665118190115,-0.03278528208915921,-0.8195158793719738,0.5720059479222641,"(9.999990173292839e-10, 2.6038639201627735e-20, 9.320301850170924e-19, 2.566771807871019e-24, 8.127806762311715e-25, 1.4693236528164154e-24, 2.603863920162696e-20, 9.999990173533079e-10, -6.024692613918945e-19, 7.241609156220296e-24, 3.24688831526536e-23, -1.4909394246500627e-22, 9.32030185017092e-19, -6.024692613918944e-19, 9.999983545128897e-10, -3.12868392733544e-23, -1.649268075674034e-23, 1.1290099958005469e-23, 2.5667718078710204e-24, 7.241609156220307e-24, -3.1286839273355036e-23, 9.99996685247878e-10, 2.429172762311415e-19, -1.2168284356603933e-18, 8.127806762312818e-25, 3.2468883152653566e-23, -1.649268075674043e-23, 2.429172762311415e-19, 9.999966861719866e-10, -4.4625454212026564e-18, 1.4693236528161882e-24, -1.4909394246500615e-22, 1.1290099958005502e-23, -1.216828435660394e-18, -4.462545421202655e-18, 9.99999021834996e-10)",0.03472200566819556,-0.14347704106314346,0.020162268357891314,0.043804982818344634,-0.0058906203370181496,-0.022040390676796466,"(0.1786435022959938, -2.3918136939596846e-05, -0.00041202507759622486, 2.187774876261626e-09, -2.0263382155900956e-09, 1.3849857459019536e-06, -2.391813693959601e-05, 0.1785326703249061, -9.286634290792033e-06, 7.689596453767532e-09, 1.9891454998115477e-09, 5.281260892581074e-07, -0.0004120250775962249, -9.286634290792198e-06, 0.07776929449878679, -4.1368577685993434e-08, -2.1835748440778717e-08, 8.118069165707692e-09, 2.187774876261555e-09, 7.689596453767397e-09, -4.136857768599458e-08, 0.017390836790213703, 2.3048224732707238e-09, 0.0005505765724144105, -2.026338215590142e-09, 1.989145499811713e-09, -2.1835748440778873e-08, 2.304822473271518e-09, 0.01739950985575845, 6.959890241820594e-05, 1.3849857459019526e-06, 5.281260892581046e-07, 8.118069165708069e-09, 0.0005505765724144106, 6.95989024182061e-05, 0.22628719365002462)"
2025/09/16/13:50:21.295239,201214,1758048621,293228149,odom,base_link,-0.18148489906449655,0.6593311824447039,0.040753480145581486,0.011438479641971293,-0.033014072687949106,-0.8195817292944759,0.5718959880911137,"(0.0011971982161158648, 3.687632258405932e-08, 7.932610488933228e-07, 1.0361230782229677e-12, 3.2812082523012725e-13, 2.0157049341632855e-12, 3.687632258405888e-08, 0.0011972325132600633, -5.103800851891906e-07, 2.9910918904886668e-12, 1.3514306993737891e-11, -2.0514469043931248e-10, 7.932610488933234e-07, -5.103800851891908e-07, 0.0007143905440383626, -7.490409412471397e-12, -4.0271651659672464e-12, 9.363628207648512e-12, 1.0361230782229687e-12, 2.99109189048867e-12, -7.490409412471557e-12, 0.0003541920534183783, 3.101835363528816e-08, -5.122267392966676e-07, 3.2812082523017294e-13, 1.351430699373787e-11, -4.027165165967267e-12, 3.101835363528816e-08, 0.0003543114569225877, -1.9022798803782056e-06, 2.0157049341629717e-12, -2.0514469043931217e-10, 9.363628207648535e-12, -5.122267392966677e-07, -1.9022798803782056e-06, 0.0012036399393999839)",0.03475856318574304,-0.14356890241283488,0.02027529378689072,0.043804982818344634,-0.0058906203370181496,-0.022040390676796466,"(0.1823243497020782, -2.40172400117736e-05, -0.0004145193531338893, 2.1917553044913004e-09, -2.0297390287834714e-09, 1.387721928787619e-06, -2.4017240011772756e-05, 0.18221307858929156, -1.0100918376105198e-05, 7.704914233518969e-09, 1.993537679962954e-09, 5.29137375101683e-07, -0.00041451935313388934, -1.0100918376105364e-05, 0.07894759422702648, -4.148840480487947e-08, -2.1897161523746232e-08, 8.156312432994005e-09, 2.1917553044912293e-09, 7.704914233518835e-09, -4.148840480488062e-08, 0.017508100584159015, 2.3048224732707238e-09, 0.0005505765724144105, -2.029739028783517e-09, 1.99353767996312e-09, -2.1897161523746388e-08, 2.304822473271518e-09, 0.017516773649703762, 6.959890241820594e-05, 1.387721928787618e-06, 5.291373751016802e-07, 8.156312432994382e-09, 0.0005505765724144106, 6.95989024182061e-05, 0.23215038334729024)"
